$GPRMC,094351,A,3736.9069,N,12222.9087,W,000.0,000.0,091114,0,E*7C
$GPGGA,094351,3736.9069,N,12222.9087,W,1,04,0.9,0,M,0.0,M,,*79
$GPRMC,094356,A,3736.9069,N,12222.9087,W,000.0,000.0,091114,0,E*7B
$GPGGA,094356,3736.9069,N,12222.9087,W,1,04,0.9,10.9728,M,0.0,M,,*65
$GPRMC,094412,A,3736.9069,N,12222.9087,W,000.0,000.0,091114,0,E*7C
$GPGGA,094412,3736.9069,N,12222.9087,W,1,04,0.9,8.83920000000001,M,0.0,M,,*5E
$GPRMC,094416,A,3736.9069,N,12222.9087,W,000.0,000.0,091114,0,E*78
$GPGGA,094416,3736.9069,N,12222.9087,W,1,04,0.9,0,M,0.0,M,,*7D
$GPRMC,094436,A,3736.9132,N,12222.9111,W,000.0,000.0,091114,0,E*7B
$GPGGA,094436,3736.9132,N,12222.9111,W,1,04,0.9,0,M,0.0,M,,*7E
$GPRMC,094437,A,3736.9134,N,12222.9111,W,000.0,000.0,091114,0,E*7C
$GPGGA,094437,3736.9134,N,12222.9111,W,1,04,0.9,0,M,0.0,M,,*79
$GPRMC,094456,A,3736.9119,N,12222.9105,W,000.0,000.0,091114,0,E*71
$GPGGA,094456,3736.9119,N,12222.9105,W,1,04,0.9,0,M,0.0,M,,*74
$GPRMC,094457,A,3736.9118,N,12222.9105,W,000.0,000.0,091114,0,E*71
$GPGGA,094457,3736.9118,N,12222.9105,W,1,04,0.9,0,M,0.0,M,,*74
$GPRMC,094517,A,3736.9128,N,12222.9121,W,000.0,000.0,091114,0,E*71
$GPGGA,094517,3736.9128,N,12222.9121,W,1,04,0.9,0,M,0.0,M,,*74
$GPRMC,094518,A,3736.9126,N,12222.9121,W,000.0,000.0,091114,0,E*70
$GPGGA,094518,3736.9126,N,12222.9121,W,1,04,0.9,0,M,0.0,M,,*75
$GPRMC,094529,A,3736.9102,N,12222.9108,W,000.0,000.0,091114,0,E*7F
$GPGGA,094529,3736.9102,N,12222.9108,W,1,04,0.9,0,M,0.0,M,,*7A
$GPRMC,100324,A,3736.9140,N,12222.8689,W,000.0,000.0,091114,0,E*71
$GPGGA,100324,3736.9140,N,12222.8689,W,1,04,0.9,0,M,0.0,M,,*74
$GPRMC,100325,A,3736.9137,N,12222.8718,W,000.0,000.0,091114,0,E*79
$GPGGA,100325,3736.9137,N,12222.8718,W,1,04,0.9,16.764,M,0.0,M,,*50
$GPRMC,100326,A,3736.9088,N,12222.8727,W,000.0,000.0,091114,0,E*73
$GPGGA,100326,3736.9088,N,12222.8727,W,1,04,0.9,0,M,0.0,M,,*76
$GPRMC,100327,A,3736.9083,N,12222.8992,W,000.0,000.0,091114,0,E*79
$GPGGA,100327,3736.9083,N,12222.8992,W,1,04,0.9,10.9728,M,0.0,M,,*67
$GPRMC,100330,A,3736.9079,N,12222.8985,W,000.0,000.0,091114,0,E*7C
$GPGGA,100330,3736.9079,N,12222.8985,W,1,04,0.9,0,M,0.0,M,,*79
$GPRMC,100334,A,3736.9085,N,12222.8916,W,000.0,000.0,091114,0,E*71
$GPGGA,100334,3736.9085,N,12222.8916,W,1,04,0.9,13.716,M,0.0,M,,*58
$GPRMC,100348,A,3736.9096,N,12222.8846,W,000.0,000.0,091114,0,E*7C
$GPGGA,100348,3736.9096,N,12222.8846,W,1,04,0.9,10.9728,M,0.0,M,,*62
$GPRMC,100352,A,3736.9096,N,12222.8846,W,000.0,000.0,091114,0,E*77
$GPGGA,100352,3736.9096,N,12222.8846,W,1,04,0.9,1.8288,M,0.0,M,,*57
$GPRMC,100411,A,3736.9146,N,12222.8795,W,000.0,000.0,091114,0,E*7A
$GPGGA,100411,3736.9146,N,12222.8795,W,1,04,0.9,1.8288,M,0.0,M,,*5A
$GPRMC,100412,A,3736.9157,N,12222.8788,W,000.0,000.0,091114,0,E*75
$GPGGA,100412,3736.9157,N,12222.8788,W,1,04,0.9,1.8288,M,0.0,M,,*55
$GPRMC,100431,A,3736.9267,N,12222.8757,W,000.0,000.0,091114,0,E*76
$GPGGA,100431,3736.9267,N,12222.8757,W,1,04,0.9,2.7432,M,0.0,M,,*5D
$GPRMC,100432,A,3736.9271,N,12222.8757,W,000.0,000.0,091114,0,E*72
$GPGGA,100432,3736.9271,N,12222.8757,W,1,04,0.9,2.7432,M,0.0,M,,*59
$GPRMC,100451,A,3736.9364,N,12222.8814,W,000.0,000.0,091114,0,E*7A
$GPGGA,100451,3736.9364,N,12222.8814,W,1,04,0.9,3.9624,M,0.0,M,,*5B
$GPRMC,100452,A,3736.9366,N,12222.8819,W,000.0,000.0,091114,0,E*76
$GPGGA,100452,3736.9366,N,12222.8819,W,1,04,0.9,3.9624,M,0.0,M,,*57
$GPRMC,100511,A,3736.9388,N,12222.8951,W,000.0,000.0,091114,0,E*7D
$GPGGA,100511,3736.9388,N,12222.8951,W,1,04,0.9,4.87680000000001,M,0.0,M,,*52
$GPRMC,100513,A,3736.9388,N,12222.8961,W,000.0,000.0,091114,0,E*7C
$GPGGA,100513,3736.9388,N,12222.8961,W,1,04,0.9,4.87680000000001,M,0.0,M,,*53
$GPRMC,100531,A,3736.9379,N,12222.9076,W,000.0,000.0,091114,0,E*7C
$GPGGA,100531,3736.9379,N,12222.9076,W,1,04,0.9,3.9624,M,0.0,M,,*5D
$GPRMC,100533,A,3736.9379,N,12222.9076,W,000.0,000.0,091114,0,E*7E
$GPGGA,100533,3736.9379,N,12222.9076,W,1,04,0.9,3.9624,M,0.0,M,,*5F
$GPRMC,100551,A,3736.9359,N,12222.8988,W,000.0,000.0,091114,0,E*71
$GPGGA,100551,3736.9359,N,12222.8988,W,1,04,0.9,3.9624,M,0.0,M,,*50
$GPRMC,100553,A,3736.9359,N,12222.8988,W,000.0,000.0,091114,0,E*73
$GPGGA,100553,3736.9359,N,12222.8988,W,1,04,0.9,3.9624,M,0.0,M,,*52
$GPRMC,100613,A,3736.9337,N,12222.8940,W,000.0,000.0,091114,0,E*78
$GPGGA,100613,3736.9337,N,12222.8940,W,1,04,0.9,4.87680000000001,M,0.0,M,,*57
$GPRMC,100613,A,3736.9337,N,12222.8940,W,000.0,000.0,091114,0,E*78
$GPGGA,100613,3736.9337,N,12222.8940,W,1,04,0.9,4.87680000000001,M,0.0,M,,*57
$GPRMC,100633,A,3736.9337,N,12222.8940,W,000.0,000.0,091114,0,E*7A
$GPGGA,100633,3736.9337,N,12222.8940,W,1,04,0.9,4.87680000000001,M,0.0,M,,*55
$GPRMC,100634,A,3736.9337,N,12222.8940,W,000.0,000.0,091114,0,E*7D
$GPGGA,100634,3736.9337,N,12222.8940,W,1,04,0.9,4.87680000000001,M,0.0,M,,*52
$GPRMC,100653,A,3736.9337,N,12222.8940,W,000.0,000.0,091114,0,E*7C
$GPGGA,100653,3736.9337,N,12222.8940,W,1,04,0.9,3.9624,M,0.0,M,,*5D
$GPRMC,100654,A,3736.9337,N,12222.8940,W,000.0,000.0,091114,0,E*7B
$GPGGA,100654,3736.9337,N,12222.8940,W,1,04,0.9,3.9624,M,0.0,M,,*5A
$GPRMC,100713,A,3736.9337,N,12222.8940,W,000.0,000.0,091114,0,E*79
$GPGGA,100713,3736.9337,N,12222.8940,W,1,04,0.9,4.87680000000001,M,0.0,M,,*56
$GPRMC,100715,A,3736.9337,N,12222.8940,W,000.0,000.0,091114,0,E*7F
$GPGGA,100715,3736.9337,N,12222.8940,W,1,04,0.9,4.87680000000001,M,0.0,M,,*50
$GPRMC,100734,A,3736.9337,N,12222.8940,W,000.0,000.0,091114,0,E*7C
$GPGGA,100734,3736.9337,N,12222.8940,W,1,04,0.9,4.87680000000001,M,0.0,M,,*53
$GPRMC,100735,A,3736.9337,N,12222.8940,W,000.0,000.0,091114,0,E*7D
$GPGGA,100735,3736.9337,N,12222.8940,W,1,04,0.9,4.87680000000001,M,0.0,M,,*52
$GPRMC,100754,A,3736.9337,N,12222.8940,W,000.0,000.0,091114,0,E*7A
$GPGGA,100754,3736.9337,N,12222.8940,W,1,04,0.9,4.87680000000001,M,0.0,M,,*55
$GPRMC,100756,A,3736.9337,N,12222.8940,W,000.0,000.0,091114,0,E*78
$GPGGA,100756,3736.9337,N,12222.8940,W,1,04,0.9,4.87680000000001,M,0.0,M,,*57
$GPRMC,100815,A,3736.9337,N,12222.8940,W,000.0,000.0,091114,0,E*70
$GPGGA,100815,3736.9337,N,12222.8940,W,1,04,0.9,4.87680000000001,M,0.0,M,,*5F
$GPRMC,100817,A,3736.9337,N,12222.8940,W,000.0,000.0,091114,0,E*72
$GPGGA,100817,3736.9337,N,12222.8940,W,1,04,0.9,4.87680000000001,M,0.0,M,,*5D
$GPRMC,100835,A,3736.9337,N,12222.8940,W,000.0,000.0,091114,0,E*72
$GPGGA,100835,3736.9337,N,12222.8940,W,1,04,0.9,4.87680000000001,M,0.0,M,,*5D
$GPRMC,100837,A,3736.9337,N,12222.8940,W,000.0,000.0,091114,0,E*70
$GPGGA,100837,3736.9337,N,12222.8940,W,1,04,0.9,4.87680000000001,M,0.0,M,,*5F
$GPRMC,100856,A,3736.9225,N,12222.8652,W,000.0,000.0,091114,0,E*79
$GPGGA,100856,3736.9225,N,12222.8652,W,1,04,0.9,2.7432,M,0.0,M,,*52
$GPRMC,100857,A,3736.9217,N,12222.8633,W,004.0,121.0,091114,0,E*78
$GPGGA,100857,3736.9217,N,12222.8633,W,1,04,0.9,2.7432,M,0.0,M,,*55
$GPRMC,100859,A,3736.9206,N,12222.8612,W,004.0,124.0,091114,0,E*70
$GPGGA,100859,3736.9206,N,12222.8612,W,1,04,0.9,2.7432,M,0.0,M,,*58
$GPRMC,100900,A,3736.9181,N,12222.8576,W,004.0,131.0,091114,0,E*74
$GPGGA,100900,3736.9181,N,12222.8576,W,1,04,0.9,2.7432,M,0.0,M,,*58
$GPRMC,100902,A,3736.9165,N,12222.8559,W,005.0,135.0,091114,0,E*74
$GPGGA,100902,3736.9165,N,12222.8559,W,1,04,0.9,2.7432,M,0.0,M,,*5D
$GPRMC,100902,A,3736.9149,N,12222.8543,W,005.0,140.0,091114,0,E*73
$GPGGA,100902,3736.9149,N,12222.8543,W,1,04,0.9,2.7432,M,0.0,M,,*58
$GPRMC,100904,A,3736.9132,N,12222.8528,W,005.0,143.0,091114,0,E*77
$GPGGA,100904,3736.9132,N,12222.8528,W,1,04,0.9,2.7432,M,0.0,M,,*5F
$GPRMC,100905,A,3736.9114,N,12222.8517,W,005.0,148.0,091114,0,E*75
$GPGGA,100905,3736.9114,N,12222.8517,W,1,04,0.9,2.7432,M,0.0,M,,*56
$GPRMC,100905,A,3736.9094,N,12222.8510,W,005.0,153.0,091114,0,E*71
$GPGGA,100905,3736.9094,N,12222.8510,W,1,04,0.9,3.9624,M,0.0,M,,*52
$GPRMC,100906,A,3736.9076,N,12222.8506,W,006.0,165.0,091114,0,E*7F
$GPGGA,100906,3736.9076,N,12222.8506,W,1,04,0.9,3.9624,M,0.0,M,,*5A
$GPRMC,100909,A,3736.9033,N,12222.8506,W,006.0,178.0,091114,0,E*7D
$GPGGA,100909,3736.9033,N,12222.8506,W,1,04,0.9,3.9624,M,0.0,M,,*54
$GPRMC,100909,A,3736.9010,N,12222.8510,W,006.0,182.0,091114,0,E*7E
$GPGGA,100909,3736.9010,N,12222.8510,W,1,04,0.9,4.87680000000001,M,0.0,M,,*5C
$GPRMC,100910,A,3736.8988,N,12222.8517,W,006.0,187.0,091114,0,E*7D
$GPGGA,100910,3736.8988,N,12222.8517,W,1,04,0.9,5.79120000000001,M,0.0,M,,*57
$GPRMC,100911,A,3736.8967,N,12222.8527,W,006.0,193.0,091114,0,E*7B
$GPGGA,100911,3736.8967,N,12222.8527,W,1,04,0.9,6.70560000000001,M,0.0,M,,*5E
$GPRMC,100913,A,3736.8946,N,12222.8539,W,007.0,199.0,091114,0,E*7E
$GPGGA,100913,3736.8946,N,12222.8539,W,1,04,0.9,7.92480000000001,M,0.0,M,,*52
$GPRMC,100914,A,3736.8903,N,12222.8566,W,007.0,204.0,091114,0,E*75
$GPGGA,100914,3736.8903,N,12222.8566,W,1,04,0.9,9.75360000000001,M,0.0,M,,*50
$GPRMC,100918,A,3736.8815,N,12222.8612,W,007.0,207.0,091114,0,E*7C
$GPGGA,100918,3736.8815,N,12222.8612,W,1,04,0.9,10.9728,M,0.0,M,,*60
$GPRMC,100930,A,3736.8542,N,12222.8774,W,008.0,206.0,091114,0,E*76
$GPGGA,100930,3736.8542,N,12222.8774,W,1,04,0.9,9.75360000000001,M,0.0,M,,*5E
$GPRMC,100940,A,3736.8313,N,12222.8922,W,009.0,208.0,091114,0,E*71
$GPGGA,100940,3736.8313,N,12222.8922,W,1,04,0.9,8.83920000000001,M,0.0,M,,*50
$GPRMC,100946,A,3736.8145,N,12222.9025,W,010.0,208.0,091114,0,E*71
$GPGGA,100946,3736.8145,N,12222.9025,W,1,04,0.9,5.79120000000001,M,0.0,M,,*58
$GPRMC,101000,A,3736.7699,N,12222.9281,W,011.0,207.0,091114,0,E*70
$GPGGA,101000,3736.7699,N,12222.9281,W,1,04,0.9,0,M,0.0,M,,*70
$GPRMC,101017,A,3736.7261,N,12222.9568,W,010.0,207.0,091114,0,E*74
$GPGGA,101017,3736.7261,N,12222.9568,W,1,04,0.9,0,M,0.0,M,,*75
$GPRMC,101019,A,3736.7235,N,12222.9582,W,010.0,204.0,091114,0,E*7C
$GPGGA,101019,3736.7235,N,12222.9582,W,1,04,0.9,0,M,0.0,M,,*7E
$GPRMC,101025,A,3736.7068,N,12222.9680,W,010.0,207.0,091114,0,E*7B
$GPGGA,101025,3736.7068,N,12222.9680,W,1,04,0.9,0,M,0.0,M,,*7A
$GPRMC,101039,A,3736.6730,N,12222.9933,W,010.0,208.0,091114,0,E*75
$GPGGA,101039,3736.6730,N,12222.9933,W,1,04,0.9,0,M,0.0,M,,*7B
$GPRMC,101041,A,3736.6705,N,12222.9952,W,010.0,210.0,091114,0,E*72
$GPGGA,101041,3736.6705,N,12222.9952,W,1,04,0.9,0,M,0.0,M,,*75
$GPRMC,101100,A,3736.6228,N,12223.0303,W,009.0,211.0,091114,0,E*73
$GPGGA,101100,3736.6228,N,12223.0303,W,1,04,0.9,0,M,0.0,M,,*7D
$GPRMC,101102,A,3736.6208,N,12223.0320,W,009.0,212.0,091114,0,E*71
$GPGGA,101102,3736.6208,N,12223.0320,W,1,04,0.9,0,M,0.0,M,,*7C
$GPRMC,101109,A,3736.6068,N,12223.0448,W,008.0,215.0,091114,0,E*71
$GPGGA,101109,3736.6068,N,12223.0448,W,1,04,0.9,0,M,0.0,M,,*7A
$GPRMC,101111,A,3736.6032,N,12223.0475,W,008.0,212.0,091114,0,E*7E
$GPGGA,101111,3736.6032,N,12223.0475,W,1,04,0.9,0,M,0.0,M,,*72
$GPRMC,101116,A,3736.5946,N,12223.0536,W,007.0,212.0,091114,0,E*79
$GPGGA,101116,3736.5946,N,12223.0536,W,1,04,0.9,0,M,0.0,M,,*7A
$GPRMC,101117,A,3736.5933,N,12223.0547,W,007.0,215.0,091114,0,E*7B
$GPGGA,101117,3736.5933,N,12223.0547,W,1,04,0.9,0,M,0.0,M,,*7F
$GPRMC,101136,A,3736.5640,N,12223.0807,W,008.0,214.0,091114,0,E*74
$GPGGA,101136,3736.5640,N,12223.0807,W,1,04,0.9,0,M,0.0,M,,*7E
$GPRMC,101138,A,3736.5587,N,12223.0850,W,008.0,212.0,091114,0,E*76
$GPGGA,101138,3736.5587,N,12223.0850,W,1,04,0.9,0,M,0.0,M,,*7A
$GPRMC,101139,A,3736.5559,N,12223.0871,W,008.0,209.0,091114,0,E*7D
$GPGGA,101139,3736.5559,N,12223.0871,W,1,04,0.9,0,M,0.0,M,,*7B
$GPRMC,101141,A,3736.5501,N,12223.0905,W,009.0,205.0,091114,0,E*70
$GPGGA,101141,3736.5501,N,12223.0905,W,1,04,0.9,0,M,0.0,M,,*7B
$GPRMC,101141,A,3736.5472,N,12223.0920,W,009.0,202.0,091114,0,E*75
$GPGGA,101141,3736.5472,N,12223.0920,W,1,04,0.9,0,M,0.0,M,,*79
$GPRMC,101144,A,3736.5409,N,12223.0947,W,010.0,198.0,091114,0,E*75
$GPGGA,101144,3736.5409,N,12223.0947,W,1,04,0.9,0,M,0.0,M,,*71
$GPRMC,101145,A,3736.5377,N,12223.0958,W,010.0,195.0,091114,0,E*79
$GPGGA,101145,3736.5377,N,12223.0958,W,1,04,0.9,0,M,0.0,M,,*70
$GPRMC,101146,A,3736.5311,N,12223.0974,W,010.0,192.0,091114,0,E*73
$GPGGA,101146,3736.5311,N,12223.0974,W,1,04,0.9,0,M,0.0,M,,*7D
$GPRMC,101147,A,3736.5278,N,12223.0980,W,010.0,189.0,091114,0,E*7D
$GPGGA,101147,3736.5278,N,12223.0980,W,1,04,0.9,0,M,0.0,M,,*79
$GPRMC,101149,A,3736.5212,N,12223.0989,W,010.0,185.0,091114,0,E*7A
$GPGGA,101149,3736.5212,N,12223.0989,W,1,04,0.9,0,M,0.0,M,,*72
$GPRMC,101153,A,3736.5079,N,12223.1007,W,011.0,182.0,091114,0,E*76
$GPGGA,101153,3736.5079,N,12223.1007,W,1,04,0.9,0,M,0.0,M,,*78
$GPRMC,101202,A,3736.4834,N,12223.1028,W,011.0,181.0,091114,0,E*7F
$GPGGA,101202,3736.4834,N,12223.1028,W,1,04,0.9,1.8288,M,0.0,M,,*57
$GPRMC,101203,A,3736.4806,N,12223.1029,W,011.0,179.0,091114,0,E*79
$GPGGA,101203,3736.4806,N,12223.1029,W,1,04,0.9,1.8288,M,0.0,M,,*56
$GPRMC,101205,A,3736.4751,N,12223.1028,W,010.0,176.0,091114,0,E*7D
$GPGGA,101205,3736.4751,N,12223.1028,W,1,04,0.9,1.8288,M,0.0,M,,*5C
$GPRMC,101205,A,3736.4724,N,12223.1028,W,010.0,179.0,091114,0,E*70
$GPGGA,101205,3736.4724,N,12223.1028,W,1,04,0.9,1.8288,M,0.0,M,,*5E
$GPRMC,101210,A,3736.4608,N,12223.1030,W,009.0,185.0,091114,0,E*79
$GPGGA,101210,3736.4608,N,12223.1030,W,1,04,0.9,0,M,0.0,M,,*79
$GPRMC,101212,A,3736.4577,N,12223.1029,W,009.0,181.0,091114,0,E*7C
$GPGGA,101212,3736.4577,N,12223.1029,W,1,04,0.9,0,M,0.0,M,,*78
$GPRMC,101214,A,3736.4550,N,12223.1026,W,008.0,178.0,091114,0,E*77
$GPGGA,101214,3736.4550,N,12223.1026,W,1,04,0.9,0,M,0.0,M,,*74
$GPRMC,101217,A,3736.4526,N,12223.1024,W,007.0,175.0,091114,0,E*75
$GPGGA,101217,3736.4526,N,12223.1024,W,1,04,0.9,0,M,0.0,M,,*74
$GPRMC,101217,A,3736.4517,N,12223.1027,W,007.0,178.0,091114,0,E*79
$GPGGA,101217,3736.4517,N,12223.1027,W,1,04,0.9,0,M,0.0,M,,*75
$GPRMC,101219,A,3736.4510,N,12223.1029,W,006.0,185.0,091114,0,E*7D
$GPGGA,101219,3736.4510,N,12223.1029,W,1,04,0.9,0,M,0.0,M,,*72
$GPRMC,101221,A,3736.4499,N,12223.1031,W,005.0,177.0,091114,0,E*71
$GPGGA,101221,3736.4499,N,12223.1031,W,1,04,0.9,0,M,0.0,M,,*70
$GPRMC,101221,A,3736.4494,N,12223.1032,W,005.0,182.0,091114,0,E*75
$GPGGA,101221,3736.4494,N,12223.1032,W,1,04,0.9,0.914400000000001,M,0.0,M,,*69
$GPRMC,101223,A,3736.4485,N,12223.1031,W,004.0,175.0,091114,0,E*7D
$GPGGA,101223,3736.4485,N,12223.1031,W,1,04,0.9,0.914400000000001,M,0.0,M,,*68
$GPRMC,101227,A,3736.4474,N,12223.1030,W,000.0,000.0,091114,0,E*71
$GPGGA,101227,3736.4474,N,12223.1030,W,1,04,0.9,0.914400000000001,M,0.0,M,,*63
$GPRMC,101247,A,3736.4456,N,12223.1026,W,000.0,000.0,091114,0,E*70
$GPGGA,101247,3736.4456,N,12223.1026,W,1,04,0.9,1.8288,M,0.0,M,,*50
$GPRMC,101248,A,3736.4456,N,12223.1026,W,000.0,000.0,091114,0,E*7F
$GPGGA,101248,3736.4456,N,12223.1026,W,1,04,0.9,1.8288,M,0.0,M,,*5F
$GPRMC,101308,A,3736.4456,N,12223.1026,W,000.0,000.0,091114,0,E*7A
$GPGGA,101308,3736.4456,N,12223.1026,W,1,04,0.9,0.914400000000001,M,0.0,M,,*68
$GPRMC,101309,A,3736.4456,N,12223.1026,W,000.0,000.0,091114,0,E*7B
$GPGGA,101309,3736.4456,N,12223.1026,W,1,04,0.9,0.914400000000001,M,0.0,M,,*69
$GPRMC,101329,A,3736.4456,N,12223.1026,W,000.0,000.0,091114,0,E*79
$GPGGA,101329,3736.4456,N,12223.1026,W,1,04,0.9,0.914400000000001,M,0.0,M,,*6B
$GPRMC,101330,A,3736.4456,N,12223.1026,W,000.0,000.0,091114,0,E*71
$GPGGA,101330,3736.4456,N,12223.1026,W,1,04,0.9,0.914400000000001,M,0.0,M,,*63
$GPRMC,101349,A,3736.4456,N,12223.1026,W,000.0,000.0,091114,0,E*7F
$GPGGA,101349,3736.4456,N,12223.1026,W,1,04,0.9,0.914400000000001,M,0.0,M,,*6D
$GPRMC,101350,A,3736.4456,N,12223.1026,W,000.0,000.0,091114,0,E*77
$GPGGA,101350,3736.4456,N,12223.1026,W,1,04,0.9,0.914400000000001,M,0.0,M,,*65
$GPRMC,101359,A,3736.4357,N,12223.1033,W,000.0,000.0,091114,0,E*7C
$GPGGA,101359,3736.4357,N,12223.1033,W,1,04,0.9,0,M,0.0,M,,*79
$GPRMC,101400,A,3736.4338,N,12223.1031,W,004.0,177.0,091114,0,E*79
$GPGGA,101400,3736.4338,N,12223.1031,W,1,04,0.9,0,M,0.0,M,,*79
$GPRMC,101401,A,3736.4318,N,12223.1028,W,004.0,173.0,091114,0,E*76
$GPGGA,101401,3736.4318,N,12223.1028,W,1,04,0.9,0,M,0.0,M,,*72
$GPRMC,101406,A,3736.4181,N,12223.1003,W,005.0,168.0,091114,0,E*71
$GPGGA,101406,3736.4181,N,12223.1003,W,1,04,0.9,0,M,0.0,M,,*7E
$GPRMC,101408,A,3736.4133,N,12223.0984,W,006.0,159.0,091114,0,E*70
$GPGGA,101408,3736.4133,N,12223.0984,W,1,04,0.9,0,M,0.0,M,,*7E
$GPRMC,101410,A,3736.4109,N,12223.0971,W,006.0,156.0,091114,0,E*75
$GPGGA,101410,3736.4109,N,12223.0971,W,1,04,0.9,0,M,0.0,M,,*74
$GPRMC,101410,A,3736.4086,N,12223.0955,W,007.0,153.0,091114,0,E*71
$GPGGA,101410,3736.4086,N,12223.0955,W,1,04,0.9,0,M,0.0,M,,*74
$GPRMC,101412,A,3736.4062,N,12223.0938,W,007.0,147.0,091114,0,E*77
$GPGGA,101412,3736.4062,N,12223.0938,W,1,04,0.9,0,M,0.0,M,,*77
$GPRMC,101413,A,3736.4018,N,12223.0896,W,008.0,140.0,091114,0,E*76
$GPGGA,101413,3736.4018,N,12223.0896,W,1,04,0.9,0,M,0.0,M,,*7E
$GPRMC,101415,A,3736.3974,N,12223.0849,W,008.0,136.0,091114,0,E*77
$GPGGA,101415,3736.3974,N,12223.0849,W,1,04,0.9,0,M,0.0,M,,*7E
$GPRMC,101417,A,3736.3933,N,12223.0803,W,008.0,132.0,091114,0,E*7C
$GPGGA,101417,3736.3933,N,12223.0803,W,1,04,0.9,0,M,0.0,M,,*71
$GPRMC,101421,A,3736.3874,N,12223.0735,W,008.0,129.0,091114,0,E*7B
$GPGGA,101421,3736.3874,N,12223.0735,W,1,04,0.9,0,M,0.0,M,,*7C
$GPRMC,101430,A,3736.3698,N,12223.0505,W,009.0,130.0,091114,0,E*7F
$GPGGA,101430,3736.3698,N,12223.0505,W,1,04,0.9,2.7432,M,0.0,M,,*5F
$GPRMC,101434,A,3736.3643,N,12223.0441,W,009.0,136.0,091114,0,E*7A
$GPGGA,101434,3736.3643,N,12223.0441,W,1,04,0.9,4.87680000000001,M,0.0,M,,*58
$GPRMC,101434,A,3736.3626,N,12223.0421,W,008.0,133.0,091114,0,E*7B
$GPGGA,101434,3736.3626,N,12223.0421,W,1,04,0.9,4.87680000000001,M,0.0,M,,*5D
$GPRMC,101436,A,3736.3606,N,12223.0401,W,008.0,130.0,091114,0,E*7A
$GPGGA,101436,3736.3606,N,12223.0401,W,1,04,0.9,4.87680000000001,M,0.0,M,,*5F
$GPRMC,101437,A,3736.3589,N,12223.0384,W,008.0,135.0,091114,0,E*70
$GPGGA,101437,3736.3589,N,12223.0384,W,1,04,0.9,4.87680000000001,M,0.0,M,,*50
$GPRMC,101438,A,3736.3573,N,12223.0366,W,008.0,131.0,091114,0,E*72
$GPGGA,101438,3736.3573,N,12223.0366,W,1,04,0.9,4.87680000000001,M,0.0,M,,*56
$GPRMC,101444,A,3736.3518,N,12223.0268,W,007.0,128.0,091114,0,E*7C
$GPGGA,101444,3736.3518,N,12223.0268,W,1,04,0.9,5.79120000000001,M,0.0,M,,*52
$GPRMC,101446,A,3736.3510,N,12223.0240,W,006.0,122.0,091114,0,E*77
$GPGGA,101446,3736.3510,N,12223.0240,W,1,04,0.9,5.79120000000001,M,0.0,M,,*52
$GPRMC,101449,A,3736.3500,N,12223.0197,W,006.0,116.0,091114,0,E*77
$GPGGA,101449,3736.3500,N,12223.0197,W,1,04,0.9,5.79120000000001,M,0.0,M,,*55
$GPRMC,101451,A,3736.3491,N,12223.0163,W,005.0,113.0,091114,0,E*7A
$GPGGA,101451,3736.3491,N,12223.0163,W,1,04,0.9,4.87680000000001,M,0.0,M,,*53
$GPRMC,101456,A,3736.3476,N,12223.0114,W,004.0,102.0,091114,0,E*75
$GPGGA,101456,3736.3476,N,12223.0114,W,1,04,0.9,4.87680000000001,M,0.0,M,,*5D
$GPRMC,101457,A,3736.3474,N,12223.0103,W,000.0,000.0,091114,0,E*77
$GPGGA,101457,3736.3474,N,12223.0103,W,1,04,0.9,4.87680000000001,M,0.0,M,,*58
$GPRMC,101516,A,3736.3492,N,12222.9857,W,000.0,000.0,091114,0,E*7B
$GPGGA,101516,3736.3492,N,12222.9857,W,1,04,0.9,3.9624,M,0.0,M,,*5A
$GPRMC,101518,A,3736.3495,N,12222.9848,W,000.0,000.0,091114,0,E*7C
$GPGGA,101518,3736.3495,N,12222.9848,W,1,04,0.9,3.9624,M,0.0,M,,*5D
$GPRMC,101538,A,3736.3605,N,12222.9713,W,000.0,000.0,091114,0,E*74
$GPGGA,101538,3736.3605,N,12222.9713,W,1,04,0.9,4.87680000000001,M,0.0,M,,*5B
$GPRMC,101538,A,3736.3614,N,12222.9710,W,000.0,000.0,091114,0,E*77
$GPGGA,101538,3736.3614,N,12222.9710,W,1,04,0.9,4.87680000000001,M,0.0,M,,*58
$GPRMC,101558,A,3736.3708,N,12222.9656,W,000.0,000.0,091114,0,E*7E
$GPGGA,101558,3736.3708,N,12222.9656,W,1,04,0.9,2.7432,M,0.0,M,,*55
$GPRMC,101600,A,3736.3708,N,12222.9656,W,000.0,000.0,091114,0,E*70
$GPGGA,101600,3736.3708,N,12222.9656,W,1,04,0.9,2.7432,M,0.0,M,,*5B
$GPRMC,101619,A,3736.3708,N,12222.9656,W,000.0,000.0,091114,0,E*78
$GPGGA,101619,3736.3708,N,12222.9656,W,1,04,0.9,2.7432,M,0.0,M,,*53
$GPRMC,101620,A,3736.3708,N,12222.9656,W,000.0,000.0,091114,0,E*72
$GPGGA,101620,3736.3708,N,12222.9656,W,1,04,0.9,2.7432,M,0.0,M,,*59
$GPRMC,101639,A,3736.3708,N,12222.9656,W,000.0,000.0,091114,0,E*7A
$GPGGA,101639,3736.3708,N,12222.9656,W,1,04,0.9,2.7432,M,0.0,M,,*51
$GPRMC,101640,A,3736.3708,N,12222.9656,W,000.0,000.0,091114,0,E*74
$GPGGA,101640,3736.3708,N,12222.9656,W,1,04,0.9,3.9624,M,0.0,M,,*55
$GPRMC,101655,A,3736.3893,N,12222.9499,W,000.0,000.0,091114,0,E*7C
$GPGGA,101655,3736.3893,N,12222.9499,W,1,04,0.9,3.9624,M,0.0,M,,*5D
$GPRMC,101656,A,3736.3909,N,12222.9486,W,004.0,033.0,091114,0,E*77
$GPGGA,101656,3736.3909,N,12222.9486,W,1,04,0.9,3.9624,M,0.0,M,,*52
$GPRMC,101658,A,3736.3940,N,12222.9463,W,004.0,028.0,091114,0,E*75
$GPGGA,101658,3736.3940,N,12222.9463,W,1,04,0.9,3.9624,M,0.0,M,,*5A
$GPRMC,101659,A,3736.3954,N,12222.9450,W,004.0,032.0,091114,0,E*7A
$GPGGA,101659,3736.3954,N,12222.9450,W,1,04,0.9,3.9624,M,0.0,M,,*5E
$GPRMC,101700,A,3736.3980,N,12222.9423,W,004.0,036.0,091114,0,E*7E
$GPGGA,101700,3736.3980,N,12222.9423,W,1,04,0.9,3.9624,M,0.0,M,,*5E
$GPRMC,101701,A,3736.3991,N,12222.9409,W,004.0,043.0,091114,0,E*75
$GPGGA,101701,3736.3991,N,12222.9409,W,1,04,0.9,3.9624,M,0.0,M,,*57
$GPRMC,101703,A,3736.4001,N,12222.9393,W,004.0,046.0,091114,0,E*71
$GPGGA,101703,3736.4001,N,12222.9393,W,1,04,0.9,3.9624,M,0.0,M,,*56
$GPRMC,101703,A,3736.4010,N,12222.9376,W,004.0,055.0,091114,0,E*78
$GPGGA,101703,3736.4010,N,12222.9376,W,1,04,0.9,3.9624,M,0.0,M,,*5D
$GPRMC,101705,A,3736.4023,N,12222.9347,W,004.0,058.0,091114,0,E*71
$GPGGA,101705,3736.4023,N,12222.9347,W,1,04,0.9,3.9624,M,0.0,M,,*59
$GPRMC,101707,A,3736.4029,N,12222.9325,W,004.0,074.0,091114,0,E*73
$GPGGA,101707,3736.4029,N,12222.9325,W,1,04,0.9,3.9624,M,0.0,M,,*55
$GPRMC,101708,A,3736.4031,N,12222.9317,W,004.0,067.0,091114,0,E*76
$GPGGA,101708,3736.4031,N,12222.9317,W,1,04,0.9,4.87680000000001,M,0.0,M,,*5C
$GPRMC,101710,A,3736.4031,N,12222.9317,W,004.0,063.0,091114,0,E*7B
$GPGGA,101710,3736.4031,N,12222.9317,W,1,04,0.9,4.87680000000001,M,0.0,M,,*55
$GPRMC,101710,A,3736.4031,N,12222.9317,W,000.0,000.0,091114,0,E*7A
$GPGGA,101710,3736.4031,N,12222.9317,W,1,04,0.9,4.87680000000001,M,0.0,M,,*55
$GPRMC,101730,A,3736.4031,N,12222.9317,W,000.0,000.0,091114,0,E*78
$GPGGA,101730,3736.4031,N,12222.9317,W,1,04,0.9,4.87680000000001,M,0.0,M,,*57
$GPRMC,101731,A,3736.4031,N,12222.9317,W,000.0,000.0,091114,0,E*79
$GPGGA,101731,3736.4031,N,12222.9317,W,1,04,0.9,4.87680000000001,M,0.0,M,,*56
$GPRMC,101750,A,3736.4041,N,12222.9270,W,000.0,000.0,091114,0,E*79
$GPGGA,101750,3736.4041,N,12222.9270,W,1,04,0.9,3.9624,M,0.0,M,,*58
$GPRMC,101751,A,3736.4043,N,12222.9249,W,004.0,082.0,091114,0,E*7E
$GPGGA,101751,3736.4043,N,12222.9249,W,1,04,0.9,3.9624,M,0.0,M,,*51
$GPRMC,101752,A,3736.4046,N,12222.9227,W,005.0,085.0,091114,0,E*76
$GPGGA,101752,3736.4046,N,12222.9227,W,1,04,0.9,3.9624,M,0.0,M,,*5F
$GPRMC,101753,A,3736.4049,N,12222.9205,W,005.0,080.0,091114,0,E*7D
$GPGGA,101753,3736.4049,N,12222.9205,W,1,04,0.9,3.9624,M,0.0,M,,*51
$GPRMC,101755,A,3736.4044,N,12222.9155,W,005.0,083.0,091114,0,E*73
$GPGGA,101755,3736.4044,N,12222.9155,W,1,04,0.9,3.9624,M,0.0,M,,*5C
$GPRMC,101756,A,3736.4040,N,12222.9127,W,006.0,087.0,091114,0,E*76
$GPGGA,101756,3736.4040,N,12222.9127,W,1,04,0.9,2.7432,M,0.0,M,,*54
$GPRMC,101757,A,3736.4031,N,12222.9096,W,006.0,092.0,091114,0,E*7E
$GPGGA,101757,3736.4031,N,12222.9096,W,1,04,0.9,2.7432,M,0.0,M,,*58
$GPRMC,101758,A,3736.4022,N,12222.9061,W,006.0,106.0,091114,0,E*77
$GPGGA,101758,3736.4022,N,12222.9061,W,1,04,0.9,1.8288,M,0.0,M,,*56
$GPRMC,101800,A,3736.4001,N,12222.8993,W,007.0,113.0,091114,0,E*74
$GPGGA,101800,3736.4001,N,12222.8993,W,1,04,0.9,0.914400000000001,M,0.0,M,,*62
$GPRMC,101801,A,3736.3991,N,12222.8958,W,007.0,105.0,091114,0,E*72
$GPGGA,101801,3736.3991,N,12222.8958,W,1,04,0.9,0,M,0.0,M,,*74
$GPRMC,101802,A,3736.3979,N,12222.8925,W,007.0,109.0,091114,0,E*71
$GPGGA,101802,3736.3979,N,12222.8925,W,1,04,0.9,0,M,0.0,M,,*7B
$GPRMC,101803,A,3736.3966,N,12222.8891,W,008.0,114.0,091114,0,E*73
$GPGGA,101803,3736.3966,N,12222.8891,W,1,04,0.9,0,M,0.0,M,,*7A
$GPRMC,101807,A,3736.3930,N,12222.8767,W,008.0,109.0,091114,0,E*7E
$GPGGA,101807,3736.3930,N,12222.8767,W,1,04,0.9,0,M,0.0,M,,*7B
$GPRMC,101809,A,3736.3920,N,12222.8712,W,008.0,105.0,091114,0,E*7F
$GPGGA,101809,3736.3920,N,12222.8712,W,1,04,0.9,0,M,0.0,M,,*76
$GPRMC,101810,A,3736.3921,N,12222.8683,W,008.0,092.0,091114,0,E*70
$GPGGA,101810,3736.3921,N,12222.8683,W,1,04,0.9,0,M,0.0,M,,*76
$GPRMC,101811,A,3736.3926,N,12222.8654,W,008.0,084.0,091114,0,E*7B
$GPGGA,101811,3736.3926,N,12222.8654,W,1,04,0.9,0,M,0.0,M,,*7A
$GPRMC,101812,A,3736.3933,N,12222.8627,W,008.0,075.0,091114,0,E*76
$GPGGA,101812,3736.3933,N,12222.8627,W,1,04,0.9,0,M,0.0,M,,*79
$GPRMC,101813,A,3736.3943,N,12222.8601,W,008.0,071.0,091114,0,E*70
$GPGGA,101813,3736.3943,N,12222.8601,W,1,04,0.9,0,M,0.0,M,,*7B
$GPRMC,101814,A,3736.3955,N,12222.8577,W,008.0,062.0,091114,0,E*70
$GPGGA,101814,3736.3955,N,12222.8577,W,1,04,0.9,0,M,0.0,M,,*79
$GPRMC,101815,A,3736.3968,N,12222.8557,W,008.0,056.0,091114,0,E*7A
$GPGGA,101815,3736.3968,N,12222.8557,W,1,04,0.9,0,M,0.0,M,,*74
$GPRMC,101815,A,3736.3981,N,12222.8541,W,008.0,059.0,091114,0,E*75
$GPGGA,101815,3736.3981,N,12222.8541,W,1,04,0.9,0,M,0.0,M,,*74
$GPRMC,101817,A,3736.3994,N,12222.8528,W,008.0,048.0,091114,0,E*7C
$GPGGA,101817,3736.3994,N,12222.8528,W,1,04,0.9,0,M,0.0,M,,*7D
$GPRMC,101818,A,3736.4004,N,12222.8517,W,008.0,038.0,091114,0,E*7F
$GPGGA,101818,3736.4004,N,12222.8517,W,1,04,0.9,0,M,0.0,M,,*79
$GPRMC,101819,A,3736.4014,N,12222.8503,W,007.0,034.0,091114,0,E*79
$GPGGA,101819,3736.4014,N,12222.8503,W,1,04,0.9,0,M,0.0,M,,*7C
$GPRMC,101819,A,3736.4023,N,12222.8493,W,007.0,041.0,091114,0,E*77
$GPGGA,101819,3736.4023,N,12222.8493,W,1,04,0.9,0,M,0.0,M,,*70
$GPRMC,101822,A,3736.4036,N,12222.8484,W,006.0,034.0,091114,0,E*7E
$GPGGA,101822,3736.4036,N,12222.8484,W,1,04,0.9,0,M,0.0,M,,*7A
$GPRMC,101823,A,3736.4040,N,12222.8483,W,000.0,000.0,091114,0,E*78
$GPGGA,101823,3736.4040,N,12222.8483,W,1,04,0.9,0,M,0.0,M,,*7D
$GPRMC,101825,A,3736.4050,N,12222.8486,W,005.0,346.0,091114,0,E*7E
$GPGGA,101825,3736.4050,N,12222.8486,W,1,04,0.9,0,M,0.0,M,,*7F
$GPRMC,101826,A,3736.4054,N,12222.8487,W,000.0,000.0,091114,0,E*7C
$GPGGA,101826,3736.4054,N,12222.8487,W,1,04,0.9,0,M,0.0,M,,*79
$GPRMC,101845,A,3736.4077,N,12222.8488,W,000.0,000.0,091114,0,E*77
$GPGGA,101845,3736.4077,N,12222.8488,W,1,04,0.9,0.914400000000001,M,0.0,M,,*65
$GPRMC,101846,A,3736.4077,N,12222.8488,W,000.0,000.0,091114,0,E*74
$GPGGA,101846,3736.4077,N,12222.8488,W,1,04,0.9,0.914400000000001,M,0.0,M,,*66
$GPRMC,101905,A,3736.4077,N,12222.8488,W,000.0,000.0,091114,0,E*72
$GPGGA,101905,3736.4077,N,12222.8488,W,1,04,0.9,0.914400000000001,M,0.0,M,,*60
$GPRMC,101906,A,3736.4077,N,12222.8488,W,000.0,000.0,091114,0,E*71
$GPGGA,101906,3736.4077,N,12222.8488,W,1,04,0.9,0.914400000000001,M,0.0,M,,*63
$GPRMC,101911,A,3736.4140,N,12222.8416,W,004.0,044.0,091114,0,E*71
$GPGGA,101911,3736.4140,N,12222.8416,W,1,04,0.9,0.914400000000001,M,0.0,M,,*67
$GPRMC,101913,A,3736.4172,N,12222.8375,W,005.0,047.0,091114,0,E*72
$GPGGA,101913,3736.4172,N,12222.8375,W,1,04,0.9,0.914400000000001,M,0.0,M,,*66
$GPRMC,101914,A,3736.4193,N,12222.8340,W,005.0,052.0,091114,0,E*78
$GPGGA,101914,3736.4193,N,12222.8340,W,1,04,0.9,0.914400000000001,M,0.0,M,,*68
$GPRMC,101915,A,3736.4224,N,12222.8301,W,006.0,058.0,091114,0,E*7A
$GPGGA,101915,3736.4224,N,12222.8301,W,1,04,0.9,0.914400000000001,M,0.0,M,,*63
$GPRMC,101916,A,3736.4275,N,12222.8265,W,007.0,053.0,091114,0,E*74
$GPGGA,101916,3736.4275,N,12222.8265,W,1,04,0.9,0,M,0.0,M,,*70
$GPRMC,101917,A,3736.4353,N,12222.8224,W,008.0,043.0,091114,0,E*7B
$GPGGA,101917,3736.4353,N,12222.8224,W,1,04,0.9,0,M,0.0,M,,*71
$GPRMC,101918,A,3736.4478,N,12222.8156,W,021.0,033.0,091114,0,E*70
$GPGGA,101918,3736.4478,N,12222.8156,W,1,04,0.9,0,M,0.0,M,,*76
$GPRMC,101919,A,3736.4639,N,12222.8068,W,031.0,028.0,091114,0,E*71
$GPGGA,101919,3736.4639,N,12222.8068,W,1,04,0.9,0.914400000000001,M,0.0,M,,*6B
$GPRMC,101921,A,3736.5019,N,12222.7832,W,039.0,028.0,091114,0,E*7F
$GPGGA,101921,3736.5019,N,12222.7832,W,1,04,0.9,0,M,0.0,M,,*7A
$GPRMC,101922,A,3736.5213,N,12222.7708,W,048.0,028.0,091114,0,E*74
$GPGGA,101922,3736.5213,N,12222.7708,W,1,04,0.9,0,M,0.0,M,,*77
$GPRMC,101923,A,3736.5404,N,12222.7585,W,057.0,028.0,091114,0,E*7C
$GPGGA,101923,3736.5404,N,12222.7585,W,1,04,0.9,0,M,0.0,M,,*71
$GPRMC,101924,A,3736.5596,N,12222.7461,W,066.0,027.0,091114,0,E*77
$GPGGA,101924,3736.5596,N,12222.7461,W,1,04,0.9,0.914400000000001,M,0.0,M,,*60
$GPRMC,101926,A,3736.6005,N,12222.7180,W,074.0,028.0,091114,0,E*7F
$GPGGA,101926,3736.6005,N,12222.7180,W,1,04,0.9,1.8288,M,0.0,M,,*56
$GPRMC,101927,A,3736.6224,N,12222.7035,W,081.0,027.0,091114,0,E*75
$GPGGA,101927,3736.6224,N,12222.7035,W,1,04,0.9,0.914400000000001,M,0.0,M,,*6B
$GPRMC,101928,A,3736.6452,N,12222.6879,W,086.0,027.0,091114,0,E*7B
$GPGGA,101928,3736.6452,N,12222.6879,W,1,04,0.9,0.914400000000001,M,0.0,M,,*62
$GPRMC,101929,A,3736.6684,N,12222.6723,W,092.0,028.0,091114,0,E*79
$GPGGA,101929,3736.6684,N,12222.6723,W,1,04,0.9,0.914400000000001,M,0.0,M,,*6A
$GPRMC,101931,A,3736.7179,N,12222.6377,W,099.0,028.0,091114,0,E*7A
$GPGGA,101931,3736.7179,N,12222.6377,W,1,04,0.9,0.914400000000001,M,0.0,M,,*62
$GPRMC,101933,A,3736.7719,N,12222.6017,W,108.0,028.0,091114,0,E*74
$GPGGA,101933,3736.7719,N,12222.6017,W,1,04,0.9,0.914400000000001,M,0.0,M,,*65
$GPRMC,101935,A,3736.8293,N,12222.5629,W,116.0,028.0,091114,0,E*7D
$GPGGA,101935,3736.8293,N,12222.5629,W,1,04,0.9,1.8288,M,0.0,M,,*51
$GPRMC,101937,A,3736.8911,N,12222.5213,W,125.0,027.0,091114,0,E*7C
$GPGGA,101937,3736.8911,N,12222.5213,W,1,04,0.9,3.9624,M,0.0,M,,*5E
$GPRMC,101939,A,3736.9566,N,12222.4774,W,133.0,028.0,091114,0,E*72
$GPGGA,101939,3736.9566,N,12222.4774,W,1,04,0.9,5.79120000000001,M,0.0,M,,*5B
$GPRMC,101942,A,3737.0615,N,12222.4073,W,143.0,027.0,091114,0,E*79
$GPGGA,101942,3737.0615,N,12222.4073,W,1,04,0.9,6.70560000000001,M,0.0,M,,*52
$GPRMC,101945,A,3737.1744,N,12222.3332,W,154.0,027.0,091114,0,E*7D
$GPGGA,101945,3737.1744,N,12222.3332,W,1,04,0.9,7.92480000000001,M,0.0,M,,*52
$GPRMC,101948,A,3737.2953,N,12222.2519,W,165.0,028.0,091114,0,E*78
$GPGGA,101948,3737.2953,N,12222.2519,W,1,04,0.9,6.70560000000001,M,0.0,M,,*58
$GPRMC,101951,A,3737.4229,N,12222.1696,W,173.0,027.0,091114,0,E*7F
$GPGGA,101951,3737.4229,N,12222.1696,W,1,04,0.9,7.92480000000001,M,0.0,M,,*55
$GPRMC,101955,A,3737.6012,N,12222.0495,W,183.0,028.0,091114,0,E*73
$GPGGA,101955,3737.6012,N,12222.0495,W,1,04,0.9,5.79120000000001,M,0.0,M,,*51
$GPRMC,101959,A,3737.7870,N,12221.9435,W,184.0,025.0,091114,0,E*78
$GPGGA,101959,3737.7870,N,12221.9435,W,1,04,0.9,8.83920000000001,M,0.0,M,,*50
$GPRMC,102005,A,3738.0647,N,12221.7920,W,181.0,023.0,091114,0,E*7D
$GPGGA,102005,3738.0647,N,12221.7920,W,1,04,0.9,19.812,M,0.0,M,,*5C
$GPRMC,102010,A,3738.2890,N,12221.6660,W,178.0,022.0,091114,0,E*72
$GPGGA,102010,3738.2890,N,12221.6660,W,1,04,0.9,34.7472,M,0.0,M,,*66
$GPRMC,102012,A,3738.3729,N,12221.6099,W,178.0,022.0,091114,0,E*7C
$GPGGA,102012,3738.3729,N,12221.6099,W,1,04,0.9,52.7304000000001,M,0.0,M,,*5F
$GPRMC,102013,A,3738.4119,N,12221.5790,W,178.0,022.0,091114,0,E*72
$GPGGA,102013,3738.4119,N,12221.5790,W,1,04,0.9,64.9224000000001,M,0.0,M,,*59
$GPRMC,102014,A,3738.4530,N,12221.5517,W,176.0,022.0,091114,0,E*79
$GPGGA,102014,3738.4530,N,12221.5517,W,1,04,0.9,84.7344000000001,M,0.0,M,,*5B
$GPRMC,102015,A,3738.4921,N,12221.5207,W,176.0,022.0,091114,0,E*72
$GPGGA,102015,3738.4921,N,12221.5207,W,1,04,0.9,106.9848,M,0.0,M,,*53
$GPRMC,102016,A,3738.5353,N,12221.4945,W,176.0,022.0,091114,0,E*73
$GPGGA,102016,3738.5353,N,12221.4945,W,1,04,0.9,128.9304,M,0.0,M,,*5D
$GPRMC,102017,A,3738.5793,N,12221.4674,W,179.0,022.0,091114,0,E*78
$GPGGA,102017,3738.5793,N,12221.4674,W,1,04,0.9,147.828,M,0.0,M,,*6C
$GPRMC,102018,A,3738.6237,N,12221.4386,W,180.0,022.0,091114,0,E*71
$GPGGA,102018,3738.6237,N,12221.4386,W,1,04,0.9,164.8968,M,0.0,M,,*5F
$GPRMC,102019,A,3738.6684,N,12221.4111,W,181.0,022.0,091114,0,E*71
$GPGGA,102019,3738.6684,N,12221.4111,W,1,04,0.9,180.7464,M,0.0,M,,*5A
$GPRMC,102020,A,3738.7133,N,12221.3836,W,183.0,022.0,091114,0,E*78
$GPGGA,102020,3738.7133,N,12221.3836,W,1,04,0.9,195.9864,M,0.0,M,,*57
$GPRMC,102021,A,3738.7586,N,12221.3566,W,183.0,023.0,091114,0,E*7A
$GPGGA,102021,3738.7586,N,12221.3566,W,1,04,0.9,209.7024,M,0.0,M,,*50
$GPRMC,102022,A,3738.8046,N,12221.3299,W,184.0,023.0,091114,0,E*7F
$GPGGA,102022,3738.8046,N,12221.3299,W,1,04,0.9,222.8088,M,0.0,M,,*52
$GPRMC,102023,A,3738.8511,N,12221.3026,W,186.0,023.0,091114,0,E*7D
$GPGGA,102023,3738.8511,N,12221.3026,W,1,04,0.9,233.7816,M,0.0,M,,*52
$GPRMC,102024,A,3738.8979,N,12221.2752,W,189.0,023.0,091114,0,E*72
$GPGGA,102024,3738.8979,N,12221.2752,W,1,04,0.9,244.7544,M,0.0,M,,*58
$GPRMC,102026,A,3738.9876,N,12221.2123,W,190.0,023.0,091114,0,E*77
$GPGGA,102026,3738.9876,N,12221.2123,W,1,04,0.9,264.8712,M,0.0,M,,*59
$GPRMC,102027,A,3739.0850,N,12221.1533,W,197.0,023.0,091114,0,E*7B
$GPGGA,102027,3739.0850,N,12221.1533,W,1,04,0.9,285.9024,M,0.0,M,,*5E
$GPRMC,102030,A,3739.1846,N,12221.0974,W,198.0,023.0,091114,0,E*7A
$GPGGA,102030,3739.1846,N,12221.0974,W,1,04,0.9,302.9712,M,0.0,M,,*5C
$GPRMC,102032,A,3739.2863,N,12221.0435,W,199.0,022.0,091114,0,E*74
$GPGGA,102032,3739.2863,N,12221.0435,W,1,04,0.9,317.9064,M,0.0,M,,*50
$GPRMC,102034,A,3739.3886,N,12220.9928,W,201.0,021.0,091114,0,E*70
$GPGGA,102034,3739.3886,N,12220.9928,W,1,04,0.9,332.8416,M,0.0,M,,*52
$GPRMC,102036,A,3739.4916,N,12220.9340,W,205.0,020.0,091114,0,E*7C
$GPGGA,102036,3739.4916,N,12220.9340,W,1,04,0.9,352.9584,M,0.0,M,,*56
$GPRMC,102038,A,3739.5862,N,12220.8587,W,209.0,021.0,091114,0,E*70
$GPGGA,102038,3739.5862,N,12220.8587,W,1,04,0.9,368.808,M,0.0,M,,*6E
$GPRMC,102039,A,3739.6375,N,12220.8168,W,207.0,024.0,091114,0,E*71
$GPGGA,102039,3739.6375,N,12220.8168,W,1,04,0.9,375.8184,M,0.0,M,,*5D
$GPRMC,102040,A,3739.6841,N,12220.7565,W,208.0,024.0,091114,0,E*7A
$GPGGA,102040,3739.6841,N,12220.7565,W,1,04,0.9,387.7056,M,0.0,M,,*55
$GPRMC,102041,A,3739.7365,N,12220.7210,W,208.0,024.0,091114,0,E*72
$GPGGA,102041,3739.7365,N,12220.7210,W,1,04,0.9,402.9456,M,0.0,M,,*5D
$GPRMC,102042,A,3739.7898,N,12220.6872,W,210.0,024.0,091114,0,E*7E
$GPGGA,102042,3739.7898,N,12220.6872,W,1,04,0.9,417.8808,M,0.0,M,,*5A
$GPRMC,102043,A,3739.8432,N,12220.6530,W,212.0,024.0,091114,0,E*75
$GPGGA,102043,3739.8432,N,12220.6530,W,1,04,0.9,430.9872,M,0.0,M,,*5A
$GPRMC,102044,A,3739.8973,N,12220.6188,W,212.0,025.0,091114,0,E*7C
$GPGGA,102044,3739.8973,N,12220.6188,W,1,04,0.9,443.7888,M,0.0,M,,*5D
$GPRMC,102045,A,3739.9521,N,12220.5842,W,214.0,025.0,091114,0,E*7D
$GPGGA,102045,3739.9521,N,12220.5842,W,1,04,0.9,454.761600000001,M,0.0,M,,*54
$GPRMC,102046,A,3740.0053,N,12220.5381,W,217.0,025.0,091114,0,E*7E
$GPGGA,102046,3740.0053,N,12220.5381,W,1,04,0.9,465.734400000001,M,0.0,M,,*54
$GPRMC,102048,A,3740.1174,N,12220.4679,W,218.0,024.0,091114,0,E*78
$GPGGA,102048,3740.1174,N,12220.4679,W,1,04,0.9,485.851200000001,M,0.0,M,,*58
$GPRMC,102050,A,3740.2346,N,12220.3966,W,229.0,024.0,091114,0,E*75
$GPGGA,102050,3740.2346,N,12220.3966,W,1,04,0.9,502.920000000001,M,0.0,M,,*5C
$GPRMC,102052,A,3740.3517,N,12220.3286,W,234.0,023.0,091114,0,E*7A
$GPGGA,102052,3740.3517,N,12220.3286,W,1,04,0.9,517.855200000001,M,0.0,M,,*5D
$GPRMC,102054,A,3740.4662,N,12220.2560,W,235.0,024.0,091114,0,E*72
$GPGGA,102054,3740.4662,N,12220.2560,W,1,04,0.9,533.704800000001,M,0.0,M,,*54
$GPRMC,102056,A,3740.5842,N,12220.1852,W,238.0,023.0,091114,0,E*78
$GPGGA,102056,3740.5842,N,12220.1852,W,1,04,0.9,551.992800000001,M,0.0,M,,*51
$GPRMC,102058,A,3740.7004,N,12220.1105,W,239.0,023.0,091114,0,E*74
$GPGGA,102058,3740.7004,N,12220.1105,W,1,04,0.9,571.804800000001,M,0.0,M,,*50
$GPRMC,102100,A,3740.8228,N,12220.0436,W,240.0,023.0,091114,0,E*71
$GPGGA,102100,3740.8228,N,12220.0436,W,1,04,0.9,591.921600000001,M,0.0,M,,*5D
$GPRMC,102102,A,3740.9442,N,12219.9743,W,240.0,022.0,091114,0,E*7B
$GPGGA,102102,3740.9442,N,12219.9743,W,1,04,0.9,612.952800000001,M,0.0,M,,*54
$GPRMC,102104,A,3741.0654,N,12219.9034,W,243.0,022.0,091114,0,E*74
$GPGGA,102104,3741.0654,N,12219.9034,W,1,04,0.9,634.898400000001,M,0.0,M,,*57
$GPRMC,102105,A,3741.1258,N,12219.8672,W,243.0,022.0,091114,0,E*79
$GPGGA,102105,3741.1258,N,12219.8672,W,1,04,0.9,645.871200000001,M,0.0,M,,*5D
$GPRMC,102106,A,3741.1868,N,12219.8315,W,243.0,022.0,091114,0,E*77
$GPGGA,102106,3741.1868,N,12219.8315,W,1,04,0.9,658.977600000001,M,0.0,M,,*5C
$GPRMC,102107,A,3741.2478,N,12219.7943,W,244.0,021.0,091114,0,E*7A
$GPGGA,102107,3741.2478,N,12219.7943,W,1,04,0.9,670.864800000001,M,0.0,M,,*52
$GPRMC,102108,A,3741.3071,N,12219.7552,W,245.0,021.0,091114,0,E*74
$GPGGA,102108,3741.3071,N,12219.7552,W,1,04,0.9,683.971200000001,M,0.0,M,,*5E
$GPRMC,102109,A,3741.3676,N,12219.7204,W,240.0,020.0,091114,0,E*74
$GPGGA,102109,3741.3676,N,12219.7204,W,1,04,0.9,695.858400000001,M,0.0,M,,*51
$GPRMC,102110,A,3741.4276,N,12219.6797,W,238.0,021.0,091114,0,E*7F
$GPGGA,102110,3741.4276,N,12219.6797,W,1,04,0.9,707.745600000001,M,0.0,M,,*5F
$GPRMC,102111,A,3741.4915,N,12219.6509,W,238.0,020.0,091114,0,E*74
$GPGGA,102111,3741.4915,N,12219.6509,W,1,04,0.9,720.852000000001,M,0.0,M,,*5F
$GPRMC,102112,A,3741.5557,N,12219.6237,W,241.0,019.0,091114,0,E*72
$GPGGA,102112,3741.5557,N,12219.6237,W,1,04,0.9,733.958400000001,M,0.0,M,,*50
$GPRMC,102113,A,3741.6212,N,12219.6004,W,240.0,017.0,091114,0,E*7B
$GPGGA,102113,3741.6212,N,12219.6004,W,1,04,0.9,745.845600000001,M,0.0,M,,*58
$GPRMC,102114,A,3741.6883,N,12219.5788,W,241.0,016.0,091114,0,E*7E
$GPGGA,102114,3741.6883,N,12219.5788,W,1,04,0.9,757.732800000001,M,0.0,M,,*5F
$GPRMC,102115,A,3741.7551,N,12219.5592,W,241.0,015.0,091114,0,E*76
$GPGGA,102115,3741.7551,N,12219.5592,W,1,04,0.9,770.839200000001,M,0.0,M,,*5F
$GPRMC,102116,A,3741.8227,N,12219.5426,W,241.0,013.0,091114,0,E*74
$GPGGA,102116,3741.8227,N,12219.5426,W,1,04,0.9,783.945600000001,M,0.0,M,,*59
$GPRMC,102117,A,3741.8960,N,12219.5329,W,242.0,011.0,091114,0,E*74
$GPGGA,102117,3741.8960,N,12219.5329,W,1,04,0.9,795.832800000001,M,0.0,M,,*50
$GPRMC,102118,A,3741.9653,N,12219.5258,W,242.0,013.0,091114,0,E*70
$GPGGA,102118,3741.9653,N,12219.5258,W,1,04,0.9,809.853600000001,M,0.0,M,,*55
$GPRMC,102119,A,3742.0367,N,12219.5164,W,243.0,003.0,091114,0,E*75
$GPGGA,102119,3742.0367,N,12219.5164,W,1,04,0.9,822.960000000001,M,0.0,M,,*5E
$GPRMC,102120,A,3742.1058,N,12219.5146,W,243.0,008.0,091114,0,E*7A
$GPGGA,102120,3742.1058,N,12219.5146,W,1,04,0.9,835.761600000001,M,0.0,M,,*55
$GPRMC,102121,A,3742.1744,N,12219.5128,W,244.0,004.0,091114,0,E*72
$GPGGA,102121,3742.1744,N,12219.5128,W,1,04,0.9,849.782400000001,M,0.0,M,,*52
$GPRMC,102122,A,3742.2425,N,12219.5134,W,244.0,002.0,091114,0,E*7D
$GPGGA,102122,3742.2425,N,12219.5134,W,1,04,0.9,862.888800000001,M,0.0,M,,*5B
$GPRMC,102123,A,3742.3107,N,12219.5173,W,245.0,001.0,091114,0,E*79
$GPGGA,102123,3742.3107,N,12219.5173,W,1,04,0.9,873.861600000001,M,0.0,M,,*54
$GPRMC,102125,A,3742.4480,N,12219.5375,W,245.0,358.0,091114,0,E*79
$GPGGA,102125,3742.4480,N,12219.5375,W,1,04,0.9,891.844800000001,M,0.0,M,,*5E
$GPRMC,102127,A,3742.5841,N,12219.5677,W,247.0,354.0,091114,0,E*72
$GPGGA,102127,3742.5841,N,12219.5677,W,1,04,0.9,904.951200000001,M,0.0,M,,*59
$GPRMC,102129,A,3742.7189,N,12219.6128,W,247.0,353.0,091114,0,E*7A
$GPGGA,102129,3742.7189,N,12219.6128,W,1,04,0.9,917.752800000001,M,0.0,M,,*53
$GPRMC,102130,A,3742.7856,N,12219.6387,W,248.0,349.0,091114,0,E*7A
$GPGGA,102130,3742.7856,N,12219.6387,W,1,04,0.9,923.848800000001,M,0.0,M,,*54
$GPRMC,102131,A,3742.8521,N,12219.6664,W,248.0,346.0,091114,0,E*7E
$GPGGA,102131,3742.8521,N,12219.6664,W,1,04,0.9,928.725600000001,M,0.0,M,,*5E
$GPRMC,102133,A,3742.9855,N,12219.7266,W,250.0,343.0,091114,0,E*78
$GPGGA,102133,3742.9855,N,12219.7266,W,1,04,0.9,937.869600000001,M,0.0,M,,*5D
$GPRMC,102138,A,3743.3217,N,12219.8968,W,262.0,339.0,091114,0,E*72
$GPGGA,102138,3743.3217,N,12219.8968,W,1,04,0.9,949.756800000001,M,0.0,M,,*5F
$GPRMC,102141,A,3743.5143,N,12219.9932,W,253.0,337.0,091114,0,E*7A
$GPGGA,102141,3743.5143,N,12219.9932,W,1,04,0.9,960.729600000001,M,0.0,M,,*56
$GPRMC,102144,A,3743.7100,N,12220.0952,W,255.0,336.0,091114,0,E*78
$GPGGA,102144,3743.7100,N,12220.0952,W,1,04,0.9,973.836000000001,M,0.0,M,,*56
$GPRMC,102147,A,3743.9060,N,12220.2001,W,255.0,336.0,091114,0,E*7F
$GPGGA,102147,3743.9060,N,12220.2001,W,1,04,0.9,987.856800000001,M,0.0,M,,*54
$GPRMC,102149,A,3744.0371,N,12220.2713,W,256.0,336.0,091114,0,E*7B
$GPGGA,102149,3744.0371,N,12220.2713,W,1,04,0.9,999.744000000001,M,0.0,M,,*58
$GPRMC,102152,A,3744.2380,N,12220.3752,W,256.0,336.0,091114,0,E*79
$GPGGA,102152,3744.2380,N,12220.3752,W,1,04,0.9,1011.936,M,0.0,M,,*58
$GPRMC,102154,A,3744.3695,N,12220.4503,W,257.0,335.0,091114,0,E*7C
$GPGGA,102154,3744.3695,N,12220.4503,W,1,04,0.9,1024.7376,M,0.0,M,,*60
$GPRMC,102156,A,3744.5007,N,12220.5244,W,257.0,335.0,091114,0,E*70
$GPGGA,102156,3744.5007,N,12220.5244,W,1,04,0.9,1037.844,M,0.0,M,,*53
$GPRMC,102203,A,3744.9990,N,12220.7696,W,260.0,335.0,091114,0,E*75
$GPGGA,102203,3744.9990,N,12220.7696,W,1,04,0.9,1130.808,M,0.0,M,,*5C
$GPRMC,102204,A,3745.0757,N,12220.8001,W,260.0,335.0,091114,0,E*78
$GPGGA,102204,3745.0757,N,12220.8001,W,1,04,0.9,1205.7888,M,0.0,M,,*6B
$GPRMC,102205,A,3745.1494,N,12220.8316,W,262.0,335.0,091114,0,E*73
$GPGGA,102205,3745.1494,N,12220.8316,W,1,04,0.9,1271.9304,M,0.0,M,,*60
$GPRMC,102206,A,3745.2218,N,12220.8627,W,263.0,335.0,091114,0,E*77
$GPGGA,102206,3745.2218,N,12220.8627,W,1,04,0.9,1326.7944,M,0.0,M,,*66
$GPRMC,102207,A,3745.2937,N,12220.8943,W,263.0,335.0,091114,0,E*7D
$GPGGA,102207,3745.2937,N,12220.8943,W,1,04,0.9,1372.8192,M,0.0,M,,*61
$GPRMC,102208,A,3745.3659,N,12220.9266,W,264.0,335.0,091114,0,E*7E
$GPGGA,102208,3745.3659,N,12220.9266,W,1,04,0.9,1412.748,M,0.0,M,,*5D
$GPRMC,102209,A,3745.4374,N,12220.9595,W,265.0,336.0,091114,0,E*7B
$GPGGA,102209,3745.4374,N,12220.9595,W,1,04,0.9,1446.8856,M,0.0,M,,*63
$GPRMC,102210,A,3745.5085,N,12220.9931,W,265.0,335.0,091114,0,E*7E
$GPGGA,102210,3745.5085,N,12220.9931,W,1,04,0.9,1475.8416,M,0.0,M,,*6D
$GPRMC,102211,A,3745.5991,N,12220.9886,W,265.0,335.0,091114,0,E*7E
$GPGGA,102211,3745.5991,N,12220.9886,W,1,04,0.9,1501.7496,M,0.0,M,,*68
$GPRMC,102212,A,3745.6693,N,12221.0267,W,265.0,335.0,091114,0,E*7E
$GPGGA,102212,3745.6693,N,12221.0267,W,1,04,0.9,1524.9144,M,0.0,M,,*6B
$GPRMC,102213,A,3745.7379,N,12221.0645,W,266.0,336.0,091114,0,E*7B
$GPGGA,102213,3745.7379,N,12221.0645,W,1,04,0.9,1546.86,M,0.0,M,,*6C
$GPRMC,102214,A,3745.8058,N,12221.1012,W,265.0,336.0,091114,0,E*75
$GPGGA,102214,3745.8058,N,12221.1012,W,1,04,0.9,1568.8056,M,0.0,M,,*68
$GPRMC,102214,A,3745.8734,N,12221.1396,W,266.0,336.0,091114,0,E*74
$GPGGA,102214,3745.8734,N,12221.1396,W,1,04,0.9,1592.8848,M,0.0,M,,*68
$GPRMC,102216,A,3745.9413,N,12221.1779,W,266.0,336.0,091114,0,E*74
$GPGGA,102216,3745.9413,N,12221.1779,W,1,04,0.9,1615.7448,M,0.0,M,,*67
$GPRMC,102217,A,3746.0134,N,12221.2080,W,266.0,336.0,091114,0,E*7D
$GPGGA,102217,3746.0134,N,12221.2080,W,1,04,0.9,1637.9952,M,0.0,M,,*66
$GPRMC,102218,A,3746.0835,N,12221.2438,W,266.0,335.0,091114,0,E*7E
$GPGGA,102218,3746.0835,N,12221.2438,W,1,04,0.9,1657.8072,M,0.0,M,,*6A
$GPRMC,102219,A,3746.1534,N,12221.2832,W,274.0,334.0,091114,0,E*76
$GPGGA,102219,3746.1534,N,12221.2832,W,1,04,0.9,1678.8384,M,0.0,M,,*67
$GPRMC,102220,A,3746.2223,N,12221.3216,W,280.0,334.0,091114,0,E*78
$GPGGA,102220,3746.2223,N,12221.3216,W,1,04,0.9,1697.736,M,0.0,M,,*56
$GPRMC,102221,A,3746.2928,N,12221.3488,W,276.0,333.0,091114,0,E*76
$GPGGA,102221,3746.2928,N,12221.3488,W,1,04,0.9,1715.7192,M,0.0,M,,*62
$GPRMC,102222,A,3746.3621,N,12221.3879,W,276.0,333.0,091114,0,E*70
$GPGGA,102222,3746.3621,N,12221.3879,W,1,04,0.9,1733.7024,M,0.0,M,,*6C
$GPRMC,102223,A,3746.4317,N,12221.4264,W,281.0,333.0,091114,0,E*7F
$GPGGA,102223,3746.4317,N,12221.4264,W,1,04,0.9,1750.7712,M,0.0,M,,*6C
$GPRMC,102224,A,3746.4985,N,12221.4639,W,281.0,332.0,091114,0,E*74
$GPGGA,102224,3746.4985,N,12221.4639,W,1,04,0.9,1769.9736,M,0.0,M,,*64
$GPRMC,102225,A,3746.5639,N,12221.5029,W,268.0,332.0,091114,0,E*7D
$GPGGA,102225,3746.5639,N,12221.5029,W,1,04,0.9,1787.9568,M,0.0,M,,*63
$GPRMC,102226,A,3746.6297,N,12221.5415,W,263.0,331.0,091114,0,E*7E
$GPGGA,102226,3746.6297,N,12221.5415,W,1,04,0.9,1805.94,M,0.0,M,,*62
$GPRMC,102227,A,3746.6959,N,12221.5796,W,263.0,332.0,091114,0,E*7D
$GPGGA,102227,3746.6959,N,12221.5796,W,1,04,0.9,1825.752,M,0.0,M,,*5D
$GPRMC,102228,A,3746.7636,N,12221.6158,W,262.0,332.0,091114,0,E*73
$GPGGA,102228,3746.7636,N,12221.6158,W,1,04,0.9,1844.9544,M,0.0,M,,*69
$GPRMC,102229,A,3746.8316,N,12221.6517,W,262.0,331.0,091114,0,E*76
$GPGGA,102229,3746.8316,N,12221.6517,W,1,04,0.9,1865.9856,M,0.0,M,,*62
$GPRMC,102230,A,3746.8991,N,12221.6884,W,263.0,331.0,091114,0,E*7D
$GPGGA,102230,3746.8991,N,12221.6884,W,1,04,0.9,1885.7976,M,0.0,M,,*6B
$GPRMC,102231,A,3746.9671,N,12221.7275,W,263.0,331.0,091114,0,E*79
$GPGGA,102231,3746.9671,N,12221.7275,W,1,04,0.9,1904.6952,M,0.0,M,,*60
$GPRMC,102231,A,3747.0493,N,12221.7290,W,264.0,332.0,091114,0,E*70
$GPGGA,102231,3747.0493,N,12221.7290,W,1,04,0.9,1922.9832,M,0.0,M,,*61
$GPRMC,102233,A,3747.1197,N,12221.7711,W,264.0,332.0,091114,0,E*7E
$GPGGA,102233,3747.1197,N,12221.7711,W,1,04,0.9,1938.8328,M,0.0,M,,*65
$GPRMC,102234,A,3747.1887,N,12221.8145,W,264.0,332.0,091114,0,E*79
$GPGGA,102234,3747.1887,N,12221.8145,W,1,04,0.9,1951.9392,M,0.0,M,,*6D
$GPRMC,102235,A,3747.2580,N,12221.8562,W,272.0,331.0,091114,0,E*74
$GPGGA,102235,3747.2580,N,12221.8562,W,1,04,0.9,1963.8264,M,0.0,M,,*6C
$GPRMC,102236,A,3747.3267,N,12221.8972,W,275.0,331.0,091114,0,E*72
$GPGGA,102236,3747.3267,N,12221.8972,W,1,04,0.9,1974.7992,M,0.0,M,,*66
$GPRMC,102237,A,3747.3965,N,12221.9357,W,275.0,331.0,091114,0,E*76
$GPGGA,102237,3747.3965,N,12221.9357,W,1,04,0.9,1986.9912,M,0.0,M,,*69
$GPRMC,102238,A,3747.4681,N,12221.9687,W,278.0,331.0,091114,0,E*7E
$GPGGA,102238,3747.4681,N,12221.9687,W,1,04,0.9,1999.7928,M,0.0,M,,*65
$GPRMC,102239,A,3747.5393,N,12222.0012,W,277.0,332.0,091114,0,E*74
$GPGGA,102239,3747.5393,N,12222.0012,W,1,04,0.9,2014.728,M,0.0,M,,*55
$GPRMC,102240,A,3747.6108,N,12222.0328,W,278.0,332.0,091114,0,E*7C
$GPGGA,102240,3747.6108,N,12222.0328,W,1,04,0.9,2030.8824,M,0.0,M,,*6F
$GPRMC,102241,A,3747.6815,N,12222.0667,W,278.0,333.0,091114,0,E*77
$GPGGA,102241,3747.6815,N,12222.0667,W,1,04,0.9,2047.9512,M,0.0,M,,*6C
$GPRMC,102242,A,3747.7518,N,12222.1011,W,279.0,333.0,091114,0,E*72
$GPGGA,102242,3747.7518,N,12222.1011,W,1,04,0.9,2064.7152,M,0.0,M,,*67
$GPRMC,102243,A,3747.8213,N,12222.1359,W,278.0,333.0,091114,0,E*7E
$GPGGA,102243,3747.8213,N,12222.1359,W,1,04,0.9,2082.6984,M,0.0,M,,*60
$GPRMC,102244,A,3747.8911,N,12222.1705,W,276.0,334.0,091114,0,E*74
$GPGGA,102244,3747.8911,N,12222.1705,W,1,04,0.9,2100.9864,M,0.0,M,,*68
$GPRMC,102245,A,3747.9612,N,12222.2053,W,275.0,333.0,091114,0,E*7B
$GPGGA,102245,3747.9612,N,12222.2053,W,1,04,0.9,2119.884,M,0.0,M,,*5C
$GPRMC,102246,A,3748.0357,N,12222.2092,W,275.0,333.0,091114,0,E*77
$GPGGA,102246,3748.0357,N,12222.2092,W,1,04,0.9,2136.9528,M,0.0,M,,*6F
$GPRMC,102247,A,3748.1049,N,12222.2462,W,275.0,333.0,091114,0,E*70
$GPGGA,102247,3748.1049,N,12222.2462,W,1,04,0.9,2153.7168,M,0.0,M,,*65
$GPRMC,102248,A,3748.1739,N,12222.2850,W,278.0,333.0,091114,0,E*7F
$GPGGA,102248,3748.1739,N,12222.2850,W,1,04,0.9,2170.7856,M,0.0,M,,*62
$GPRMC,102249,A,3748.2431,N,12222.3239,W,279.0,333.0,091114,0,E*73
$GPGGA,102249,3748.2431,N,12222.3239,W,1,04,0.9,2186.94,M,0.0,M,,*67
$GPRMC,102250,A,3748.3127,N,12222.3624,W,279.0,333.0,091114,0,E*70
$GPGGA,102250,3748.3127,N,12222.3624,W,1,04,0.9,2201.8752,M,0.0,M,,*6D
$GPRMC,102251,A,3748.3823,N,12222.4011,W,279.0,333.0,091114,0,E*7B
$GPGGA,102251,3748.3823,N,12222.4011,W,1,04,0.9,2217.7248,M,0.0,M,,*60
$GPRMC,102252,A,3748.4552,N,12222.4326,W,279.0,333.0,091114,0,E*73
$GPGGA,102252,3748.4552,N,12222.4326,W,1,04,0.9,2232.9648,M,0.0,M,,*65
$GPRMC,102253,A,3748.5262,N,12222.4701,W,279.0,333.0,091114,0,E*76
$GPGGA,102253,3748.5262,N,12222.4701,W,1,04,0.9,2247.9,M,0.0,M,,*58
$GPRMC,102254,A,3748.5960,N,12222.5034,W,279.0,333.0,091114,0,E*78
$GPGGA,102254,3748.5960,N,12222.5034,W,1,04,0.9,2261.9208,M,0.0,M,,*68
$GPRMC,102255,A,3748.6656,N,12222.5300,W,270.0,334.0,091114,0,E*7A
$GPGGA,102255,3748.6656,N,12222.5300,W,1,04,0.9,2273.808,M,0.0,M,,*54
$GPRMC,102256,A,3748.7356,N,12222.5669,W,270.0,333.0,091114,0,E*70
$GPGGA,102256,3748.7356,N,12222.5669,W,1,04,0.9,2285.6952,M,0.0,M,,*68
$GPRMC,102257,A,3748.8060,N,12222.6026,W,269.0,336.0,091114,0,E*7B
$GPGGA,102257,3748.8060,N,12222.6026,W,1,04,0.9,2296.9728,M,0.0,M,,*60
$GPRMC,102258,A,3748.8768,N,12222.6368,W,269.0,336.0,091114,0,E*72
$GPGGA,102258,3748.8768,N,12222.6368,W,1,04,0.9,2307.9456,M,0.0,M,,*6A
$GPRMC,102259,A,3748.9476,N,12222.6671,W,269.0,337.0,091114,0,E*72
$GPGGA,102259,3748.9476,N,12222.6671,W,1,04,0.9,2319.8328,M,0.0,M,,*6B
$GPRMC,102300,A,3749.0294,N,12222.6697,W,267.0,337.0,091114,0,E*7B
$GPGGA,102300,3749.0294,N,12222.6697,W,1,04,0.9,2331.72,M,0.0,M,,*62
$GPRMC,102301,A,3749.1075,N,12222.6870,W,267.0,336.0,091114,0,E*70
$GPGGA,102301,3749.1075,N,12222.6870,W,1,04,0.9,2345.7408,M,0.0,M,,*65
$GPRMC,102302,A,3749.1813,N,12222.7110,W,273.0,338.0,091114,0,E*7E
$GPGGA,102302,3749.1813,N,12222.7110,W,1,04,0.9,2363.724,M,0.0,M,,*5E
$GPRMC,102303,A,3749.2543,N,12222.7343,W,270.0,341.0,091114,0,E*7D
$GPGGA,102303,3749.2543,N,12222.7343,W,1,04,0.9,2383.8408,M,0.0,M,,*6B
$GPRMC,102304,A,3749.3273,N,12222.7581,W,267.0,341.0,091114,0,E*71
$GPGGA,102304,3749.3273,N,12222.7581,W,1,04,0.9,2402.7384,M,0.0,M,,*63
$GPRMC,102305,A,3749.4011,N,12222.7816,W,267.0,342.0,091114,0,E*71
$GPGGA,102305,3749.4011,N,12222.7816,W,1,04,0.9,2420.7216,M,0.0,M,,*6A
$GPRMC,102306,A,3749.4749,N,12222.8051,W,267.0,342.0,091114,0,E*7C
$GPGGA,102306,3749.4749,N,12222.8051,W,1,04,0.9,2437.7904,M,0.0,M,,*69
$GPRMC,102307,A,3749.5493,N,12222.8265,W,266.0,343.0,091114,0,E*7D
$GPGGA,102307,3749.5493,N,12222.8265,W,1,04,0.9,2454.8592,M,0.0,M,,*61
$GPRMC,102308,A,3749.6239,N,12222.8474,W,266.0,344.0,091114,0,E*76
$GPGGA,102308,3749.6239,N,12222.8474,W,1,04,0.9,2470.7088,M,0.0,M,,*6A
$GPRMC,102309,A,3749.6986,N,12222.8676,W,266.0,344.0,091114,0,E*78
$GPGGA,102309,3749.6986,N,12222.8676,W,1,04,0.9,2486.8632,M,0.0,M,,*65
$GPRMC,102310,A,3749.7880,N,12222.8476,W,266.0,344.0,091114,0,E*74
$GPGGA,102310,3749.7880,N,12222.8476,W,1,04,0.9,2501.7984,M,0.0,M,,*6A
$GPRMC,102311,A,3749.8631,N,12222.8631,W,266.0,343.0,091114,0,E*78
$GPGGA,102311,3749.8631,N,12222.8631,W,1,04,0.9,2517.9528,M,0.0,M,,*62
$GPRMC,102312,A,3749.9377,N,12222.8778,W,265.0,347.0,091114,0,E*76
$GPGGA,102312,3749.9377,N,12222.8778,W,1,04,0.9,2533.8024,M,0.0,M,,*65
$GPRMC,102313,A,3750.0186,N,12222.8803,W,265.0,348.0,091114,0,E*76
$GPGGA,102313,3750.0186,N,12222.8803,W,1,04,0.9,2549.9568,M,0.0,M,,*6B
$GPRMC,102314,A,3750.0944,N,12222.8955,W,265.0,346.0,091114,0,E*7B
$GPGGA,102314,3750.0944,N,12222.8955,W,1,04,0.9,2562.7584,M,0.0,M,,*6D
$GPRMC,102315,A,3750.1723,N,12222.8989,W,267.0,347.0,091114,0,E*76
$GPGGA,102315,3750.1723,N,12222.8989,W,1,04,0.9,2576.7792,M,0.0,M,,*63
$GPRMC,102316,A,3750.2515,N,12222.8969,W,272.0,348.0,091114,0,E*74
$GPGGA,102316,3750.2515,N,12222.8969,W,1,04,0.9,2592.9336,M,0.0,M,,*64
$GPRMC,102317,A,3750.3281,N,12222.9050,W,279.0,349.0,091114,0,E*76
$GPGGA,102317,3750.3281,N,12222.9050,W,1,04,0.9,2608.7832,M,0.0,M,,*6D
$GPRMC,102318,A,3750.4044,N,12222.9147,W,276.0,351.0,091114,0,E*74
$GPGGA,102318,3750.4044,N,12222.9147,W,1,04,0.9,2623.7184,M,0.0,M,,*64
$GPRMC,102319,A,3750.4810,N,12222.9219,W,275.0,352.0,091114,0,E*74
$GPGGA,102319,3750.4810,N,12222.9219,W,1,04,0.9,2640.7872,M,0.0,M,,*61
$GPRMC,102320,A,3750.5614,N,12222.9117,W,275.0,352.0,091114,0,E*78
$GPGGA,102320,3750.5614,N,12222.9117,W,1,04,0.9,2657.856,M,0.0,M,,*5A
$GPRMC,102321,A,3750.6394,N,12222.9145,W,275.0,351.0,091114,0,E*73
$GPGGA,102321,3750.6394,N,12222.9145,W,1,04,0.9,2672.7912,M,0.0,M,,*63
$GPRMC,102322,A,3750.7161,N,12222.9187,W,277.0,353.0,091114,0,E*77
$GPGGA,102322,3750.7161,N,12222.9187,W,1,04,0.9,2686.812,M,0.0,M,,*5A
$GPRMC,102323,A,3750.7924,N,12222.9229,W,272.0,355.0,091114,0,E*7B
$GPGGA,102323,3750.7924,N,12222.9229,W,1,04,0.9,2700.8328,M,0.0,M,,*60
$GPRMC,102324,A,3750.8720,N,12222.9151,W,270.0,354.0,091114,0,E*76
$GPGGA,102324,3750.8720,N,12222.9151,W,1,04,0.9,2713.9392,M,0.0,M,,*6C
$GPRMC,102325,A,3750.9495,N,12222.9194,W,270.0,354.0,091114,0,E*72
$GPGGA,102325,3750.9495,N,12222.9194,W,1,04,0.9,2727.96,M,0.0,M,,*61
$GPRMC,102326,A,3751.0274,N,12222.9235,W,275.0,355.0,091114,0,E*7C
$GPGGA,102326,3751.0274,N,12222.9235,W,1,04,0.9,2742.8952,M,0.0,M,,*61
$GPRMC,102327,A,3751.1054,N,12222.9274,W,279.0,355.0,091114,0,E*75
$GPGGA,102327,3751.1054,N,12222.9274,W,1,04,0.9,2756.916,M,0.0,M,,*59
$GPRMC,102328,A,3751.1833,N,12222.9313,W,279.0,355.0,091114,0,E*73
$GPGGA,102328,3751.1833,N,12222.9313,W,1,04,0.9,2770.9368,M,0.0,M,,*61
$GPRMC,102329,A,3751.2611,N,12222.9351,W,279.0,355.0,091114,0,E*79
$GPGGA,102329,3751.2611,N,12222.9351,W,1,04,0.9,2784.9576,M,0.0,M,,*69
$GPRMC,102330,A,3751.3389,N,12222.9389,W,279.0,355.0,091114,0,E*71
$GPGGA,102330,3751.3389,N,12222.9389,W,1,04,0.9,2799.8928,M,0.0,M,,*6B
$GPRMC,102331,A,3751.4144,N,12222.9441,W,279.0,355.0,091114,0,E*77
$GPGGA,102331,3751.4144,N,12222.9441,W,1,04,0.9,2813.9136,M,0.0,M,,*66
$GPRMC,102332,A,3751.4940,N,12222.9235,W,270.0,354.0,091114,0,E*75
$GPGGA,102332,3751.4940,N,12222.9235,W,1,04,0.9,2828.8488,M,0.0,M,,*65
$GPRMC,102333,A,3751.5707,N,12222.9310,W,270.0,354.0,091114,0,E*7E
$GPGGA,102333,3751.5707,N,12222.9310,W,1,04,0.9,2843.784,M,0.0,M,,*54
$GPRMC,102334,A,3751.6469,N,12222.9357,W,269.0,354.0,091114,0,E*7A
$GPGGA,102334,3751.6469,N,12222.9357,W,1,04,0.9,2859.9384,M,0.0,M,,*6E
$GPRMC,102335,A,3751.7223,N,12222.9383,W,265.0,355.0,091114,0,E*76
$GPGGA,102335,3751.7223,N,12222.9383,W,1,04,0.9,2874.8736,M,0.0,M,,*6C
$GPRMC,102336,A,3751.7977,N,12222.9398,W,263.0,356.0,091114,0,E*70
$GPGGA,102336,3751.7977,N,12222.9398,W,1,04,0.9,2888.8944,M,0.0,M,,*67
$GPRMC,102337,A,3751.8731,N,12222.9414,W,270.0,357.0,091114,0,E*72
$GPGGA,102337,3751.8731,N,12222.9414,W,1,04,0.9,2900.7816,M,0.0,M,,*6E
$GPRMC,102338,A,3751.9489,N,12222.9405,W,264.0,358.0,091114,0,E*76
$GPGGA,102338,3751.9489,N,12222.9405,W,1,04,0.9,2912.9736,M,0.0,M,,*60
$GPRMC,102340,A,3752.1086,N,12222.9198,W,267.0,358.0,091114,0,E*7B
$GPGGA,102340,3752.1086,N,12222.9198,W,1,04,0.9,2929.7376,M,0.0,M,,*68
$GPRMC,102342,A,3752.2672,N,12222.9077,W,281.0,358.0,091114,0,E*7F
$GPGGA,102342,3752.2672,N,12222.9077,W,1,04,0.9,2940.7104,M,0.0,M,,*6C
$GPRMC,102344,A,3752.4254,N,12222.8706,W,293.0,000.0,091114,0,E*72
$GPGGA,102344,3752.4254,N,12222.8706,W,1,04,0.9,2949.8544,M,0.0,M,,*6A
$GPRMC,102345,A,3752.5000,N,12222.8495,W,293.0,003.0,091114,0,E*7B
$GPGGA,102345,3752.5000,N,12222.8495,W,1,04,0.9,2952.9024,M,0.0,M,,*68
$GPRMC,102346,A,3752.5724,N,12222.8279,W,292.0,006.0,091114,0,E*79
$GPGGA,102346,3752.5724,N,12222.8279,W,1,04,0.9,2959.9128,M,0.0,M,,*68
$GPRMC,102348,A,3752.7145,N,12222.7836,W,289.0,010.0,091114,0,E*77
$GPGGA,102348,3752.7145,N,12222.7836,W,1,04,0.9,2971.8,M,0.0,M,,*5B
$GPRMC,102357,A,3753.3607,N,12222.2282,W,272.0,010.0,091114,0,E*79
$GPGGA,102357,3753.3607,N,12222.2282,W,1,04,0.9,3016.9104,M,0.0,M,,*6C
$GPRMC,102358,A,3753.4325,N,12222.1731,W,280.0,014.0,091114,0,E*73
$GPGGA,102358,3753.4325,N,12222.1731,W,1,04,0.9,3041.904,M,0.0,M,,*5C
$GPRMC,102359,A,3753.4722,N,12222.0577,W,280.0,020.0,091114,0,E*77
$GPGGA,102359,3753.4722,N,12222.0577,W,1,04,0.9,3067.812,M,0.0,M,,*5D
$GPRMC,102400,A,3753.5303,N,12221.9891,W,280.0,017.0,091114,0,E*71
$GPGGA,102400,3753.5303,N,12221.9891,W,1,04,0.9,3106.8264,M,0.0,M,,*6A
$GPRMC,102401,A,3753.5934,N,12221.9294,W,287.0,023.0,091114,0,E*71
$GPGGA,102401,3753.5934,N,12221.9294,W,1,04,0.9,3141.8784,M,0.0,M,,*62
$GPRMC,102402,A,3753.6517,N,12221.8633,W,285.0,034.0,091114,0,E*70
$GPGGA,102402,3753.6517,N,12221.8633,W,1,04,0.9,3172.968,M,0.0,M,,*53
$GPRMC,102403,A,3753.7138,N,12221.7964,W,285.0,028.0,091114,0,E*76
$GPGGA,102403,3753.7138,N,12221.7964,W,1,04,0.9,3197.9616,M,0.0,M,,*6C
$GPRMC,102404,A,3753.7768,N,12221.7326,W,290.0,032.0,091114,0,E*71
$GPGGA,102404,3753.7768,N,12221.7326,W,1,04,0.9,3220.8216,M,0.0,M,,*6E
$GPRMC,102405,A,3753.8348,N,12221.6613,W,287.0,037.0,091114,0,E*78
$GPGGA,102405,3753.8348,N,12221.6613,W,1,04,0.9,3239.7192,M,0.0,M,,*6C
$GPRMC,102406,A,3753.8961,N,12221.5976,W,287.0,034.0,091114,0,E*76
$GPGGA,102406,3753.8961,N,12221.5976,W,1,04,0.9,3257.7024,M,0.0,M,,*65
$GPRMC,102407,A,3753.9551,N,12221.5303,W,287.0,038.0,091114,0,E*7D
$GPGGA,102407,3753.9551,N,12221.5303,W,1,04,0.9,3275.9904,M,0.0,M,,*67
$GPRMC,102408,A,3754.0162,N,12221.4640,W,287.0,036.0,091114,0,E*75
$GPGGA,102408,3754.0162,N,12221.4640,W,1,04,0.9,3292.7544,M,0.0,M,,*6E
$GPRMC,102409,A,3754.0760,N,12221.3959,W,289.0,037.0,091114,0,E*7F
$GPGGA,102409,3754.0760,N,12221.3959,W,1,04,0.9,3307.9944,M,0.0,M,,*64
$GPRMC,102410,A,3754.1314,N,12221.3201,W,289.0,039.0,091114,0,E*79
$GPGGA,102410,3754.1314,N,12221.3201,W,1,04,0.9,3325.9776,M,0.0,M,,*63
$GPRMC,102411,A,3754.1918,N,12221.2527,W,289.0,038.0,091114,0,E*7D
$GPGGA,102411,3754.1918,N,12221.2527,W,1,04,0.9,3341.8272,M,0.0,M,,*64
$GPRMC,102411,A,3754.2500,N,12221.1728,W,289.0,040.0,091114,0,E*7A
$GPGGA,102411,3754.2500,N,12221.1728,W,1,04,0.9,3355.848,M,0.0,M,,*52
$GPRMC,102413,A,3754.3099,N,12221.0994,W,289.0,038.0,091114,0,E*7B
$GPGGA,102413,3754.3099,N,12221.0994,W,1,04,0.9,3368.9544,M,0.0,M,,*6A
$GPRMC,102414,A,3754.3696,N,12221.0271,W,293.0,040.0,091114,0,E*71
$GPGGA,102414,3754.3696,N,12221.0271,W,1,04,0.9,3381.756,M,0.0,M,,*5B
$GPRMC,102415,A,3754.4276,N,12220.9496,W,293.0,042.0,091114,0,E*78
$GPGGA,102415,3754.4276,N,12220.9496,W,1,04,0.9,3393.948,M,0.0,M,,*52
$GPRMC,102417,A,3754.5470,N,12220.8020,W,299.0,042.0,091114,0,E*79
$GPGGA,102417,3754.5470,N,12220.8020,W,1,04,0.9,3414.9792,M,0.0,M,,*61
$GPRMC,102418,A,3754.6056,N,12220.7284,W,300.0,042.0,091114,0,E*77
$GPGGA,102418,3754.6056,N,12220.7284,W,1,04,0.9,3425.952,M,0.0,M,,*57
$GPRMC,102420,A,3754.7196,N,12220.5758,W,301.0,042.0,091114,0,E*77
$GPGGA,102420,3754.7196,N,12220.5758,W,1,04,0.9,3448.812,M,0.0,M,,*58
$GPRMC,102421,A,3754.7616,N,12220.4857,W,297.0,045.0,091114,0,E*71
$GPGGA,102421,3754.7616,N,12220.4857,W,1,04,0.9,3463.7472,M,0.0,M,,*63
$GPRMC,102422,A,3754.8155,N,12220.4078,W,297.0,043.0,091114,0,E*7E
$GPGGA,102422,3754.8155,N,12220.4078,W,1,04,0.9,3478.9872,M,0.0,M,,*62
$GPRMC,102423,A,3754.8675,N,12220.3275,W,297.0,046.0,091114,0,E*77
$GPGGA,102423,3754.8675,N,12220.3275,W,1,04,0.9,3495.7512,M,0.0,M,,*68
$GPRMC,102424,A,3754.9208,N,12220.2476,W,297.0,046.0,091114,0,E*7B
$GPGGA,102424,3754.9208,N,12220.2476,W,1,04,0.9,3513.7344,M,0.0,M,,*6E
$GPRMC,102425,A,3754.9749,N,12220.1683,W,299.0,046.0,091114,0,E*7F
$GPGGA,102425,3754.9749,N,12220.1683,W,1,04,0.9,3532.9368,M,0.0,M,,*67
$GPRMC,102426,A,3755.0294,N,12220.0894,W,298.0,046.0,091114,0,E*79
$GPGGA,102426,3755.0294,N,12220.0894,W,1,04,0.9,3550.92,M,0.0,M,,*6B
$GPRMC,102427,A,3755.0836,N,12220.0101,W,298.0,047.0,091114,0,E*7E
$GPGGA,102427,3755.0836,N,12220.0101,W,1,04,0.9,3567.9888,M,0.0,M,,*63
$GPRMC,102428,A,3755.1378,N,12219.9308,W,298.0,047.0,091114,0,E*79
$GPGGA,102428,3755.1378,N,12219.9308,W,1,04,0.9,3585.972,M,0.0,M,,*55
$GPRMC,102429,A,3755.1925,N,12219.8512,W,297.0,047.0,091114,0,E*79
$GPGGA,102429,3755.1925,N,12219.8512,W,1,04,0.9,3602.736,M,0.0,M,,*58
$GPRMC,102430,A,3755.2473,N,12219.7717,W,300.0,046.0,091114,0,E*7A
$GPGGA,102430,3755.2473,N,12219.7717,W,1,04,0.9,3618.8904,M,0.0,M,,*69
$GPRMC,102431,A,3755.3020,N,12219.6923,W,300.0,046.0,091114,0,E*70
$GPGGA,102431,3755.3020,N,12219.6923,W,1,04,0.9,3634.74,M,0.0,M,,*6B
$GPRMC,102432,A,3755.3565,N,12219.6129,W,300.0,046.0,091114,0,E*75
$GPGGA,102432,3755.3565,N,12219.6129,W,1,04,0.9,3649.98,M,0.0,M,,*66
$GPRMC,102433,A,3755.4114,N,12219.5331,W,300.0,046.0,091114,0,E*79
$GPGGA,102433,3755.4114,N,12219.5331,W,1,04,0.9,3665.8296,M,0.0,M,,*60
$GPRMC,102434,A,3755.4666,N,12219.4532,W,300.0,046.0,091114,0,E*78
$GPGGA,102434,3755.4666,N,12219.4532,W,1,04,0.9,3680.7648,M,0.0,M,,*62
$GPRMC,102435,A,3755.5216,N,12219.3732,W,301.0,046.0,091114,0,E*7F
$GPGGA,102435,3755.5216,N,12219.3732,W,1,04,0.9,3694.7856,M,0.0,M,,*60
$GPRMC,102435,A,3755.5764,N,12219.2932,W,302.0,046.0,091114,0,E*73
$GPGGA,102435,3755.5764,N,12219.2932,W,1,04,0.9,3708.8064,M,0.0,M,,*6D
$GPRMC,102437,A,3755.6312,N,12219.2128,W,302.0,046.0,091114,0,E*74
$GPGGA,102437,3755.6312,N,12219.2128,W,1,04,0.9,3722.8272,M,0.0,M,,*67
$GPRMC,102438,A,3755.6859,N,12219.1322,W,302.0,047.0,091114,0,E*75
$GPGGA,102438,3755.6859,N,12219.1322,W,1,04,0.9,3736.848,M,0.0,M,,*59
