$GPRMC,214305,A,3822.5593,N,12241.9335,W,000.0,000.0,300914,0,E*7D
$GPGGA,214305,3822.5593,N,12241.9335,W,1,04,0.9,54.8640000000001,M,0.0,M,,*5F
$GPRMC,214306,A,3822.5604,N,12241.9326,W,000.0,000.0,300914,0,E*71
$GPGGA,214306,3822.5604,N,12241.9326,W,1,04,0.9,25.908,M,0.0,M,,*5F
$GPRMC,214311,A,3822.5648,N,12241.9356,W,000.0,000.0,300914,0,E*78
$GPGGA,214311,3822.5648,N,12241.9356,W,1,04,0.9,13.716,M,0.0,M,,*52
$GPRMC,214331,A,3822.5642,N,12241.9376,W,000.0,000.0,300914,0,E*72
$GPGGA,214331,3822.5642,N,12241.9376,W,1,04,0.9,15.8496,M,0.0,M,,*6D
$GPRMC,214332,A,3822.5642,N,12241.9376,W,000.0,000.0,300914,0,E*71
$GPGGA,214332,3822.5642,N,12241.9376,W,1,04,0.9,15.8496,M,0.0,M,,*6E
$GPRMC,214351,A,3822.5642,N,12241.9373,W,000.0,000.0,300914,0,E*71
$GPGGA,214351,3822.5642,N,12241.9373,W,1,04,0.9,14.9352,M,0.0,M,,*61
$GPRMC,214352,A,3822.5642,N,12241.9373,W,000.0,000.0,300914,0,E*72
$GPGGA,214352,3822.5642,N,12241.9373,W,1,04,0.9,14.9352,M,0.0,M,,*62
$GPRMC,214412,A,3822.5641,N,12241.9373,W,000.0,000.0,300914,0,E*72
$GPGGA,214412,3822.5641,N,12241.9373,W,1,04,0.9,14.9352,M,0.0,M,,*62
$GPRMC,214413,A,3822.5641,N,12241.9373,W,000.0,000.0,300914,0,E*73
$GPGGA,214413,3822.5641,N,12241.9373,W,1,04,0.9,14.9352,M,0.0,M,,*63
$GPRMC,214432,A,3822.5641,N,12241.9373,W,000.0,000.0,300914,0,E*70
$GPGGA,214432,3822.5641,N,12241.9373,W,1,04,0.9,14.9352,M,0.0,M,,*60
$GPRMC,214433,A,3822.5641,N,12241.9373,W,000.0,000.0,300914,0,E*71
$GPGGA,214433,3822.5641,N,12241.9373,W,1,04,0.9,14.9352,M,0.0,M,,*61
$GPRMC,214453,A,3822.5641,N,12241.9373,W,000.0,000.0,300914,0,E*77
$GPGGA,214453,3822.5641,N,12241.9373,W,1,04,0.9,14.9352,M,0.0,M,,*67
$GPRMC,214454,A,3822.5641,N,12241.9373,W,000.0,000.0,300914,0,E*70
$GPGGA,214454,3822.5641,N,12241.9373,W,1,04,0.9,14.9352,M,0.0,M,,*60
$GPRMC,214514,A,3822.5641,N,12241.9373,W,000.0,000.0,300914,0,E*75
$GPGGA,214514,3822.5641,N,12241.9373,W,1,04,0.9,14.9352,M,0.0,M,,*65
$GPRMC,214515,A,3822.5641,N,12241.9373,W,000.0,000.0,300914,0,E*74
$GPGGA,214515,3822.5641,N,12241.9373,W,1,04,0.9,14.9352,M,0.0,M,,*64
$GPRMC,214535,A,3822.5641,N,12241.9373,W,000.0,000.0,300914,0,E*76
$GPGGA,214535,3822.5641,N,12241.9373,W,1,04,0.9,14.9352,M,0.0,M,,*66
$GPRMC,214536,A,3822.5641,N,12241.9373,W,000.0,000.0,300914,0,E*75
$GPGGA,214536,3822.5641,N,12241.9373,W,1,04,0.9,14.9352,M,0.0,M,,*65
$GPRMC,214556,A,3822.5641,N,12241.9373,W,000.0,000.0,300914,0,E*73
$GPGGA,214556,3822.5641,N,12241.9373,W,1,04,0.9,14.9352,M,0.0,M,,*63
$GPRMC,214557,A,3822.5641,N,12241.9373,W,000.0,000.0,300914,0,E*72
$GPGGA,214557,3822.5641,N,12241.9373,W,1,04,0.9,14.9352,M,0.0,M,,*62
$GPRMC,214617,A,3822.5640,N,12241.9373,W,000.0,000.0,300914,0,E*74
$GPGGA,214617,3822.5640,N,12241.9373,W,1,04,0.9,14.9352,M,0.0,M,,*64
$GPRMC,214618,A,3822.5640,N,12241.9373,W,000.0,000.0,300914,0,E*7B
$GPGGA,214618,3822.5640,N,12241.9373,W,1,04,0.9,14.9352,M,0.0,M,,*6B
$GPRMC,214637,A,3822.5640,N,12241.9373,W,000.0,000.0,300914,0,E*76
$GPGGA,214637,3822.5640,N,12241.9373,W,1,04,0.9,14.9352,M,0.0,M,,*66
$GPRMC,214638,A,3822.5640,N,12241.9373,W,000.0,000.0,300914,0,E*79
$GPGGA,214638,3822.5640,N,12241.9373,W,1,04,0.9,14.9352,M,0.0,M,,*69
$GPRMC,214658,A,3822.5640,N,12241.9373,W,000.0,000.0,300914,0,E*7F
$GPGGA,214658,3822.5640,N,12241.9373,W,1,04,0.9,15.8496,M,0.0,M,,*60
$GPRMC,214659,A,3822.5640,N,12241.9373,W,000.0,000.0,300914,0,E*7E
$GPGGA,214659,3822.5640,N,12241.9373,W,1,04,0.9,15.8496,M,0.0,M,,*61
$GPRMC,214719,A,3822.5639,N,12241.9373,W,000.0,000.0,300914,0,E*75
$GPGGA,214719,3822.5639,N,12241.9373,W,1,04,0.9,15.8496,M,0.0,M,,*6A
$GPRMC,214720,A,3822.5639,N,12241.9373,W,000.0,000.0,300914,0,E*7F
$GPGGA,214720,3822.5639,N,12241.9373,W,1,04,0.9,15.8496,M,0.0,M,,*60
$GPRMC,214740,A,3822.5639,N,12241.9373,W,000.0,000.0,300914,0,E*79
$GPGGA,214740,3822.5639,N,12241.9373,W,1,04,0.9,15.8496,M,0.0,M,,*66
$GPRMC,214741,A,3822.5638,N,12241.9373,W,000.0,000.0,300914,0,E*79
$GPGGA,214741,3822.5638,N,12241.9373,W,1,04,0.9,15.8496,M,0.0,M,,*66
$GPRMC,214801,A,3822.5638,N,12241.9373,W,000.0,000.0,300914,0,E*72
$GPGGA,214801,3822.5638,N,12241.9373,W,1,04,0.9,15.8496,M,0.0,M,,*6D
$GPRMC,214802,A,3822.5638,N,12241.9373,W,000.0,000.0,300914,0,E*71
$GPGGA,214802,3822.5638,N,12241.9373,W,1,04,0.9,15.8496,M,0.0,M,,*6E
$GPRMC,214821,A,3822.5637,N,12241.9373,W,000.0,000.0,300914,0,E*7F
$GPGGA,214821,3822.5637,N,12241.9373,W,1,04,0.9,15.8496,M,0.0,M,,*60
$GPRMC,214822,A,3822.5637,N,12241.9373,W,000.0,000.0,300914,0,E*7C
$GPGGA,214822,3822.5637,N,12241.9373,W,1,04,0.9,15.8496,M,0.0,M,,*63
$GPRMC,214841,A,3822.5637,N,12241.9373,W,000.0,000.0,300914,0,E*79
$GPGGA,214841,3822.5637,N,12241.9373,W,1,04,0.9,15.8496,M,0.0,M,,*66
$GPRMC,214842,A,3822.5637,N,12241.9373,W,000.0,000.0,300914,0,E*7A
$GPGGA,214842,3822.5637,N,12241.9373,W,1,04,0.9,15.8496,M,0.0,M,,*65
$GPRMC,214902,A,3822.5637,N,12241.9373,W,000.0,000.0,300914,0,E*7F
$GPGGA,214902,3822.5637,N,12241.9373,W,1,04,0.9,15.8496,M,0.0,M,,*60
$GPRMC,214903,A,3822.5637,N,12241.9373,W,000.0,000.0,300914,0,E*7E
$GPGGA,214903,3822.5637,N,12241.9373,W,1,04,0.9,15.8496,M,0.0,M,,*61
$GPRMC,214923,A,3822.5637,N,12241.9373,W,000.0,000.0,300914,0,E*7C
$GPGGA,214923,3822.5637,N,12241.9373,W,1,04,0.9,15.8496,M,0.0,M,,*63
$GPRMC,214924,A,3822.5637,N,12241.9373,W,000.0,000.0,300914,0,E*7B
$GPGGA,214924,3822.5637,N,12241.9373,W,1,04,0.9,15.8496,M,0.0,M,,*64
$GPRMC,214943,A,3822.5636,N,12241.9372,W,000.0,000.0,300914,0,E*7A
$GPGGA,214943,3822.5636,N,12241.9372,W,1,04,0.9,15.8496,M,0.0,M,,*65
$GPRMC,214944,A,3822.5636,N,12241.9372,W,000.0,000.0,300914,0,E*7D
$GPGGA,214944,3822.5636,N,12241.9372,W,1,04,0.9,15.8496,M,0.0,M,,*62
$GPRMC,215004,A,3822.5636,N,12241.9372,W,000.0,000.0,300914,0,E*71
$GPGGA,215004,3822.5636,N,12241.9372,W,1,04,0.9,15.8496,M,0.0,M,,*6E
$GPRMC,215005,A,3822.5636,N,12241.9372,W,000.0,000.0,300914,0,E*70
$GPGGA,215005,3822.5636,N,12241.9372,W,1,04,0.9,15.8496,M,0.0,M,,*6F
$GPRMC,215024,A,3822.5636,N,12241.9372,W,000.0,000.0,300914,0,E*73
$GPGGA,215024,3822.5636,N,12241.9372,W,1,04,0.9,15.8496,M,0.0,M,,*6C
$GPRMC,215025,A,3822.5636,N,12241.9372,W,000.0,000.0,300914,0,E*72
$GPGGA,215025,3822.5636,N,12241.9372,W,1,04,0.9,15.8496,M,0.0,M,,*6D
$GPRMC,215044,A,3822.5636,N,12241.9372,W,000.0,000.0,300914,0,E*75
$GPGGA,215044,3822.5636,N,12241.9372,W,1,04,0.9,15.8496,M,0.0,M,,*6A
$GPRMC,215045,A,3822.5636,N,12241.9372,W,000.0,000.0,300914,0,E*74
$GPGGA,215045,3822.5636,N,12241.9372,W,1,04,0.9,15.8496,M,0.0,M,,*6B
$GPRMC,215105,A,3822.5636,N,12241.9372,W,000.0,000.0,300914,0,E*71
$GPGGA,215105,3822.5636,N,12241.9372,W,1,04,0.9,15.8496,M,0.0,M,,*6E
$GPRMC,215106,A,3822.5636,N,12241.9372,W,000.0,000.0,300914,0,E*72
$GPGGA,215106,3822.5636,N,12241.9372,W,1,04,0.9,15.8496,M,0.0,M,,*6D
$GPRMC,215125,A,3822.5636,N,12241.9372,W,000.0,000.0,300914,0,E*73
$GPGGA,215125,3822.5636,N,12241.9372,W,1,04,0.9,15.8496,M,0.0,M,,*6C
$GPRMC,215126,A,3822.5636,N,12241.9372,W,000.0,000.0,300914,0,E*70
$GPGGA,215126,3822.5636,N,12241.9372,W,1,04,0.9,15.8496,M,0.0,M,,*6F
$GPRMC,215145,A,3822.5635,N,12241.9372,W,000.0,000.0,300914,0,E*76
$GPGGA,215145,3822.5635,N,12241.9372,W,1,04,0.9,15.8496,M,0.0,M,,*69
$GPRMC,215146,A,3822.5635,N,12241.9372,W,000.0,000.0,300914,0,E*75
$GPGGA,215146,3822.5635,N,12241.9372,W,1,04,0.9,15.8496,M,0.0,M,,*6A
$GPRMC,215206,A,3822.5635,N,12241.9372,W,000.0,000.0,300914,0,E*72
$GPGGA,215206,3822.5635,N,12241.9372,W,1,04,0.9,15.8496,M,0.0,M,,*6D
$GPRMC,215207,A,3822.5635,N,12241.9372,W,000.0,000.0,300914,0,E*73
$GPGGA,215207,3822.5635,N,12241.9372,W,1,04,0.9,15.8496,M,0.0,M,,*6C
$GPRMC,215227,A,3822.5619,N,12241.9374,W,000.0,000.0,300914,0,E*79
$GPGGA,215227,3822.5619,N,12241.9374,W,1,04,0.9,15.8496,M,0.0,M,,*66
$GPRMC,215228,A,3822.5617,N,12241.9373,W,000.0,000.0,300914,0,E*7F
$GPGGA,215228,3822.5617,N,12241.9373,W,1,04,0.9,15.8496,M,0.0,M,,*60
$GPRMC,215248,A,3822.5623,N,12241.9374,W,000.0,000.0,300914,0,E*79
$GPGGA,215248,3822.5623,N,12241.9374,W,1,04,0.9,17.9832,M,0.0,M,,*67
$GPRMC,215249,A,3822.5623,N,12241.9374,W,000.0,000.0,300914,0,E*78
$GPGGA,215249,3822.5623,N,12241.9374,W,1,04,0.9,17.9832,M,0.0,M,,*66
$GPRMC,215308,A,3822.5623,N,12241.9374,W,000.0,000.0,300914,0,E*7C
$GPGGA,215308,3822.5623,N,12241.9374,W,1,04,0.9,17.9832,M,0.0,M,,*62
$GPRMC,215309,A,3822.5623,N,12241.9374,W,000.0,000.0,300914,0,E*7D
$GPGGA,215309,3822.5623,N,12241.9374,W,1,04,0.9,17.9832,M,0.0,M,,*63
$GPRMC,215328,A,3822.5623,N,12241.9374,W,000.0,000.0,300914,0,E*7E
$GPGGA,215328,3822.5623,N,12241.9374,W,1,04,0.9,17.9832,M,0.0,M,,*60
$GPRMC,215329,A,3822.5623,N,12241.9374,W,000.0,000.0,300914,0,E*7F
$GPGGA,215329,3822.5623,N,12241.9374,W,1,04,0.9,17.9832,M,0.0,M,,*61
$GPRMC,215349,A,3822.5623,N,12241.9374,W,000.0,000.0,300914,0,E*79
$GPGGA,215349,3822.5623,N,12241.9374,W,1,04,0.9,18.8976,M,0.0,M,,*68
$GPRMC,215350,A,3822.5623,N,12241.9374,W,000.0,000.0,300914,0,E*71
$GPGGA,215350,3822.5623,N,12241.9374,W,1,04,0.9,18.8976,M,0.0,M,,*60
$GPRMC,215410,A,3822.5623,N,12241.9374,W,000.0,000.0,300914,0,E*72
$GPGGA,215410,3822.5623,N,12241.9374,W,1,04,0.9,18.8976,M,0.0,M,,*63
$GPRMC,215411,A,3822.5623,N,12241.9374,W,000.0,000.0,300914,0,E*73
$GPGGA,215411,3822.5623,N,12241.9374,W,1,04,0.9,18.8976,M,0.0,M,,*62
$GPRMC,215430,A,3822.5623,N,12241.9374,W,000.0,000.0,300914,0,E*70
$GPGGA,215430,3822.5623,N,12241.9374,W,1,04,0.9,18.8976,M,0.0,M,,*61
$GPRMC,215431,A,3822.5623,N,12241.9374,W,000.0,000.0,300914,0,E*71
$GPGGA,215431,3822.5623,N,12241.9374,W,1,04,0.9,18.8976,M,0.0,M,,*60
$GPRMC,215451,A,3822.5623,N,12241.9374,W,000.0,000.0,300914,0,E*77
$GPGGA,215451,3822.5623,N,12241.9374,W,1,04,0.9,18.8976,M,0.0,M,,*66
$GPRMC,215452,A,3822.5623,N,12241.9374,W,000.0,000.0,300914,0,E*74
$GPGGA,215452,3822.5623,N,12241.9374,W,1,04,0.9,18.8976,M,0.0,M,,*65
$GPRMC,215511,A,3822.5623,N,12241.9374,W,000.0,000.0,300914,0,E*72
$GPGGA,215511,3822.5623,N,12241.9374,W,1,04,0.9,18.8976,M,0.0,M,,*63
$GPRMC,215512,A,3822.5623,N,12241.9374,W,000.0,000.0,300914,0,E*71
$GPGGA,215512,3822.5623,N,12241.9374,W,1,04,0.9,18.8976,M,0.0,M,,*60
$GPRMC,215531,A,3822.5623,N,12241.9374,W,000.0,000.0,300914,0,E*70
$GPGGA,215531,3822.5623,N,12241.9374,W,1,04,0.9,18.8976,M,0.0,M,,*61
$GPRMC,215532,A,3822.5623,N,12241.9374,W,000.0,000.0,300914,0,E*73
$GPGGA,215532,3822.5623,N,12241.9374,W,1,04,0.9,18.8976,M,0.0,M,,*62
$GPRMC,215552,A,3822.5623,N,12241.9374,W,000.0,000.0,300914,0,E*75
$GPGGA,215552,3822.5623,N,12241.9374,W,1,04,0.9,18.8976,M,0.0,M,,*64
$GPRMC,215553,A,3822.5623,N,12241.9374,W,000.0,000.0,300914,0,E*74
$GPGGA,215553,3822.5623,N,12241.9374,W,1,04,0.9,18.8976,M,0.0,M,,*65
$GPRMC,215613,A,3822.5623,N,12241.9374,W,000.0,000.0,300914,0,E*73
$GPGGA,215613,3822.5623,N,12241.9374,W,1,04,0.9,18.8976,M,0.0,M,,*62
$GPRMC,215614,A,3822.5623,N,12241.9374,W,000.0,000.0,300914,0,E*74
$GPGGA,215614,3822.5623,N,12241.9374,W,1,04,0.9,18.8976,M,0.0,M,,*65
$GPRMC,215634,A,3822.5623,N,12241.9375,W,000.0,000.0,300914,0,E*77
$GPGGA,215634,3822.5623,N,12241.9375,W,1,04,0.9,18.8976,M,0.0,M,,*66
$GPRMC,215635,A,3822.5623,N,12241.9375,W,000.0,000.0,300914,0,E*76
$GPGGA,215635,3822.5623,N,12241.9375,W,1,04,0.9,18.8976,M,0.0,M,,*67
$GPRMC,215654,A,3822.5623,N,12241.9374,W,000.0,000.0,300914,0,E*70
$GPGGA,215654,3822.5623,N,12241.9374,W,1,04,0.9,18.8976,M,0.0,M,,*61
$GPRMC,215655,A,3822.5623,N,12241.9374,W,000.0,000.0,300914,0,E*71
$GPGGA,215655,3822.5623,N,12241.9374,W,1,04,0.9,18.8976,M,0.0,M,,*60
$GPRMC,215714,A,3822.5623,N,12241.9374,W,000.0,000.0,300914,0,E*75
$GPGGA,215714,3822.5623,N,12241.9374,W,1,04,0.9,18.8976,M,0.0,M,,*64
$GPRMC,215715,A,3822.5623,N,12241.9374,W,000.0,000.0,300914,0,E*74
$GPGGA,215715,3822.5623,N,12241.9374,W,1,04,0.9,18.8976,M,0.0,M,,*65
$GPRMC,215734,A,3822.5623,N,12241.9375,W,000.0,000.0,300914,0,E*76
$GPGGA,215734,3822.5623,N,12241.9375,W,1,04,0.9,18.8976,M,0.0,M,,*67
$GPRMC,215735,A,3822.5623,N,12241.9375,W,000.0,000.0,300914,0,E*77
$GPGGA,215735,3822.5623,N,12241.9375,W,1,04,0.9,18.8976,M,0.0,M,,*66
$GPRMC,215755,A,3822.5623,N,12241.9375,W,000.0,000.0,300914,0,E*71
$GPGGA,215755,3822.5623,N,12241.9375,W,1,04,0.9,18.8976,M,0.0,M,,*60
$GPRMC,215756,A,3822.5623,N,12241.9375,W,000.0,000.0,300914,0,E*72
$GPGGA,215756,3822.5623,N,12241.9375,W,1,04,0.9,18.8976,M,0.0,M,,*63
$GPRMC,215816,A,3822.5623,N,12241.9375,W,000.0,000.0,300914,0,E*79
$GPGGA,215816,3822.5623,N,12241.9375,W,1,04,0.9,18.8976,M,0.0,M,,*68
$GPRMC,215817,A,3822.5623,N,12241.9375,W,000.0,000.0,300914,0,E*78
$GPGGA,215817,3822.5623,N,12241.9375,W,1,04,0.9,18.8976,M,0.0,M,,*69
$GPRMC,215837,A,3822.5623,N,12241.9375,W,000.0,000.0,300914,0,E*7A
$GPGGA,215837,3822.5623,N,12241.9375,W,1,04,0.9,18.8976,M,0.0,M,,*6B
$GPRMC,215838,A,3822.5623,N,12241.9375,W,000.0,000.0,300914,0,E*75
$GPGGA,215838,3822.5623,N,12241.9375,W,1,04,0.9,18.8976,M,0.0,M,,*64
$GPRMC,215858,A,3822.5623,N,12241.9375,W,000.0,000.0,300914,0,E*73
$GPGGA,215858,3822.5623,N,12241.9375,W,1,04,0.9,18.8976,M,0.0,M,,*62
$GPRMC,215859,A,3822.5623,N,12241.9375,W,000.0,000.0,300914,0,E*72
$GPGGA,215859,3822.5623,N,12241.9375,W,1,04,0.9,18.8976,M,0.0,M,,*63
$GPRMC,215919,A,3822.5623,N,12241.9375,W,000.0,000.0,300914,0,E*77
$GPGGA,215919,3822.5623,N,12241.9375,W,1,04,0.9,18.8976,M,0.0,M,,*66
$GPRMC,215920,A,3822.5623,N,12241.9375,W,000.0,000.0,300914,0,E*7D
$GPGGA,215920,3822.5623,N,12241.9375,W,1,04,0.9,18.8976,M,0.0,M,,*6C
$GPRMC,215940,A,3822.5623,N,12241.9375,W,000.0,000.0,300914,0,E*7B
$GPGGA,215940,3822.5623,N,12241.9375,W,1,04,0.9,18.8976,M,0.0,M,,*6A
$GPRMC,215941,A,3822.5623,N,12241.9375,W,000.0,000.0,300914,0,E*7A
$GPGGA,215941,3822.5623,N,12241.9375,W,1,04,0.9,18.8976,M,0.0,M,,*6B
$GPRMC,220001,A,3822.5623,N,12241.9376,W,000.0,000.0,300914,0,E*72
$GPGGA,220001,3822.5623,N,12241.9376,W,1,04,0.9,18.8976,M,0.0,M,,*63
$GPRMC,220002,A,3822.5623,N,12241.9376,W,000.0,000.0,300914,0,E*71
$GPGGA,220002,3822.5623,N,12241.9376,W,1,04,0.9,18.8976,M,0.0,M,,*60
$GPRMC,220021,A,3822.5622,N,12241.9376,W,000.0,000.0,300914,0,E*71
$GPGGA,220021,3822.5622,N,12241.9376,W,1,04,0.9,18.8976,M,0.0,M,,*60
$GPRMC,220022,A,3822.5622,N,12241.9376,W,000.0,000.0,300914,0,E*72
$GPGGA,220022,3822.5622,N,12241.9376,W,1,04,0.9,18.8976,M,0.0,M,,*63
$GPRMC,220042,A,3822.5622,N,12241.9376,W,000.0,000.0,300914,0,E*74
$GPGGA,220042,3822.5622,N,12241.9376,W,1,04,0.9,18.8976,M,0.0,M,,*65
$GPRMC,220043,A,3822.5622,N,12241.9376,W,000.0,000.0,300914,0,E*75
$GPGGA,220043,3822.5622,N,12241.9376,W,1,04,0.9,18.8976,M,0.0,M,,*64
$GPRMC,220103,A,3822.5622,N,12241.9376,W,000.0,000.0,300914,0,E*70
$GPGGA,220103,3822.5622,N,12241.9376,W,1,04,0.9,18.8976,M,0.0,M,,*61
$GPRMC,220104,A,3822.5622,N,12241.9376,W,000.0,000.0,300914,0,E*77
$GPGGA,220104,3822.5622,N,12241.9376,W,1,04,0.9,18.8976,M,0.0,M,,*66
$GPRMC,220123,A,3822.5612,N,12241.9398,W,000.0,000.0,300914,0,E*71
$GPGGA,220123,3822.5612,N,12241.9398,W,1,04,0.9,19.812,M,0.0,M,,*5A
$GPRMC,220124,A,3822.5612,N,12241.9401,W,000.0,000.0,300914,0,E*71
$GPGGA,220124,3822.5612,N,12241.9401,W,1,04,0.9,19.812,M,0.0,M,,*5A
$GPRMC,220143,A,3822.5610,N,12241.9412,W,000.0,000.0,300914,0,E*70
$GPGGA,220143,3822.5610,N,12241.9412,W,1,04,0.9,18.8976,M,0.0,M,,*61
$GPRMC,220144,A,3822.5610,N,12241.9412,W,000.0,000.0,300914,0,E*77
$GPGGA,220144,3822.5610,N,12241.9412,W,1,04,0.9,18.8976,M,0.0,M,,*66
$GPRMC,220203,A,3822.5610,N,12241.9413,W,000.0,000.0,300914,0,E*76
$GPGGA,220203,3822.5610,N,12241.9413,W,1,04,0.9,18.8976,M,0.0,M,,*67
$GPRMC,220204,A,3822.5610,N,12241.9413,W,000.0,000.0,300914,0,E*71
$GPGGA,220204,3822.5610,N,12241.9413,W,1,04,0.9,18.8976,M,0.0,M,,*60
$GPRMC,220223,A,3822.5610,N,12241.9413,W,000.0,000.0,300914,0,E*74
$GPGGA,220223,3822.5610,N,12241.9413,W,1,04,0.9,18.8976,M,0.0,M,,*65
$GPRMC,220224,A,3822.5610,N,12241.9413,W,000.0,000.0,300914,0,E*73
$GPGGA,220224,3822.5610,N,12241.9413,W,1,04,0.9,18.8976,M,0.0,M,,*62
$GPRMC,220244,A,3822.5610,N,12241.9413,W,000.0,000.0,300914,0,E*75
$GPGGA,220244,3822.5610,N,12241.9413,W,1,04,0.9,18.8976,M,0.0,M,,*64
$GPRMC,220245,A,3822.5610,N,12241.9413,W,000.0,000.0,300914,0,E*74
$GPGGA,220245,3822.5610,N,12241.9413,W,1,04,0.9,18.8976,M,0.0,M,,*65
$GPRMC,220304,A,3822.5609,N,12241.9413,W,000.0,000.0,300914,0,E*78
$GPGGA,220304,3822.5609,N,12241.9413,W,1,04,0.9,18.8976,M,0.0,M,,*69
$GPRMC,220305,A,3822.5609,N,12241.9413,W,000.0,000.0,300914,0,E*79
$GPGGA,220305,3822.5609,N,12241.9413,W,1,04,0.9,18.8976,M,0.0,M,,*68
$GPRMC,220324,A,3822.5609,N,12241.9413,W,000.0,000.0,300914,0,E*7A
$GPGGA,220324,3822.5609,N,12241.9413,W,1,04,0.9,18.8976,M,0.0,M,,*6B
$GPRMC,220325,A,3822.5609,N,12241.9413,W,000.0,000.0,300914,0,E*7B
$GPGGA,220325,3822.5609,N,12241.9413,W,1,04,0.9,18.8976,M,0.0,M,,*6A
$GPRMC,220344,A,3822.5609,N,12241.9413,W,000.0,000.0,300914,0,E*7C
$GPGGA,220344,3822.5609,N,12241.9413,W,1,04,0.9,18.8976,M,0.0,M,,*6D
$GPRMC,220345,A,3822.5609,N,12241.9413,W,000.0,000.0,300914,0,E*7D
$GPGGA,220345,3822.5609,N,12241.9413,W,1,04,0.9,18.8976,M,0.0,M,,*6C
$GPRMC,220404,A,3822.5609,N,12241.9413,W,000.0,000.0,300914,0,E*7F
$GPGGA,220404,3822.5609,N,12241.9413,W,1,04,0.9,18.8976,M,0.0,M,,*6E
$GPRMC,220405,A,3822.5609,N,12241.9413,W,000.0,000.0,300914,0,E*7E
$GPGGA,220405,3822.5609,N,12241.9413,W,1,04,0.9,18.8976,M,0.0,M,,*6F
$GPRMC,220425,A,3822.5608,N,12241.9414,W,000.0,000.0,300914,0,E*7A
$GPGGA,220425,3822.5608,N,12241.9414,W,1,04,0.9,18.8976,M,0.0,M,,*6B
$GPRMC,220426,A,3822.5608,N,12241.9414,W,000.0,000.0,300914,0,E*79
$GPGGA,220426,3822.5608,N,12241.9414,W,1,04,0.9,18.8976,M,0.0,M,,*68
$GPRMC,220446,A,3822.5608,N,12241.9414,W,000.0,000.0,300914,0,E*7F
$GPGGA,220446,3822.5608,N,12241.9414,W,1,04,0.9,18.8976,M,0.0,M,,*6E
$GPRMC,220447,A,3822.5608,N,12241.9414,W,000.0,000.0,300914,0,E*7E
$GPGGA,220447,3822.5608,N,12241.9414,W,1,04,0.9,18.8976,M,0.0,M,,*6F
$GPRMC,220507,A,3822.5608,N,12241.9414,W,000.0,000.0,300914,0,E*7B
$GPGGA,220507,3822.5608,N,12241.9414,W,1,04,0.9,18.8976,M,0.0,M,,*6A
$GPRMC,220508,A,3822.5608,N,12241.9414,W,000.0,000.0,300914,0,E*74
$GPGGA,220508,3822.5608,N,12241.9414,W,1,04,0.9,18.8976,M,0.0,M,,*65
$GPRMC,220528,A,3822.5608,N,12241.9414,W,000.0,000.0,300914,0,E*76
$GPGGA,220528,3822.5608,N,12241.9414,W,1,04,0.9,18.8976,M,0.0,M,,*67
$GPRMC,220529,A,3822.5608,N,12241.9414,W,000.0,000.0,300914,0,E*77
$GPGGA,220529,3822.5608,N,12241.9414,W,1,04,0.9,18.8976,M,0.0,M,,*66
$GPRMC,220549,A,3822.5608,N,12241.9414,W,000.0,000.0,300914,0,E*71
$GPGGA,220549,3822.5608,N,12241.9414,W,1,04,0.9,18.8976,M,0.0,M,,*60
$GPRMC,220550,A,3822.5608,N,12241.9414,W,000.0,000.0,300914,0,E*79
$GPGGA,220550,3822.5608,N,12241.9414,W,1,04,0.9,18.8976,M,0.0,M,,*68
$GPRMC,220609,A,3822.5608,N,12241.9414,W,000.0,000.0,300914,0,E*76
$GPGGA,220609,3822.5608,N,12241.9414,W,1,04,0.9,18.8976,M,0.0,M,,*67
$GPRMC,220610,A,3822.5608,N,12241.9414,W,000.0,000.0,300914,0,E*7E
$GPGGA,220610,3822.5608,N,12241.9414,W,1,04,0.9,18.8976,M,0.0,M,,*6F
$GPRMC,220629,A,3822.5608,N,12241.9414,W,000.0,000.0,300914,0,E*74
$GPGGA,220629,3822.5608,N,12241.9414,W,1,04,0.9,18.8976,M,0.0,M,,*65
$GPRMC,220630,A,3822.5608,N,12241.9414,W,000.0,000.0,300914,0,E*7C
$GPGGA,220630,3822.5608,N,12241.9414,W,1,04,0.9,18.8976,M,0.0,M,,*6D
$GPRMC,220650,A,3822.5608,N,12241.9414,W,000.0,000.0,300914,0,E*7A
$GPGGA,220650,3822.5608,N,12241.9414,W,1,04,0.9,18.8976,M,0.0,M,,*6B
$GPRMC,220651,A,3822.5608,N,12241.9414,W,000.0,000.0,300914,0,E*7B
$GPGGA,220651,3822.5608,N,12241.9414,W,1,04,0.9,18.8976,M,0.0,M,,*6A
$GPRMC,220711,A,3822.5608,N,12241.9414,W,000.0,000.0,300914,0,E*7E
$GPGGA,220711,3822.5608,N,12241.9414,W,1,04,0.9,18.8976,M,0.0,M,,*6F
$GPRMC,220712,A,3822.5608,N,12241.9414,W,000.0,000.0,300914,0,E*7D
$GPGGA,220712,3822.5608,N,12241.9414,W,1,04,0.9,18.8976,M,0.0,M,,*6C
$GPRMC,220731,A,3822.5608,N,12241.9414,W,000.0,000.0,300914,0,E*7C
$GPGGA,220731,3822.5608,N,12241.9414,W,1,04,0.9,18.8976,M,0.0,M,,*6D
$GPRMC,220732,A,3822.5608,N,12241.9414,W,000.0,000.0,300914,0,E*7F
$GPGGA,220732,3822.5608,N,12241.9414,W,1,04,0.9,18.8976,M,0.0,M,,*6E
$GPRMC,220752,A,3822.5608,N,12241.9414,W,000.0,000.0,300914,0,E*79
$GPGGA,220752,3822.5608,N,12241.9414,W,1,04,0.9,18.8976,M,0.0,M,,*68
$GPRMC,220753,A,3822.5608,N,12241.9414,W,000.0,000.0,300914,0,E*78
$GPGGA,220753,3822.5608,N,12241.9414,W,1,04,0.9,18.8976,M,0.0,M,,*69
$GPRMC,220813,A,3822.5608,N,12241.9414,W,000.0,000.0,300914,0,E*73
$GPGGA,220813,3822.5608,N,12241.9414,W,1,04,0.9,18.8976,M,0.0,M,,*62
$GPRMC,220814,A,3822.5608,N,12241.9414,W,000.0,000.0,300914,0,E*74
$GPGGA,220814,3822.5608,N,12241.9414,W,1,04,0.9,18.8976,M,0.0,M,,*65
$GPRMC,220834,A,3822.5608,N,12241.9414,W,000.0,000.0,300914,0,E*76
$GPGGA,220834,3822.5608,N,12241.9414,W,1,04,0.9,18.8976,M,0.0,M,,*67
$GPRMC,220835,A,3822.5608,N,12241.9414,W,000.0,000.0,300914,0,E*77
$GPGGA,220835,3822.5608,N,12241.9414,W,1,04,0.9,18.8976,M,0.0,M,,*66
$GPRMC,220854,A,3822.5607,N,12241.9414,W,000.0,000.0,300914,0,E*7F
$GPGGA,220854,3822.5607,N,12241.9414,W,1,04,0.9,18.8976,M,0.0,M,,*6E
$GPRMC,220855,A,3822.5607,N,12241.9414,W,000.0,000.0,300914,0,E*7E
$GPGGA,220855,3822.5607,N,12241.9414,W,1,04,0.9,18.8976,M,0.0,M,,*6F
$GPRMC,220914,A,3822.5607,N,12241.9415,W,000.0,000.0,300914,0,E*7B
$GPGGA,220914,3822.5607,N,12241.9415,W,1,04,0.9,18.8976,M,0.0,M,,*6A
$GPRMC,220915,A,3822.5607,N,12241.9415,W,000.0,000.0,300914,0,E*7A
$GPGGA,220915,3822.5607,N,12241.9415,W,1,04,0.9,18.8976,M,0.0,M,,*6B
$GPRMC,220934,A,3822.5607,N,12241.9415,W,000.0,000.0,300914,0,E*79
$GPGGA,220934,3822.5607,N,12241.9415,W,1,04,0.9,18.8976,M,0.0,M,,*68
$GPRMC,220935,A,3822.5607,N,12241.9415,W,000.0,000.0,300914,0,E*78
$GPGGA,220935,3822.5607,N,12241.9415,W,1,04,0.9,18.8976,M,0.0,M,,*69
$GPRMC,220955,A,3822.5607,N,12241.9415,W,000.0,000.0,300914,0,E*7E
$GPGGA,220955,3822.5607,N,12241.9415,W,1,04,0.9,18.8976,M,0.0,M,,*6F
$GPRMC,220956,A,3822.5607,N,12241.9415,W,000.0,000.0,300914,0,E*7D
$GPGGA,220956,3822.5607,N,12241.9415,W,1,04,0.9,18.8976,M,0.0,M,,*6C
$GPRMC,221016,A,3822.5607,N,12241.9415,W,000.0,000.0,300914,0,E*71
$GPGGA,221016,3822.5607,N,12241.9415,W,1,04,0.9,18.8976,M,0.0,M,,*60
$GPRMC,221017,A,3822.5607,N,12241.9415,W,000.0,000.0,300914,0,E*70
$GPGGA,221017,3822.5607,N,12241.9415,W,1,04,0.9,18.8976,M,0.0,M,,*61
$GPRMC,221036,A,3822.5607,N,12241.9415,W,000.0,000.0,300914,0,E*73
$GPGGA,221036,3822.5607,N,12241.9415,W,1,04,0.9,18.8976,M,0.0,M,,*62
$GPRMC,221037,A,3822.5607,N,12241.9415,W,000.0,000.0,300914,0,E*72
$GPGGA,221037,3822.5607,N,12241.9415,W,1,04,0.9,18.8976,M,0.0,M,,*63
$GPRMC,221056,A,3822.5607,N,12241.9415,W,000.0,000.0,300914,0,E*75
$GPGGA,221056,3822.5607,N,12241.9415,W,1,04,0.9,18.8976,M,0.0,M,,*64
$GPRMC,221057,A,3822.5607,N,12241.9415,W,000.0,000.0,300914,0,E*74
$GPGGA,221057,3822.5607,N,12241.9415,W,1,04,0.9,18.8976,M,0.0,M,,*65
$GPRMC,221117,A,3822.5607,N,12241.9415,W,000.0,000.0,300914,0,E*71
$GPGGA,221117,3822.5607,N,12241.9415,W,1,04,0.9,18.8976,M,0.0,M,,*60
$GPRMC,221118,A,3822.5607,N,12241.9415,W,000.0,000.0,300914,0,E*7E
$GPGGA,221118,3822.5607,N,12241.9415,W,1,04,0.9,18.8976,M,0.0,M,,*6F
$GPRMC,221138,A,3822.5607,N,12241.9415,W,000.0,000.0,300914,0,E*7C
$GPGGA,221138,3822.5607,N,12241.9415,W,1,04,0.9,18.8976,M,0.0,M,,*6D
$GPRMC,221139,A,3822.5607,N,12241.9415,W,000.0,000.0,300914,0,E*7D
$GPGGA,221139,3822.5607,N,12241.9415,W,1,04,0.9,18.8976,M,0.0,M,,*6C
$GPRMC,221159,A,3822.5607,N,12241.9415,W,000.0,000.0,300914,0,E*7B
$GPGGA,221159,3822.5607,N,12241.9415,W,1,04,0.9,18.8976,M,0.0,M,,*6A
$GPRMC,221200,A,3822.5607,N,12241.9415,W,000.0,000.0,300914,0,E*74
$GPGGA,221200,3822.5607,N,12241.9415,W,1,04,0.9,18.8976,M,0.0,M,,*65
$GPRMC,221220,A,3822.5607,N,12241.9415,W,000.0,000.0,300914,0,E*76
$GPGGA,221220,3822.5607,N,12241.9415,W,1,04,0.9,18.8976,M,0.0,M,,*67
$GPRMC,221221,A,3822.5607,N,12241.9415,W,000.0,000.0,300914,0,E*77
$GPGGA,221221,3822.5607,N,12241.9415,W,1,04,0.9,18.8976,M,0.0,M,,*66
$GPRMC,221241,A,3822.5607,N,12241.9415,W,000.0,000.0,300914,0,E*71
$GPGGA,221241,3822.5607,N,12241.9415,W,1,04,0.9,18.8976,M,0.0,M,,*60
$GPRMC,221242,A,3822.5607,N,12241.9415,W,000.0,000.0,300914,0,E*72
$GPGGA,221242,3822.5607,N,12241.9415,W,1,04,0.9,18.8976,M,0.0,M,,*63
$GPRMC,221301,A,3822.5607,N,12241.9415,W,000.0,000.0,300914,0,E*74
$GPGGA,221301,3822.5607,N,12241.9415,W,1,04,0.9,18.8976,M,0.0,M,,*65
$GPRMC,221302,A,3822.5607,N,12241.9415,W,000.0,000.0,300914,0,E*77
$GPGGA,221302,3822.5607,N,12241.9415,W,1,04,0.9,18.8976,M,0.0,M,,*66
$GPRMC,221321,A,3822.5606,N,12241.9415,W,000.0,000.0,300914,0,E*77
$GPGGA,221321,3822.5606,N,12241.9415,W,1,04,0.9,18.8976,M,0.0,M,,*66
$GPRMC,221322,A,3822.5606,N,12241.9415,W,000.0,000.0,300914,0,E*74
$GPGGA,221322,3822.5606,N,12241.9415,W,1,04,0.9,18.8976,M,0.0,M,,*65
$GPRMC,221342,A,3822.5606,N,12241.9415,W,000.0,000.0,300914,0,E*72
$GPGGA,221342,3822.5606,N,12241.9415,W,1,04,0.9,18.8976,M,0.0,M,,*63
$GPRMC,221343,A,3822.5606,N,12241.9415,W,000.0,000.0,300914,0,E*73
$GPGGA,221343,3822.5606,N,12241.9415,W,1,04,0.9,18.8976,M,0.0,M,,*62
$GPRMC,221403,A,3822.5606,N,12241.9416,W,000.0,000.0,300914,0,E*73
$GPGGA,221403,3822.5606,N,12241.9416,W,1,04,0.9,18.8976,M,0.0,M,,*62
$GPRMC,221404,A,3822.5606,N,12241.9416,W,000.0,000.0,300914,0,E*74
$GPGGA,221404,3822.5606,N,12241.9416,W,1,04,0.9,18.8976,M,0.0,M,,*65
$GPRMC,221423,A,3822.5606,N,12241.9416,W,000.0,000.0,300914,0,E*71
$GPGGA,221423,3822.5606,N,12241.9416,W,1,04,0.9,18.8976,M,0.0,M,,*60
$GPRMC,221424,A,3822.5606,N,12241.9416,W,000.0,000.0,300914,0,E*76
$GPGGA,221424,3822.5606,N,12241.9416,W,1,04,0.9,18.8976,M,0.0,M,,*67
$GPRMC,221444,A,3822.5606,N,12241.9416,W,000.0,000.0,300914,0,E*70
$GPGGA,221444,3822.5606,N,12241.9416,W,1,04,0.9,18.8976,M,0.0,M,,*61
$GPRMC,221445,A,3822.5606,N,12241.9416,W,000.0,000.0,300914,0,E*71
$GPGGA,221445,3822.5606,N,12241.9416,W,1,04,0.9,18.8976,M,0.0,M,,*60
$GPRMC,221505,A,3822.5605,N,12241.9416,W,000.0,000.0,300914,0,E*77
$GPGGA,221505,3822.5605,N,12241.9416,W,1,04,0.9,18.8976,M,0.0,M,,*66
$GPRMC,221506,A,3822.5605,N,12241.9416,W,000.0,000.0,300914,0,E*74
$GPGGA,221506,3822.5605,N,12241.9416,W,1,04,0.9,18.8976,M,0.0,M,,*65
$GPRMC,221526,A,3822.5605,N,12241.9415,W,000.0,000.0,300914,0,E*75
$GPGGA,221526,3822.5605,N,12241.9415,W,1,04,0.9,19.812,M,0.0,M,,*5E
$GPRMC,221527,A,3822.5605,N,12241.9415,W,000.0,000.0,300914,0,E*74
$GPGGA,221527,3822.5605,N,12241.9415,W,1,04,0.9,19.812,M,0.0,M,,*5F
$GPRMC,221546,A,3822.5605,N,12241.9416,W,000.0,000.0,300914,0,E*70
$GPGGA,221546,3822.5605,N,12241.9416,W,1,04,0.9,19.812,M,0.0,M,,*5B
$GPRMC,221547,A,3822.5605,N,12241.9416,W,000.0,000.0,300914,0,E*71
$GPGGA,221547,3822.5605,N,12241.9416,W,1,04,0.9,19.812,M,0.0,M,,*5A
$GPRMC,221607,A,3822.5605,N,12241.9416,W,000.0,000.0,300914,0,E*76
$GPGGA,221607,3822.5605,N,12241.9416,W,1,04,0.9,19.812,M,0.0,M,,*5D
$GPRMC,221608,A,3822.5605,N,12241.9416,W,000.0,000.0,300914,0,E*79
$GPGGA,221608,3822.5605,N,12241.9416,W,1,04,0.9,19.812,M,0.0,M,,*52
$GPRMC,221627,A,3822.5605,N,12241.9416,W,000.0,000.0,300914,0,E*74
$GPGGA,221627,3822.5605,N,12241.9416,W,1,04,0.9,19.812,M,0.0,M,,*5F
$GPRMC,221628,A,3822.5605,N,12241.9416,W,000.0,000.0,300914,0,E*7B
$GPGGA,221628,3822.5605,N,12241.9416,W,1,04,0.9,19.812,M,0.0,M,,*50
$GPRMC,221647,A,3822.5605,N,12241.9416,W,000.0,000.0,300914,0,E*72
$GPGGA,221647,3822.5605,N,12241.9416,W,1,04,0.9,19.812,M,0.0,M,,*59
$GPRMC,221648,A,3822.5605,N,12241.9416,W,000.0,000.0,300914,0,E*7D
$GPGGA,221648,3822.5605,N,12241.9416,W,1,04,0.9,19.812,M,0.0,M,,*56
$GPRMC,221708,A,3822.5605,N,12241.9416,W,000.0,000.0,300914,0,E*78
$GPGGA,221708,3822.5605,N,12241.9416,W,1,04,0.9,19.812,M,0.0,M,,*53
$GPRMC,221709,A,3822.5605,N,12241.9416,W,000.0,000.0,300914,0,E*79
$GPGGA,221709,3822.5605,N,12241.9416,W,1,04,0.9,19.812,M,0.0,M,,*52
$GPRMC,221729,A,3822.5605,N,12241.9416,W,000.0,000.0,300914,0,E*7B
$GPGGA,221729,3822.5605,N,12241.9416,W,1,04,0.9,19.812,M,0.0,M,,*50
$GPRMC,221730,A,3822.5605,N,12241.9416,W,000.0,000.0,300914,0,E*73
$GPGGA,221730,3822.5605,N,12241.9416,W,1,04,0.9,19.812,M,0.0,M,,*58
$GPRMC,221750,A,3822.5605,N,12241.9416,W,000.0,000.0,300914,0,E*75
$GPGGA,221750,3822.5605,N,12241.9416,W,1,04,0.9,19.812,M,0.0,M,,*5E
$GPRMC,221751,A,3822.5605,N,12241.9416,W,000.0,000.0,300914,0,E*74
$GPGGA,221751,3822.5605,N,12241.9416,W,1,04,0.9,19.812,M,0.0,M,,*5F
$GPRMC,221810,A,3822.5605,N,12241.9416,W,000.0,000.0,300914,0,E*7E
$GPGGA,221810,3822.5605,N,12241.9416,W,1,04,0.9,19.812,M,0.0,M,,*55
$GPRMC,221811,A,3822.5605,N,12241.9416,W,000.0,000.0,300914,0,E*7F
$GPGGA,221811,3822.5605,N,12241.9416,W,1,04,0.9,19.812,M,0.0,M,,*54
$GPRMC,221831,A,3822.5605,N,12241.9416,W,000.0,000.0,300914,0,E*7D
$GPGGA,221831,3822.5605,N,12241.9416,W,1,04,0.9,19.812,M,0.0,M,,*56
$GPRMC,221832,A,3822.5605,N,12241.9416,W,000.0,000.0,300914,0,E*7E
$GPGGA,221832,3822.5605,N,12241.9416,W,1,04,0.9,19.812,M,0.0,M,,*55
$GPRMC,221851,A,3822.5605,N,12241.9416,W,000.0,000.0,300914,0,E*7B
$GPGGA,221851,3822.5605,N,12241.9416,W,1,04,0.9,19.812,M,0.0,M,,*50
$GPRMC,221852,A,3822.5605,N,12241.9416,W,000.0,000.0,300914,0,E*78
$GPGGA,221852,3822.5605,N,12241.9416,W,1,04,0.9,19.812,M,0.0,M,,*53
$GPRMC,221912,A,3822.5605,N,12241.9417,W,000.0,000.0,300914,0,E*7C
$GPGGA,221912,3822.5605,N,12241.9417,W,1,04,0.9,19.812,M,0.0,M,,*57
$GPRMC,221913,A,3822.5605,N,12241.9417,W,000.0,000.0,300914,0,E*7D
$GPGGA,221913,3822.5605,N,12241.9417,W,1,04,0.9,19.812,M,0.0,M,,*56
$GPRMC,221932,A,3822.5605,N,12241.9417,W,000.0,000.0,300914,0,E*7E
$GPGGA,221932,3822.5605,N,12241.9417,W,1,04,0.9,19.812,M,0.0,M,,*55
$GPRMC,221933,A,3822.5605,N,12241.9417,W,000.0,000.0,300914,0,E*7F
$GPGGA,221933,3822.5605,N,12241.9417,W,1,04,0.9,19.812,M,0.0,M,,*54
$GPRMC,221952,A,3822.5604,N,12241.9417,W,000.0,000.0,300914,0,E*79
$GPGGA,221952,3822.5604,N,12241.9417,W,1,04,0.9,19.812,M,0.0,M,,*52
$GPRMC,221953,A,3822.5604,N,12241.9417,W,000.0,000.0,300914,0,E*78
$GPGGA,221953,3822.5604,N,12241.9417,W,1,04,0.9,19.812,M,0.0,M,,*53
$GPRMC,222013,A,3822.5604,N,12241.9417,W,000.0,000.0,300914,0,E*76
$GPGGA,222013,3822.5604,N,12241.9417,W,1,04,0.9,19.812,M,0.0,M,,*5D
$GPRMC,222014,A,3822.5604,N,12241.9417,W,000.0,000.0,300914,0,E*71
$GPGGA,222014,3822.5604,N,12241.9417,W,1,04,0.9,19.812,M,0.0,M,,*5A
$GPRMC,222034,A,3822.5604,N,12241.9417,W,000.0,000.0,300914,0,E*73
$GPGGA,222034,3822.5604,N,12241.9417,W,1,04,0.9,19.812,M,0.0,M,,*58
$GPRMC,222035,A,3822.5604,N,12241.9417,W,000.0,000.0,300914,0,E*72
$GPGGA,222035,3822.5604,N,12241.9417,W,1,04,0.9,19.812,M,0.0,M,,*59
$GPRMC,222055,A,3822.5604,N,12241.9417,W,000.0,000.0,300914,0,E*74
$GPGGA,222055,3822.5604,N,12241.9417,W,1,04,0.9,19.812,M,0.0,M,,*5F
$GPRMC,222056,A,3822.5604,N,12241.9417,W,000.0,000.0,300914,0,E*77
$GPGGA,222056,3822.5604,N,12241.9417,W,1,04,0.9,19.812,M,0.0,M,,*5C
$GPRMC,222115,A,3822.5604,N,12241.9417,W,000.0,000.0,300914,0,E*71
$GPGGA,222115,3822.5604,N,12241.9417,W,1,04,0.9,19.812,M,0.0,M,,*5A
$GPRMC,222116,A,3822.5604,N,12241.9417,W,000.0,000.0,300914,0,E*72
$GPGGA,222116,3822.5604,N,12241.9417,W,1,04,0.9,19.812,M,0.0,M,,*59
$GPRMC,222135,A,3822.5604,N,12241.9417,W,000.0,000.0,300914,0,E*73
$GPGGA,222135,3822.5604,N,12241.9417,W,1,04,0.9,19.812,M,0.0,M,,*58
$GPRMC,222136,A,3822.5604,N,12241.9417,W,000.0,000.0,300914,0,E*70
$GPGGA,222136,3822.5604,N,12241.9417,W,1,04,0.9,19.812,M,0.0,M,,*5B
$GPRMC,222156,A,3822.5603,N,12241.9417,W,000.0,000.0,300914,0,E*71
$GPGGA,222156,3822.5603,N,12241.9417,W,1,04,0.9,19.812,M,0.0,M,,*5A
$GPRMC,222157,A,3822.5604,N,12241.9417,W,000.0,000.0,300914,0,E*77
$GPGGA,222157,3822.5604,N,12241.9417,W,1,04,0.9,19.812,M,0.0,M,,*5C
$GPRMC,222217,A,3822.5603,N,12241.9417,W,000.0,000.0,300914,0,E*77
$GPGGA,222217,3822.5603,N,12241.9417,W,1,04,0.9,19.812,M,0.0,M,,*5C
$GPRMC,222218,A,3822.5603,N,12241.9417,W,000.0,000.0,300914,0,E*78
$GPGGA,222218,3822.5603,N,12241.9417,W,1,04,0.9,19.812,M,0.0,M,,*53
$GPRMC,222238,A,3822.5603,N,12241.9417,W,000.0,000.0,300914,0,E*7A
$GPGGA,222238,3822.5603,N,12241.9417,W,1,04,0.9,19.812,M,0.0,M,,*51
$GPRMC,222239,A,3822.5603,N,12241.9417,W,000.0,000.0,300914,0,E*7B
$GPGGA,222239,3822.5603,N,12241.9417,W,1,04,0.9,19.812,M,0.0,M,,*50
$GPRMC,222259,A,3822.5603,N,12241.9417,W,000.0,000.0,300914,0,E*7D
$GPGGA,222259,3822.5603,N,12241.9417,W,1,04,0.9,19.812,M,0.0,M,,*56
$GPRMC,222300,A,3822.5603,N,12241.9417,W,000.0,000.0,300914,0,E*70
$GPGGA,222300,3822.5603,N,12241.9417,W,1,04,0.9,19.812,M,0.0,M,,*5B
$GPRMC,222320,A,3822.5603,N,12241.9418,W,000.0,000.0,300914,0,E*7D
$GPGGA,222320,3822.5603,N,12241.9418,W,1,04,0.9,19.812,M,0.0,M,,*56
$GPRMC,222321,A,3822.5603,N,12241.9418,W,000.0,000.0,300914,0,E*7C
$GPGGA,222321,3822.5603,N,12241.9418,W,1,04,0.9,19.812,M,0.0,M,,*57
$GPRMC,222341,A,3822.5603,N,12241.9418,W,000.0,000.0,300914,0,E*7A
$GPGGA,222341,3822.5603,N,12241.9418,W,1,04,0.9,19.812,M,0.0,M,,*51
$GPRMC,222342,A,3822.5603,N,12241.9418,W,000.0,000.0,300914,0,E*79
$GPGGA,222342,3822.5603,N,12241.9418,W,1,04,0.9,19.812,M,0.0,M,,*52
$GPRMC,222402,A,3822.5602,N,12241.9418,W,000.0,000.0,300914,0,E*7B
$GPGGA,222402,3822.5602,N,12241.9418,W,1,04,0.9,19.812,M,0.0,M,,*50
$GPRMC,222403,A,3822.5602,N,12241.9418,W,000.0,000.0,300914,0,E*7A
$GPGGA,222403,3822.5602,N,12241.9418,W,1,04,0.9,19.812,M,0.0,M,,*51
$GPRMC,222423,A,3822.5602,N,12241.9418,W,000.0,000.0,300914,0,E*78
$GPGGA,222423,3822.5602,N,12241.9418,W,1,04,0.9,19.812,M,0.0,M,,*53
$GPRMC,222424,A,3822.5602,N,12241.9418,W,000.0,000.0,300914,0,E*7F
$GPGGA,222424,3822.5602,N,12241.9418,W,1,04,0.9,19.812,M,0.0,M,,*54
$GPRMC,222444,A,3822.5602,N,12241.9418,W,000.0,000.0,300914,0,E*79
$GPGGA,222444,3822.5602,N,12241.9418,W,1,04,0.9,19.812,M,0.0,M,,*52
$GPRMC,222445,A,3822.5602,N,12241.9418,W,000.0,000.0,300914,0,E*78
$GPGGA,222445,3822.5602,N,12241.9418,W,1,04,0.9,19.812,M,0.0,M,,*53
$GPRMC,222505,A,3822.5602,N,12241.9418,W,000.0,000.0,300914,0,E*7D
$GPGGA,222505,3822.5602,N,12241.9418,W,1,04,0.9,19.812,M,0.0,M,,*56
$GPRMC,222506,A,3822.5602,N,12241.9418,W,000.0,000.0,300914,0,E*7E
$GPGGA,222506,3822.5602,N,12241.9418,W,1,04,0.9,19.812,M,0.0,M,,*55
$GPRMC,222525,A,3822.5602,N,12241.9418,W,000.0,000.0,300914,0,E*7F
$GPGGA,222525,3822.5602,N,12241.9418,W,1,04,0.9,19.812,M,0.0,M,,*54
$GPRMC,222526,A,3822.5602,N,12241.9418,W,000.0,000.0,300914,0,E*7C
$GPGGA,222526,3822.5602,N,12241.9418,W,1,04,0.9,19.812,M,0.0,M,,*57
$GPRMC,222546,A,3822.5602,N,12241.9418,W,000.0,000.0,300914,0,E*7A
$GPGGA,222546,3822.5602,N,12241.9418,W,1,04,0.9,19.812,M,0.0,M,,*51
$GPRMC,222547,A,3822.5602,N,12241.9418,W,000.0,000.0,300914,0,E*7B
$GPGGA,222547,3822.5602,N,12241.9418,W,1,04,0.9,19.812,M,0.0,M,,*50
$GPRMC,222607,A,3822.5602,N,12241.9418,W,000.0,000.0,300914,0,E*7C
$GPGGA,222607,3822.5602,N,12241.9418,W,1,04,0.9,19.812,M,0.0,M,,*57
$GPRMC,222608,A,3822.5602,N,12241.9418,W,000.0,000.0,300914,0,E*73
$GPGGA,222608,3822.5602,N,12241.9418,W,1,04,0.9,19.812,M,0.0,M,,*58
$GPRMC,222627,A,3822.5602,N,12241.9418,W,000.0,000.0,300914,0,E*7E
$GPGGA,222627,3822.5602,N,12241.9418,W,1,04,0.9,19.812,M,0.0,M,,*55
$GPRMC,222628,A,3822.5602,N,12241.9418,W,000.0,000.0,300914,0,E*71
$GPGGA,222628,3822.5602,N,12241.9418,W,1,04,0.9,19.812,M,0.0,M,,*5A
$GPRMC,222647,A,3822.5602,N,12241.9418,W,000.0,000.0,300914,0,E*78
$GPGGA,222647,3822.5602,N,12241.9418,W,1,04,0.9,19.812,M,0.0,M,,*53
$GPRMC,222648,A,3822.5602,N,12241.9418,W,000.0,000.0,300914,0,E*77
$GPGGA,222648,3822.5602,N,12241.9418,W,1,04,0.9,19.812,M,0.0,M,,*5C
$GPRMC,222708,A,3822.5602,N,12241.9418,W,000.0,000.0,300914,0,E*72
$GPGGA,222708,3822.5602,N,12241.9418,W,1,04,0.9,19.812,M,0.0,M,,*59
$GPRMC,222709,A,3822.5602,N,12241.9418,W,000.0,000.0,300914,0,E*73
$GPGGA,222709,3822.5602,N,12241.9418,W,1,04,0.9,19.812,M,0.0,M,,*58
$GPRMC,222728,A,3822.5602,N,12241.9419,W,000.0,000.0,300914,0,E*71
$GPGGA,222728,3822.5602,N,12241.9419,W,1,04,0.9,19.812,M,0.0,M,,*5A
$GPRMC,222729,A,3822.5602,N,12241.9419,W,000.0,000.0,300914,0,E*70
$GPGGA,222729,3822.5602,N,12241.9419,W,1,04,0.9,19.812,M,0.0,M,,*5B
$GPRMC,222749,A,3822.5602,N,12241.9419,W,000.0,000.0,300914,0,E*76
$GPGGA,222749,3822.5602,N,12241.9419,W,1,04,0.9,19.812,M,0.0,M,,*5D
$GPRMC,222750,A,3822.5602,N,12241.9419,W,000.0,000.0,300914,0,E*7E
$GPGGA,222750,3822.5602,N,12241.9419,W,1,04,0.9,19.812,M,0.0,M,,*55
$GPRMC,222810,A,3822.5602,N,12241.9419,W,000.0,000.0,300914,0,E*75
$GPGGA,222810,3822.5602,N,12241.9419,W,1,04,0.9,19.812,M,0.0,M,,*5E
$GPRMC,222811,A,3822.5602,N,12241.9419,W,000.0,000.0,300914,0,E*74
$GPGGA,222811,3822.5602,N,12241.9419,W,1,04,0.9,19.812,M,0.0,M,,*5F
$GPRMC,222831,A,3822.5601,N,12241.9419,W,000.0,000.0,300914,0,E*75
$GPGGA,222831,3822.5601,N,12241.9419,W,1,04,0.9,19.812,M,0.0,M,,*5E
$GPRMC,222832,A,3822.5601,N,12241.9419,W,000.0,000.0,300914,0,E*76
$GPGGA,222832,3822.5601,N,12241.9419,W,1,04,0.9,19.812,M,0.0,M,,*5D
$GPRMC,222852,A,3822.5601,N,12241.9419,W,000.0,000.0,300914,0,E*70
$GPGGA,222852,3822.5601,N,12241.9419,W,1,04,0.9,19.812,M,0.0,M,,*5B
$GPRMC,222853,A,3822.5601,N,12241.9419,W,000.0,000.0,300914,0,E*71
$GPGGA,222853,3822.5601,N,12241.9419,W,1,04,0.9,19.812,M,0.0,M,,*5A
$GPRMC,222912,A,3822.5601,N,12241.9419,W,000.0,000.0,300914,0,E*75
$GPGGA,222912,3822.5601,N,12241.9419,W,1,04,0.9,19.812,M,0.0,M,,*5E
$GPRMC,222913,A,3822.5601,N,12241.9419,W,000.0,000.0,300914,0,E*74
$GPGGA,222913,3822.5601,N,12241.9419,W,1,04,0.9,19.812,M,0.0,M,,*5F
$GPRMC,222933,A,3822.5601,N,12241.9419,W,000.0,000.0,300914,0,E*76
$GPGGA,222933,3822.5601,N,12241.9419,W,1,04,0.9,19.812,M,0.0,M,,*5D
$GPRMC,222934,A,3822.5601,N,12241.9419,W,000.0,000.0,300914,0,E*71
$GPGGA,222934,3822.5601,N,12241.9419,W,1,04,0.9,19.812,M,0.0,M,,*5A
$GPRMC,222953,A,3822.5601,N,12241.9419,W,000.0,000.0,300914,0,E*70
$GPGGA,222953,3822.5601,N,12241.9419,W,1,04,0.9,19.812,M,0.0,M,,*5B
$GPRMC,222954,A,3822.5601,N,12241.9419,W,000.0,000.0,300914,0,E*77
$GPGGA,222954,3822.5601,N,12241.9419,W,1,04,0.9,19.812,M,0.0,M,,*5C
$GPRMC,223013,A,3822.5601,N,12241.9419,W,000.0,000.0,300914,0,E*7C
$GPGGA,223013,3822.5601,N,12241.9419,W,1,04,0.9,19.812,M,0.0,M,,*57
$GPRMC,223014,A,3822.5601,N,12241.9419,W,000.0,000.0,300914,0,E*7B
$GPGGA,223014,3822.5601,N,12241.9419,W,1,04,0.9,19.812,M,0.0,M,,*50
$GPRMC,223034,A,3822.5601,N,12241.9419,W,000.0,000.0,300914,0,E*79
$GPGGA,223034,3822.5601,N,12241.9419,W,1,04,0.9,19.812,M,0.0,M,,*52
$GPRMC,223035,A,3822.5601,N,12241.9419,W,000.0,000.0,300914,0,E*78
$GPGGA,223035,3822.5601,N,12241.9419,W,1,04,0.9,19.812,M,0.0,M,,*53
$GPRMC,223055,A,3822.5601,N,12241.9419,W,000.0,000.0,300914,0,E*7E
$GPGGA,223055,3822.5601,N,12241.9419,W,1,04,0.9,19.812,M,0.0,M,,*55
$GPRMC,223056,A,3822.5601,N,12241.9419,W,000.0,000.0,300914,0,E*7D
$GPGGA,223056,3822.5601,N,12241.9419,W,1,04,0.9,19.812,M,0.0,M,,*56
$GPRMC,223116,A,3822.5600,N,12241.9419,W,000.0,000.0,300914,0,E*79
$GPGGA,223116,3822.5600,N,12241.9419,W,1,04,0.9,19.812,M,0.0,M,,*52
$GPRMC,223117,A,3822.5600,N,12241.9419,W,000.0,000.0,300914,0,E*78
$GPGGA,223117,3822.5600,N,12241.9419,W,1,04,0.9,19.812,M,0.0,M,,*53
$GPRMC,223136,A,3822.5600,N,12241.9419,W,000.0,000.0,300914,0,E*7B
$GPGGA,223136,3822.5600,N,12241.9419,W,1,04,0.9,19.812,M,0.0,M,,*50
$GPRMC,223137,A,3822.5600,N,12241.9419,W,000.0,000.0,300914,0,E*7A
$GPGGA,223137,3822.5600,N,12241.9419,W,1,04,0.9,19.812,M,0.0,M,,*51
$GPRMC,223157,A,3822.5600,N,12241.9419,W,000.0,000.0,300914,0,E*7C
$GPGGA,223157,3822.5600,N,12241.9419,W,1,04,0.9,19.812,M,0.0,M,,*57
$GPRMC,223158,A,3822.5600,N,12241.9419,W,000.0,000.0,300914,0,E*73
$GPGGA,223158,3822.5600,N,12241.9419,W,1,04,0.9,19.812,M,0.0,M,,*58
$GPRMC,223217,A,3822.5600,N,12241.9419,W,000.0,000.0,300914,0,E*7B
$GPGGA,223217,3822.5600,N,12241.9419,W,1,04,0.9,19.812,M,0.0,M,,*50
$GPRMC,223218,A,3822.5600,N,12241.9419,W,000.0,000.0,300914,0,E*74
$GPGGA,223218,3822.5600,N,12241.9419,W,1,04,0.9,19.812,M,0.0,M,,*5F
$GPRMC,223238,A,3822.5600,N,12241.9420,W,000.0,000.0,300914,0,E*7C
$GPGGA,223238,3822.5600,N,12241.9420,W,1,04,0.9,19.812,M,0.0,M,,*57
$GPRMC,223239,A,3822.5600,N,12241.9420,W,000.0,000.0,300914,0,E*7D
$GPGGA,223239,3822.5600,N,12241.9420,W,1,04,0.9,19.812,M,0.0,M,,*56
$GPRMC,223258,A,3822.5600,N,12241.9420,W,000.0,000.0,300914,0,E*7A
$GPGGA,223258,3822.5600,N,12241.9420,W,1,04,0.9,19.812,M,0.0,M,,*51
$GPRMC,223259,A,3822.5600,N,12241.9420,W,000.0,000.0,300914,0,E*7B
$GPGGA,223259,3822.5600,N,12241.9420,W,1,04,0.9,19.812,M,0.0,M,,*50
$GPRMC,223319,A,3822.5600,N,12241.9420,W,000.0,000.0,300914,0,E*7E
$GPGGA,223319,3822.5600,N,12241.9420,W,1,04,0.9,19.812,M,0.0,M,,*55
$GPRMC,223320,A,3822.5600,N,12241.9420,W,000.0,000.0,300914,0,E*74
$GPGGA,223320,3822.5600,N,12241.9420,W,1,04,0.9,19.812,M,0.0,M,,*5F
$GPRMC,223339,A,3822.5600,N,12241.9420,W,000.0,000.0,300914,0,E*7C
$GPGGA,223339,3822.5600,N,12241.9420,W,1,04,0.9,19.812,M,0.0,M,,*57
$GPRMC,223340,A,3822.5600,N,12241.9420,W,000.0,000.0,300914,0,E*72
$GPGGA,223340,3822.5600,N,12241.9420,W,1,04,0.9,19.812,M,0.0,M,,*59
$GPRMC,223359,A,3822.5599,N,12241.9420,W,000.0,000.0,300914,0,E*79
$GPGGA,223359,3822.5599,N,12241.9420,W,1,04,0.9,19.812,M,0.0,M,,*52
$GPRMC,223400,A,3822.5599,N,12241.9420,W,000.0,000.0,300914,0,E*72
$GPGGA,223400,3822.5599,N,12241.9420,W,1,04,0.9,19.812,M,0.0,M,,*59
$GPRMC,223419,A,3822.5599,N,12241.9420,W,000.0,000.0,300914,0,E*7A
$GPGGA,223419,3822.5599,N,12241.9420,W,1,04,0.9,19.812,M,0.0,M,,*51
$GPRMC,223420,A,3822.5599,N,12241.9420,W,000.0,000.0,300914,0,E*70
$GPGGA,223420,3822.5599,N,12241.9420,W,1,04,0.9,19.812,M,0.0,M,,*5B
$GPRMC,223440,A,3822.5599,N,12241.9420,W,000.0,000.0,300914,0,E*76
$GPGGA,223440,3822.5599,N,12241.9420,W,1,04,0.9,19.812,M,0.0,M,,*5D
$GPRMC,223441,A,3822.5599,N,12241.9420,W,000.0,000.0,300914,0,E*77
$GPGGA,223441,3822.5599,N,12241.9420,W,1,04,0.9,19.812,M,0.0,M,,*5C
$GPRMC,223501,A,3822.5599,N,12241.9420,W,000.0,000.0,300914,0,E*72
$GPGGA,223501,3822.5599,N,12241.9420,W,1,04,0.9,19.812,M,0.0,M,,*59
$GPRMC,223502,A,3822.5599,N,12241.9420,W,000.0,000.0,300914,0,E*71
$GPGGA,223502,3822.5599,N,12241.9420,W,1,04,0.9,19.812,M,0.0,M,,*5A
$GPRMC,223522,A,3822.5599,N,12241.9420,W,000.0,000.0,300914,0,E*73
$GPGGA,223522,3822.5599,N,12241.9420,W,1,04,0.9,19.812,M,0.0,M,,*58
$GPRMC,223523,A,3822.5599,N,12241.9420,W,000.0,000.0,300914,0,E*72
$GPGGA,223523,3822.5599,N,12241.9420,W,1,04,0.9,19.812,M,0.0,M,,*59
$GPRMC,223543,A,3822.5599,N,12241.9420,W,000.0,000.0,300914,0,E*74
$GPGGA,223543,3822.5599,N,12241.9420,W,1,04,0.9,19.812,M,0.0,M,,*5F
$GPRMC,223544,A,3822.5599,N,12241.9420,W,000.0,000.0,300914,0,E*73
$GPGGA,223544,3822.5599,N,12241.9420,W,1,04,0.9,19.812,M,0.0,M,,*58
$GPRMC,223604,A,3822.5599,N,12241.9420,W,000.0,000.0,300914,0,E*74
$GPGGA,223604,3822.5599,N,12241.9420,W,1,04,0.9,19.812,M,0.0,M,,*5F
$GPRMC,223605,A,3822.5599,N,12241.9420,W,000.0,000.0,300914,0,E*75
$GPGGA,223605,3822.5599,N,12241.9420,W,1,04,0.9,19.812,M,0.0,M,,*5E
$GPRMC,223625,A,3822.5599,N,12241.9420,W,000.0,000.0,300914,0,E*77
$GPGGA,223625,3822.5599,N,12241.9420,W,1,04,0.9,19.812,M,0.0,M,,*5C
$GPRMC,223626,A,3822.5599,N,12241.9420,W,000.0,000.0,300914,0,E*74
$GPGGA,223626,3822.5599,N,12241.9420,W,1,04,0.9,19.812,M,0.0,M,,*5F
$GPRMC,223646,A,3822.5599,N,12241.9420,W,000.0,000.0,300914,0,E*72
$GPGGA,223646,3822.5599,N,12241.9420,W,1,04,0.9,19.812,M,0.0,M,,*59
$GPRMC,223647,A,3822.5599,N,12241.9420,W,000.0,000.0,300914,0,E*73
$GPGGA,223647,3822.5599,N,12241.9420,W,1,04,0.9,19.812,M,0.0,M,,*58
$GPRMC,223707,A,3822.5599,N,12241.9420,W,000.0,000.0,300914,0,E*76
$GPGGA,223707,3822.5599,N,12241.9420,W,1,04,0.9,19.812,M,0.0,M,,*5D
$GPRMC,223708,A,3822.5599,N,12241.9420,W,000.0,000.0,300914,0,E*79
$GPGGA,223708,3822.5599,N,12241.9420,W,1,04,0.9,19.812,M,0.0,M,,*52
$GPRMC,223728,A,3822.5599,N,12241.9420,W,000.0,000.0,300914,0,E*7B
$GPGGA,223728,3822.5599,N,12241.9420,W,1,04,0.9,19.812,M,0.0,M,,*50
$GPRMC,223729,A,3822.5599,N,12241.9420,W,000.0,000.0,300914,0,E*7A
$GPGGA,223729,3822.5599,N,12241.9420,W,1,04,0.9,19.812,M,0.0,M,,*51
$GPRMC,223749,A,3822.5599,N,12241.9420,W,000.0,000.0,300914,0,E*7C
$GPGGA,223749,3822.5599,N,12241.9420,W,1,04,0.9,19.812,M,0.0,M,,*57
$GPRMC,223750,A,3822.5599,N,12241.9420,W,000.0,000.0,300914,0,E*74
$GPGGA,223750,3822.5599,N,12241.9420,W,1,04,0.9,19.812,M,0.0,M,,*5F
$GPRMC,223809,A,3822.5599,N,12241.9420,W,000.0,000.0,300914,0,E*77
$GPGGA,223809,3822.5599,N,12241.9420,W,1,04,0.9,19.812,M,0.0,M,,*5C
$GPRMC,223810,A,3822.5599,N,12241.9420,W,000.0,000.0,300914,0,E*7F
$GPGGA,223810,3822.5599,N,12241.9420,W,1,04,0.9,19.812,M,0.0,M,,*54
$GPRMC,223829,A,3822.5598,N,12241.9420,W,000.0,000.0,300914,0,E*74
$GPGGA,223829,3822.5598,N,12241.9420,W,1,04,0.9,19.812,M,0.0,M,,*5F
$GPRMC,223830,A,3822.5598,N,12241.9420,W,000.0,000.0,300914,0,E*7C
$GPGGA,223830,3822.5598,N,12241.9420,W,1,04,0.9,19.812,M,0.0,M,,*57
$GPRMC,223849,A,3822.5598,N,12241.9420,W,000.0,000.0,300914,0,E*72
$GPGGA,223849,3822.5598,N,12241.9420,W,1,04,0.9,19.812,M,0.0,M,,*59
$GPRMC,223850,A,3822.5598,N,12241.9420,W,000.0,000.0,300914,0,E*7A
$GPGGA,223850,3822.5598,N,12241.9420,W,1,04,0.9,19.812,M,0.0,M,,*51
$GPRMC,223910,A,3822.5599,N,12241.9420,W,000.0,000.0,300914,0,E*7E
$GPGGA,223910,3822.5599,N,12241.9420,W,1,04,0.9,19.812,M,0.0,M,,*55
$GPRMC,223911,A,3822.5599,N,12241.9420,W,000.0,000.0,300914,0,E*7F
$GPGGA,223911,3822.5599,N,12241.9420,W,1,04,0.9,19.812,M,0.0,M,,*54
$GPRMC,223931,A,3822.5599,N,12241.9420,W,000.0,000.0,300914,0,E*7D
$GPGGA,223931,3822.5599,N,12241.9420,W,1,04,0.9,19.812,M,0.0,M,,*56
$GPRMC,223932,A,3822.5599,N,12241.9420,W,000.0,000.0,300914,0,E*7E
$GPGGA,223932,3822.5599,N,12241.9420,W,1,04,0.9,19.812,M,0.0,M,,*55
$GPRMC,223952,A,3822.5599,N,12241.9420,W,000.0,000.0,300914,0,E*78
$GPGGA,223952,3822.5599,N,12241.9420,W,1,04,0.9,20.7264,M,0.0,M,,*65
$GPRMC,223953,A,3822.5599,N,12241.9420,W,000.0,000.0,300914,0,E*79
$GPGGA,223953,3822.5599,N,12241.9420,W,1,04,0.9,20.7264,M,0.0,M,,*64
$GPRMC,224012,A,3822.5599,N,12241.9420,W,000.0,000.0,300914,0,E*72
$GPGGA,224012,3822.5599,N,12241.9420,W,1,04,0.9,20.7264,M,0.0,M,,*6F
$GPRMC,224013,A,3822.5599,N,12241.9420,W,000.0,000.0,300914,0,E*73
$GPGGA,224013,3822.5599,N,12241.9420,W,1,04,0.9,20.7264,M,0.0,M,,*6E
$GPRMC,224033,A,3822.5599,N,12241.9420,W,000.0,000.0,300914,0,E*71
$GPGGA,224033,3822.5599,N,12241.9420,W,1,04,0.9,20.7264,M,0.0,M,,*6C
$GPRMC,224034,A,3822.5599,N,12241.9420,W,000.0,000.0,300914,0,E*76
$GPGGA,224034,3822.5599,N,12241.9420,W,1,04,0.9,20.7264,M,0.0,M,,*6B
$GPRMC,224053,A,3822.5598,N,12241.9420,W,000.0,000.0,300914,0,E*76
$GPGGA,224053,3822.5598,N,12241.9420,W,1,04,0.9,20.7264,M,0.0,M,,*6B
$GPRMC,224054,A,3822.5598,N,12241.9420,W,000.0,000.0,300914,0,E*71
$GPGGA,224054,3822.5598,N,12241.9420,W,1,04,0.9,20.7264,M,0.0,M,,*6C
$GPRMC,224113,A,3822.5598,N,12241.9420,W,000.0,000.0,300914,0,E*73
$GPGGA,224113,3822.5598,N,12241.9420,W,1,04,0.9,20.7264,M,0.0,M,,*6E
$GPRMC,224114,A,3822.5598,N,12241.9420,W,000.0,000.0,300914,0,E*74
$GPGGA,224114,3822.5598,N,12241.9420,W,1,04,0.9,20.7264,M,0.0,M,,*69
$GPRMC,224134,A,3822.5598,N,12241.9420,W,000.0,000.0,300914,0,E*76
$GPGGA,224134,3822.5598,N,12241.9420,W,1,04,0.9,20.7264,M,0.0,M,,*6B
$GPRMC,224135,A,3822.5598,N,12241.9420,W,000.0,000.0,300914,0,E*77
$GPGGA,224135,3822.5598,N,12241.9420,W,1,04,0.9,20.7264,M,0.0,M,,*6A
$GPRMC,224155,A,3822.5598,N,12241.9420,W,000.0,000.0,300914,0,E*71
$GPGGA,224155,3822.5598,N,12241.9420,W,1,04,0.9,20.7264,M,0.0,M,,*6C
$GPRMC,224156,A,3822.5598,N,12241.9420,W,000.0,000.0,300914,0,E*72
$GPGGA,224156,3822.5598,N,12241.9420,W,1,04,0.9,20.7264,M,0.0,M,,*6F
$GPRMC,224216,A,3822.5598,N,12241.9420,W,000.0,000.0,300914,0,E*75
$GPGGA,224216,3822.5598,N,12241.9420,W,1,04,0.9,20.7264,M,0.0,M,,*68
$GPRMC,224217,A,3822.5598,N,12241.9420,W,000.0,000.0,300914,0,E*74
$GPGGA,224217,3822.5598,N,12241.9420,W,1,04,0.9,20.7264,M,0.0,M,,*69
$GPRMC,224237,A,3822.5598,N,12241.9420,W,000.0,000.0,300914,0,E*76
$GPGGA,224237,3822.5598,N,12241.9420,W,1,04,0.9,20.7264,M,0.0,M,,*6B
$GPRMC,224238,A,3822.5598,N,12241.9420,W,000.0,000.0,300914,0,E*79
$GPGGA,224238,3822.5598,N,12241.9420,W,1,04,0.9,20.7264,M,0.0,M,,*64
$GPRMC,224258,A,3822.5598,N,12241.9420,W,000.0,000.0,300914,0,E*7F
$GPGGA,224258,3822.5598,N,12241.9420,W,1,04,0.9,20.7264,M,0.0,M,,*62
$GPRMC,224259,A,3822.5598,N,12241.9420,W,000.0,000.0,300914,0,E*7E
$GPGGA,224259,3822.5598,N,12241.9420,W,1,04,0.9,20.7264,M,0.0,M,,*63
$GPRMC,224319,A,3822.5598,N,12241.9420,W,000.0,000.0,300914,0,E*7B
$GPGGA,224319,3822.5598,N,12241.9420,W,1,04,0.9,20.7264,M,0.0,M,,*66
$GPRMC,224320,A,3822.5598,N,12241.9420,W,000.0,000.0,300914,0,E*71
$GPGGA,224320,3822.5598,N,12241.9420,W,1,04,0.9,20.7264,M,0.0,M,,*6C
$GPRMC,224340,A,3822.5599,N,12241.9420,W,000.0,000.0,300914,0,E*76
$GPGGA,224340,3822.5599,N,12241.9420,W,1,04,0.9,20.7264,M,0.0,M,,*6B
$GPRMC,224341,A,3822.5599,N,12241.9420,W,000.0,000.0,300914,0,E*77
$GPGGA,224341,3822.5599,N,12241.9420,W,1,04,0.9,20.7264,M,0.0,M,,*6A
$GPRMC,224401,A,3822.5599,N,12241.9420,W,000.0,000.0,300914,0,E*74
$GPGGA,224401,3822.5599,N,12241.9420,W,1,04,0.9,20.7264,M,0.0,M,,*69
$GPRMC,224402,A,3822.5599,N,12241.9420,W,000.0,000.0,300914,0,E*77
$GPGGA,224402,3822.5599,N,12241.9420,W,1,04,0.9,20.7264,M,0.0,M,,*6A
$GPRMC,224422,A,3822.5599,N,12241.9420,W,000.0,000.0,300914,0,E*75
$GPGGA,224422,3822.5599,N,12241.9420,W,1,04,0.9,20.7264,M,0.0,M,,*68
$GPRMC,224423,A,3822.5599,N,12241.9420,W,000.0,000.0,300914,0,E*74
$GPGGA,224423,3822.5599,N,12241.9420,W,1,04,0.9,20.7264,M,0.0,M,,*69
$GPRMC,224443,A,3822.5599,N,12241.9420,W,000.0,000.0,300914,0,E*72
$GPGGA,224443,3822.5599,N,12241.9420,W,1,04,0.9,20.7264,M,0.0,M,,*6F
$GPRMC,224444,A,3822.5599,N,12241.9420,W,000.0,000.0,300914,0,E*75
$GPGGA,224444,3822.5599,N,12241.9420,W,1,04,0.9,20.7264,M,0.0,M,,*68
$GPRMC,224503,A,3822.5599,N,12241.9420,W,000.0,000.0,300914,0,E*77
$GPGGA,224503,3822.5599,N,12241.9420,W,1,04,0.9,20.7264,M,0.0,M,,*6A
$GPRMC,224504,A,3822.5599,N,12241.9420,W,000.0,000.0,300914,0,E*70
$GPGGA,224504,3822.5599,N,12241.9420,W,1,04,0.9,20.7264,M,0.0,M,,*6D
$GPRMC,224523,A,3822.5599,N,12241.9420,W,000.0,000.0,300914,0,E*75
$GPGGA,224523,3822.5599,N,12241.9420,W,1,04,0.9,20.7264,M,0.0,M,,*68
$GPRMC,224524,A,3822.5599,N,12241.9420,W,000.0,000.0,300914,0,E*72
$GPGGA,224524,3822.5599,N,12241.9420,W,1,04,0.9,20.7264,M,0.0,M,,*6F
$GPRMC,224543,A,3822.5599,N,12241.9420,W,000.0,000.0,300914,0,E*73
$GPGGA,224543,3822.5599,N,12241.9420,W,1,04,0.9,20.7264,M,0.0,M,,*6E
$GPRMC,224544,A,3822.5599,N,12241.9420,W,000.0,000.0,300914,0,E*74
$GPGGA,224544,3822.5599,N,12241.9420,W,1,04,0.9,20.7264,M,0.0,M,,*69
$GPRMC,224604,A,3822.5600,N,12241.9420,W,000.0,000.0,300914,0,E*70
$GPGGA,224604,3822.5600,N,12241.9420,W,1,04,0.9,20.7264,M,0.0,M,,*6D
$GPRMC,224605,A,3822.5600,N,12241.9420,W,000.0,000.0,300914,0,E*71
$GPGGA,224605,3822.5600,N,12241.9420,W,1,04,0.9,20.7264,M,0.0,M,,*6C
$GPRMC,224625,A,3822.5600,N,12241.9420,W,000.0,000.0,300914,0,E*73
$GPGGA,224625,3822.5600,N,12241.9420,W,1,04,0.9,20.7264,M,0.0,M,,*6E
$GPRMC,224626,A,3822.5600,N,12241.9420,W,000.0,000.0,300914,0,E*70
$GPGGA,224626,3822.5600,N,12241.9420,W,1,04,0.9,20.7264,M,0.0,M,,*6D
$GPRMC,224646,A,3822.5600,N,12241.9420,W,000.0,000.0,300914,0,E*76
$GPGGA,224646,3822.5600,N,12241.9420,W,1,04,0.9,20.7264,M,0.0,M,,*6B
$GPRMC,224647,A,3822.5600,N,12241.9421,W,000.0,000.0,300914,0,E*76
$GPGGA,224647,3822.5600,N,12241.9421,W,1,04,0.9,20.7264,M,0.0,M,,*6B
$GPRMC,224707,A,3822.5600,N,12241.9421,W,000.0,000.0,300914,0,E*73
$GPGGA,224707,3822.5600,N,12241.9421,W,1,04,0.9,20.7264,M,0.0,M,,*6E
$GPRMC,224708,A,3822.5600,N,12241.9421,W,000.0,000.0,300914,0,E*7C
$GPGGA,224708,3822.5600,N,12241.9421,W,1,04,0.9,20.7264,M,0.0,M,,*61
$GPRMC,224728,A,3822.5600,N,12241.9421,W,000.0,000.0,300914,0,E*7E
$GPGGA,224728,3822.5600,N,12241.9421,W,1,04,0.9,20.7264,M,0.0,M,,*63
$GPRMC,224729,A,3822.5600,N,12241.9421,W,000.0,000.0,300914,0,E*7F
$GPGGA,224729,3822.5600,N,12241.9421,W,1,04,0.9,20.7264,M,0.0,M,,*62
$GPRMC,224748,A,3822.5600,N,12241.9421,W,000.0,000.0,300914,0,E*78
$GPGGA,224748,3822.5600,N,12241.9421,W,1,04,0.9,20.7264,M,0.0,M,,*65
$GPRMC,224749,A,3822.5600,N,12241.9421,W,000.0,000.0,300914,0,E*79
$GPGGA,224749,3822.5600,N,12241.9421,W,1,04,0.9,20.7264,M,0.0,M,,*64
$GPRMC,224809,A,3822.5600,N,12241.9421,W,000.0,000.0,300914,0,E*72
$GPGGA,224809,3822.5600,N,12241.9421,W,1,04,0.9,20.7264,M,0.0,M,,*6F
$GPRMC,224810,A,3822.5600,N,12241.9421,W,000.0,000.0,300914,0,E*7A
$GPGGA,224810,3822.5600,N,12241.9421,W,1,04,0.9,20.7264,M,0.0,M,,*67
$GPRMC,224829,A,3822.5600,N,12241.9421,W,000.0,000.0,300914,0,E*70
$GPGGA,224829,3822.5600,N,12241.9421,W,1,04,0.9,20.7264,M,0.0,M,,*6D
$GPRMC,224830,A,3822.5600,N,12241.9421,W,000.0,000.0,300914,0,E*78
$GPGGA,224830,3822.5600,N,12241.9421,W,1,04,0.9,20.7264,M,0.0,M,,*65
$GPRMC,224849,A,3822.5600,N,12241.9421,W,000.0,000.0,300914,0,E*76
$GPGGA,224849,3822.5600,N,12241.9421,W,1,04,0.9,20.7264,M,0.0,M,,*6B
$GPRMC,224850,A,3822.5600,N,12241.9421,W,000.0,000.0,300914,0,E*7E
$GPGGA,224850,3822.5600,N,12241.9421,W,1,04,0.9,20.7264,M,0.0,M,,*63
$GPRMC,224910,A,3822.5600,N,12241.9421,W,000.0,000.0,300914,0,E*7B
$GPGGA,224910,3822.5600,N,12241.9421,W,1,04,0.9,20.7264,M,0.0,M,,*66
$GPRMC,224911,A,3822.5600,N,12241.9421,W,000.0,000.0,300914,0,E*7A
$GPGGA,224911,3822.5600,N,12241.9421,W,1,04,0.9,20.7264,M,0.0,M,,*67
$GPRMC,224931,A,3822.5600,N,12241.9421,W,000.0,000.0,300914,0,E*78
$GPGGA,224931,3822.5600,N,12241.9421,W,1,04,0.9,20.7264,M,0.0,M,,*65
$GPRMC,224932,A,3822.5600,N,12241.9421,W,000.0,000.0,300914,0,E*7B
$GPGGA,224932,3822.5600,N,12241.9421,W,1,04,0.9,20.7264,M,0.0,M,,*66
$GPRMC,224952,A,3822.5600,N,12241.9421,W,000.0,000.0,300914,0,E*7D
$GPGGA,224952,3822.5600,N,12241.9421,W,1,04,0.9,20.7264,M,0.0,M,,*60
$GPRMC,224953,A,3822.5600,N,12241.9421,W,000.0,000.0,300914,0,E*7C
$GPGGA,224953,3822.5600,N,12241.9421,W,1,04,0.9,20.7264,M,0.0,M,,*61
$GPRMC,225012,A,3822.5600,N,12241.9421,W,000.0,000.0,300914,0,E*71
$GPGGA,225012,3822.5600,N,12241.9421,W,1,04,0.9,20.7264,M,0.0,M,,*6C
$GPRMC,225013,A,3822.5600,N,12241.9421,W,000.0,000.0,300914,0,E*70
$GPGGA,225013,3822.5600,N,12241.9421,W,1,04,0.9,20.7264,M,0.0,M,,*6D
$GPRMC,225033,A,3822.5600,N,12241.9421,W,000.0,000.0,300914,0,E*72
$GPGGA,225033,3822.5600,N,12241.9421,W,1,04,0.9,20.7264,M,0.0,M,,*6F
$GPRMC,225034,A,3822.5600,N,12241.9421,W,000.0,000.0,300914,0,E*75
$GPGGA,225034,3822.5600,N,12241.9421,W,1,04,0.9,20.7264,M,0.0,M,,*68
$GPRMC,225054,A,3822.5600,N,12241.9421,W,000.0,000.0,300914,0,E*73
$GPGGA,225054,3822.5600,N,12241.9421,W,1,04,0.9,20.7264,M,0.0,M,,*6E
$GPRMC,225055,A,3822.5600,N,12241.9421,W,000.0,000.0,300914,0,E*72
$GPGGA,225055,3822.5600,N,12241.9421,W,1,04,0.9,20.7264,M,0.0,M,,*6F
$GPRMC,225114,A,3822.5600,N,12241.9421,W,000.0,000.0,300914,0,E*76
$GPGGA,225114,3822.5600,N,12241.9421,W,1,04,0.9,20.7264,M,0.0,M,,*6B
$GPRMC,225115,A,3822.5600,N,12241.9421,W,000.0,000.0,300914,0,E*77
$GPGGA,225115,3822.5600,N,12241.9421,W,1,04,0.9,20.7264,M,0.0,M,,*6A
$GPRMC,225135,A,3822.5600,N,12241.9421,W,000.0,000.0,300914,0,E*75
$GPGGA,225135,3822.5600,N,12241.9421,W,1,04,0.9,20.7264,M,0.0,M,,*68
$GPRMC,225136,A,3822.5600,N,12241.9421,W,000.0,000.0,300914,0,E*76
$GPGGA,225136,3822.5600,N,12241.9421,W,1,04,0.9,20.7264,M,0.0,M,,*6B
$GPRMC,225156,A,3822.5600,N,12241.9421,W,000.0,000.0,300914,0,E*70
$GPGGA,225156,3822.5600,N,12241.9421,W,1,04,0.9,20.7264,M,0.0,M,,*6D
$GPRMC,225157,A,3822.5600,N,12241.9421,W,000.0,000.0,300914,0,E*71
$GPGGA,225157,3822.5600,N,12241.9421,W,1,04,0.9,20.7264,M,0.0,M,,*6C
$GPRMC,225217,A,3822.5600,N,12241.9421,W,000.0,000.0,300914,0,E*76
$GPGGA,225217,3822.5600,N,12241.9421,W,1,04,0.9,20.7264,M,0.0,M,,*6B
$GPRMC,225218,A,3822.5600,N,12241.9421,W,000.0,000.0,300914,0,E*79
$GPGGA,225218,3822.5600,N,12241.9421,W,1,04,0.9,20.7264,M,0.0,M,,*64
$GPRMC,225237,A,3822.5600,N,12241.9421,W,000.0,000.0,300914,0,E*74
$GPGGA,225237,3822.5600,N,12241.9421,W,1,04,0.9,20.7264,M,0.0,M,,*69
$GPRMC,225238,A,3822.5600,N,12241.9421,W,000.0,000.0,300914,0,E*7B
$GPGGA,225238,3822.5600,N,12241.9421,W,1,04,0.9,20.7264,M,0.0,M,,*66
$GPRMC,225258,A,3822.5600,N,12241.9421,W,000.0,000.0,300914,0,E*7D
$GPGGA,225258,3822.5600,N,12241.9421,W,1,04,0.9,20.7264,M,0.0,M,,*60
$GPRMC,225259,A,3822.5600,N,12241.9421,W,000.0,000.0,300914,0,E*7C
$GPGGA,225259,3822.5600,N,12241.9421,W,1,04,0.9,20.7264,M,0.0,M,,*61
$GPRMC,225318,A,3822.5600,N,12241.9421,W,000.0,000.0,300914,0,E*78
$GPGGA,225318,3822.5600,N,12241.9421,W,1,04,0.9,20.7264,M,0.0,M,,*65
$GPRMC,225319,A,3822.5600,N,12241.9421,W,000.0,000.0,300914,0,E*79
$GPGGA,225319,3822.5600,N,12241.9421,W,1,04,0.9,20.7264,M,0.0,M,,*64
$GPRMC,225339,A,3822.5600,N,12241.9421,W,000.0,000.0,300914,0,E*7B
$GPGGA,225339,3822.5600,N,12241.9421,W,1,04,0.9,20.7264,M,0.0,M,,*66
$GPRMC,225340,A,3822.5600,N,12241.9421,W,000.0,000.0,300914,0,E*75
$GPGGA,225340,3822.5600,N,12241.9421,W,1,04,0.9,20.7264,M,0.0,M,,*68
$GPRMC,225400,A,3822.5600,N,12241.9421,W,000.0,000.0,300914,0,E*76
$GPGGA,225400,3822.5600,N,12241.9421,W,1,04,0.9,20.7264,M,0.0,M,,*6B
$GPRMC,225401,A,3822.5600,N,12241.9421,W,000.0,000.0,300914,0,E*77
$GPGGA,225401,3822.5600,N,12241.9421,W,1,04,0.9,20.7264,M,0.0,M,,*6A
$GPRMC,225420,A,3822.5600,N,12241.9421,W,000.0,000.0,300914,0,E*74
$GPGGA,225420,3822.5600,N,12241.9421,W,1,04,0.9,20.7264,M,0.0,M,,*69
$GPRMC,225421,A,3822.5600,N,12241.9421,W,000.0,000.0,300914,0,E*75
$GPGGA,225421,3822.5600,N,12241.9421,W,1,04,0.9,20.7264,M,0.0,M,,*68
$GPRMC,225441,A,3822.5600,N,12241.9421,W,000.0,000.0,300914,0,E*73
$GPGGA,225441,3822.5600,N,12241.9421,W,1,04,0.9,20.7264,M,0.0,M,,*6E
$GPRMC,225442,A,3822.5600,N,12241.9421,W,000.0,000.0,300914,0,E*70
$GPGGA,225442,3822.5600,N,12241.9421,W,1,04,0.9,20.7264,M,0.0,M,,*6D
$GPRMC,225502,A,3822.5600,N,12241.9421,W,000.0,000.0,300914,0,E*75
$GPGGA,225502,3822.5600,N,12241.9421,W,1,04,0.9,20.7264,M,0.0,M,,*68
$GPRMC,225503,A,3822.5600,N,12241.9421,W,000.0,000.0,300914,0,E*74
$GPGGA,225503,3822.5600,N,12241.9421,W,1,04,0.9,20.7264,M,0.0,M,,*69
$GPRMC,225522,A,3822.5600,N,12241.9421,W,000.0,000.0,300914,0,E*77
$GPGGA,225522,3822.5600,N,12241.9421,W,1,04,0.9,20.7264,M,0.0,M,,*6A
$GPRMC,225523,A,3822.5600,N,12241.9421,W,000.0,000.0,300914,0,E*76
$GPGGA,225523,3822.5600,N,12241.9421,W,1,04,0.9,20.7264,M,0.0,M,,*6B
$GPRMC,225543,A,3822.5600,N,12241.9421,W,000.0,000.0,300914,0,E*70
$GPGGA,225543,3822.5600,N,12241.9421,W,1,04,0.9,20.7264,M,0.0,M,,*6D
$GPRMC,225544,A,3822.5600,N,12241.9421,W,000.0,000.0,300914,0,E*77
$GPGGA,225544,3822.5600,N,12241.9421,W,1,04,0.9,20.7264,M,0.0,M,,*6A
$GPRMC,225603,A,3822.5600,N,12241.9421,W,000.0,000.0,300914,0,E*77
$GPGGA,225603,3822.5600,N,12241.9421,W,1,04,0.9,20.7264,M,0.0,M,,*6A
$GPRMC,225604,A,3822.5600,N,12241.9421,W,000.0,000.0,300914,0,E*70
$GPGGA,225604,3822.5600,N,12241.9421,W,1,04,0.9,20.7264,M,0.0,M,,*6D
$GPRMC,225624,A,3822.5600,N,12241.9421,W,000.0,000.0,300914,0,E*72
$GPGGA,225624,3822.5600,N,12241.9421,W,1,04,0.9,20.7264,M,0.0,M,,*6F
$GPRMC,225625,A,3822.5600,N,12241.9421,W,000.0,000.0,300914,0,E*73
$GPGGA,225625,3822.5600,N,12241.9421,W,1,04,0.9,20.7264,M,0.0,M,,*6E
$GPRMC,225645,A,3822.5600,N,12241.9421,W,000.0,000.0,300914,0,E*75
$GPGGA,225645,3822.5600,N,12241.9421,W,1,04,0.9,20.7264,M,0.0,M,,*68
$GPRMC,225646,A,3822.5600,N,12241.9421,W,000.0,000.0,300914,0,E*76
$GPGGA,225646,3822.5600,N,12241.9421,W,1,04,0.9,20.7264,M,0.0,M,,*6B
$GPRMC,225706,A,3822.5600,N,12241.9421,W,000.0,000.0,300914,0,E*73
$GPGGA,225706,3822.5600,N,12241.9421,W,1,04,0.9,21.9456,M,0.0,M,,*66
$GPRMC,225707,A,3822.5600,N,12241.9421,W,000.0,000.0,300914,0,E*72
$GPGGA,225707,3822.5600,N,12241.9421,W,1,04,0.9,21.9456,M,0.0,M,,*67
$GPRMC,225727,A,3822.5600,N,12241.9421,W,000.0,000.0,300914,0,E*70
$GPGGA,225727,3822.5600,N,12241.9421,W,1,04,0.9,21.9456,M,0.0,M,,*65
$GPRMC,225728,A,3822.5600,N,12241.9421,W,000.0,000.0,300914,0,E*7F
$GPGGA,225728,3822.5600,N,12241.9421,W,1,04,0.9,21.9456,M,0.0,M,,*6A
$GPRMC,225748,A,3822.5600,N,12241.9421,W,000.0,000.0,300914,0,E*79
$GPGGA,225748,3822.5600,N,12241.9421,W,1,04,0.9,21.9456,M,0.0,M,,*6C
$GPRMC,225749,A,3822.5600,N,12241.9421,W,000.0,000.0,300914,0,E*78
$GPGGA,225749,3822.5600,N,12241.9421,W,1,04,0.9,21.9456,M,0.0,M,,*6D
$GPRMC,225808,A,3822.5600,N,12241.9421,W,000.0,000.0,300914,0,E*72
$GPGGA,225808,3822.5600,N,12241.9421,W,1,04,0.9,21.9456,M,0.0,M,,*67
$GPRMC,225809,A,3822.5600,N,12241.9421,W,000.0,000.0,300914,0,E*73
$GPGGA,225809,3822.5600,N,12241.9421,W,1,04,0.9,21.9456,M,0.0,M,,*66
$GPRMC,225829,A,3822.5601,N,12241.9422,W,000.0,000.0,300914,0,E*73
$GPGGA,225829,3822.5601,N,12241.9422,W,1,04,0.9,21.9456,M,0.0,M,,*66
$GPRMC,225830,A,3822.5601,N,12241.9422,W,000.0,000.0,300914,0,E*7B
$GPGGA,225830,3822.5601,N,12241.9422,W,1,04,0.9,21.9456,M,0.0,M,,*6E
$GPRMC,225850,A,3822.5601,N,12241.9422,W,000.0,000.0,300914,0,E*7D
$GPGGA,225850,3822.5601,N,12241.9422,W,1,04,0.9,21.9456,M,0.0,M,,*68
