$GPRMC,212013,A,3822.5621,N,12241.9373,W,000.0,000.0,030515,0,E*7A
$GPGGA,212013,3822.5621,N,12241.9373,W,1,04,0.9,24.9936,M,0.0,M,,*6C
$GPRMC,212032,A,3822.5626,N,12241.9372,W,000.0,000.0,030515,0,E*7F
$GPGGA,212032,3822.5626,N,12241.9372,W,1,04,0.9,25.908,M,0.0,M,,*5C
$GPRMC,212033,A,3822.5626,N,12241.9372,W,000.0,000.0,030515,0,E*7E
$GPGGA,212033,3822.5626,N,12241.9372,W,1,04,0.9,25.908,M,0.0,M,,*5D
$GPRMC,212053,A,3822.5626,N,12241.9371,W,000.0,000.0,030515,0,E*7B
$GPGGA,212053,3822.5626,N,12241.9371,W,1,04,0.9,25.908,M,0.0,M,,*58
$GPRMC,212055,A,3822.5626,N,12241.9371,W,000.0,000.0,030515,0,E*7D
$GPGGA,212055,3822.5626,N,12241.9371,W,1,04,0.9,25.908,M,0.0,M,,*5E
$GPRMC,212114,A,3822.5626,N,12241.9371,W,000.0,000.0,030515,0,E*79
$GPGGA,212114,3822.5626,N,12241.9371,W,1,04,0.9,25.908,M,0.0,M,,*5A
$GPRMC,212116,A,3822.5626,N,12241.9371,W,000.0,000.0,030515,0,E*7B
$GPGGA,212116,3822.5626,N,12241.9371,W,1,04,0.9,25.908,M,0.0,M,,*58
$GPRMC,212135,A,3822.5626,N,12241.9371,W,000.0,000.0,030515,0,E*7A
$GPGGA,212135,3822.5626,N,12241.9371,W,1,04,0.9,25.908,M,0.0,M,,*59
$GPRMC,212136,A,3822.5626,N,12241.9371,W,000.0,000.0,030515,0,E*79
$GPGGA,212136,3822.5626,N,12241.9371,W,1,04,0.9,25.908,M,0.0,M,,*5A
$GPRMC,212155,A,3822.5626,N,12241.9371,W,000.0,000.0,030515,0,E*7C
$GPGGA,212155,3822.5626,N,12241.9371,W,1,04,0.9,25.908,M,0.0,M,,*5F
$GPRMC,212156,A,3822.5627,N,12241.9371,W,000.0,000.0,030515,0,E*7E
$GPGGA,212156,3822.5627,N,12241.9371,W,1,04,0.9,25.908,M,0.0,M,,*5D
$GPRMC,212216,A,3822.5627,N,12241.9371,W,000.0,000.0,030515,0,E*79
$GPGGA,212216,3822.5627,N,12241.9371,W,1,04,0.9,25.908,M,0.0,M,,*5A
$GPRMC,212216,A,3822.5627,N,12241.9371,W,000.0,000.0,030515,0,E*79
$GPGGA,212216,3822.5627,N,12241.9371,W,1,04,0.9,25.908,M,0.0,M,,*5A
$GPRMC,212236,A,3822.5626,N,12241.9371,W,000.0,000.0,030515,0,E*7A
$GPGGA,212236,3822.5626,N,12241.9371,W,1,04,0.9,25.908,M,0.0,M,,*59
$GPRMC,212237,A,3822.5626,N,12241.9371,W,000.0,000.0,030515,0,E*7B
$GPGGA,212237,3822.5626,N,12241.9371,W,1,04,0.9,25.908,M,0.0,M,,*58
$GPRMC,212257,A,3822.5626,N,12241.9372,W,000.0,000.0,030515,0,E*7E
$GPGGA,212257,3822.5626,N,12241.9372,W,1,04,0.9,25.908,M,0.0,M,,*5D
$GPRMC,212258,A,3822.5626,N,12241.9372,W,000.0,000.0,030515,0,E*71
$GPGGA,212258,3822.5626,N,12241.9372,W,1,04,0.9,25.908,M,0.0,M,,*52
$GPRMC,212318,A,3822.5627,N,12241.9371,W,000.0,000.0,030515,0,E*76
$GPGGA,212318,3822.5627,N,12241.9371,W,1,04,0.9,25.908,M,0.0,M,,*55
$GPRMC,212319,A,3822.5627,N,12241.9371,W,000.0,000.0,030515,0,E*77
$GPGGA,212319,3822.5627,N,12241.9371,W,1,04,0.9,25.908,M,0.0,M,,*54
$GPRMC,212339,A,3822.5627,N,12241.9372,W,000.0,000.0,030515,0,E*76
$GPGGA,212339,3822.5627,N,12241.9372,W,1,04,0.9,25.908,M,0.0,M,,*55
$GPRMC,212341,A,3822.5627,N,12241.9372,W,000.0,000.0,030515,0,E*79
$GPGGA,212341,3822.5627,N,12241.9372,W,1,04,0.9,25.908,M,0.0,M,,*5A
$GPRMC,212400,A,3822.5627,N,12241.9372,W,000.0,000.0,030515,0,E*7B
$GPGGA,212400,3822.5627,N,12241.9372,W,1,04,0.9,25.908,M,0.0,M,,*58
$GPRMC,212402,A,3822.5627,N,12241.9372,W,000.0,000.0,030515,0,E*79
$GPGGA,212402,3822.5627,N,12241.9372,W,1,04,0.9,25.908,M,0.0,M,,*5A
$GPRMC,212421,A,3822.5627,N,12241.9372,W,000.0,000.0,030515,0,E*78
$GPGGA,212421,3822.5627,N,12241.9372,W,1,04,0.9,25.908,M,0.0,M,,*5B
$GPRMC,212422,A,3822.5627,N,12241.9372,W,000.0,000.0,030515,0,E*7B
$GPGGA,212422,3822.5627,N,12241.9372,W,1,04,0.9,25.908,M,0.0,M,,*58
$GPRMC,212442,A,3822.5628,N,12241.9373,W,000.0,000.0,030515,0,E*73
$GPGGA,212442,3822.5628,N,12241.9373,W,1,04,0.9,25.908,M,0.0,M,,*50
$GPRMC,212443,A,3822.5628,N,12241.9373,W,000.0,000.0,030515,0,E*72
$GPGGA,212443,3822.5628,N,12241.9373,W,1,04,0.9,25.908,M,0.0,M,,*51
$GPRMC,212502,A,3822.5628,N,12241.9373,W,000.0,000.0,030515,0,E*76
$GPGGA,212502,3822.5628,N,12241.9373,W,1,04,0.9,25.908,M,0.0,M,,*55
$GPRMC,212503,A,3822.5628,N,12241.9373,W,000.0,000.0,030515,0,E*77
$GPGGA,212503,3822.5628,N,12241.9373,W,1,04,0.9,25.908,M,0.0,M,,*54
$GPRMC,212523,A,3822.5628,N,12241.9373,W,000.0,000.0,030515,0,E*75
$GPGGA,212523,3822.5628,N,12241.9373,W,1,04,0.9,25.908,M,0.0,M,,*56
$GPRMC,212524,A,3822.5628,N,12241.9373,W,000.0,000.0,030515,0,E*72
$GPGGA,212524,3822.5628,N,12241.9373,W,1,04,0.9,25.908,M,0.0,M,,*51
$GPRMC,212544,A,3822.5628,N,12241.9373,W,000.0,000.0,030515,0,E*74
$GPGGA,212544,3822.5628,N,12241.9373,W,1,04,0.9,25.908,M,0.0,M,,*57
$GPRMC,212545,A,3822.5628,N,12241.9373,W,000.0,000.0,030515,0,E*75
$GPGGA,212545,3822.5628,N,12241.9373,W,1,04,0.9,25.908,M,0.0,M,,*56
$GPRMC,212604,A,3822.5629,N,12241.9373,W,000.0,000.0,030515,0,E*72
$GPGGA,212604,3822.5629,N,12241.9373,W,1,04,0.9,25.908,M,0.0,M,,*51
$GPRMC,212605,A,3822.5629,N,12241.9373,W,000.0,000.0,030515,0,E*73
$GPGGA,212605,3822.5629,N,12241.9373,W,1,04,0.9,25.908,M,0.0,M,,*50
$GPRMC,212624,A,3822.5629,N,12241.9374,W,000.0,000.0,030515,0,E*77
$GPGGA,212624,3822.5629,N,12241.9374,W,1,04,0.9,25.908,M,0.0,M,,*54
$GPRMC,212625,A,3822.5629,N,12241.9374,W,000.0,000.0,030515,0,E*76
$GPGGA,212625,3822.5629,N,12241.9374,W,1,04,0.9,25.908,M,0.0,M,,*55
$GPRMC,212645,A,3822.5629,N,12241.9374,W,000.0,000.0,030515,0,E*70
$GPGGA,212645,3822.5629,N,12241.9374,W,1,04,0.9,25.908,M,0.0,M,,*53
$GPRMC,212646,A,3822.5629,N,12241.9374,W,000.0,000.0,030515,0,E*73
$GPGGA,212646,3822.5629,N,12241.9374,W,1,04,0.9,25.908,M,0.0,M,,*50
$GPRMC,212706,A,3822.5629,N,12241.9374,W,000.0,000.0,030515,0,E*76
$GPGGA,212706,3822.5629,N,12241.9374,W,1,04,0.9,25.908,M,0.0,M,,*55
$GPRMC,212707,A,3822.5629,N,12241.9374,W,000.0,000.0,030515,0,E*77
$GPGGA,212707,3822.5629,N,12241.9374,W,1,04,0.9,25.908,M,0.0,M,,*54
$GPRMC,212727,A,3822.5629,N,12241.9374,W,000.0,000.0,030515,0,E*75
$GPGGA,212727,3822.5629,N,12241.9374,W,1,04,0.9,25.908,M,0.0,M,,*56
$GPRMC,212729,A,3822.5629,N,12241.9374,W,000.0,000.0,030515,0,E*7B
$GPGGA,212729,3822.5629,N,12241.9374,W,1,04,0.9,25.908,M,0.0,M,,*58
$GPRMC,212748,A,3822.5629,N,12241.9375,W,000.0,000.0,030515,0,E*7D
$GPGGA,212748,3822.5629,N,12241.9375,W,1,04,0.9,25.908,M,0.0,M,,*5E
$GPRMC,212749,A,3822.5629,N,12241.9375,W,000.0,000.0,030515,0,E*7C
$GPGGA,212749,3822.5629,N,12241.9375,W,1,04,0.9,25.908,M,0.0,M,,*5F
$GPRMC,212809,A,3822.5629,N,12241.9375,W,000.0,000.0,030515,0,E*77
$GPGGA,212809,3822.5629,N,12241.9375,W,1,04,0.9,25.908,M,0.0,M,,*54
$GPRMC,212810,A,3822.5629,N,12241.9375,W,000.0,000.0,030515,0,E*7F
$GPGGA,212810,3822.5629,N,12241.9375,W,1,04,0.9,25.908,M,0.0,M,,*5C
$GPRMC,212830,A,3822.5629,N,12241.9375,W,000.0,000.0,030515,0,E*7D
$GPGGA,212830,3822.5629,N,12241.9375,W,1,04,0.9,25.908,M,0.0,M,,*5E
$GPRMC,212832,A,3822.5629,N,12241.9375,W,000.0,000.0,030515,0,E*7F
$GPGGA,212832,3822.5629,N,12241.9375,W,1,04,0.9,25.908,M,0.0,M,,*5C
$GPRMC,212851,A,3822.5629,N,12241.9375,W,000.0,000.0,030515,0,E*7A
$GPGGA,212851,3822.5629,N,12241.9375,W,1,04,0.9,25.908,M,0.0,M,,*59
$GPRMC,212852,A,3822.5629,N,12241.9375,W,000.0,000.0,030515,0,E*79
$GPGGA,212852,3822.5629,N,12241.9375,W,1,04,0.9,25.908,M,0.0,M,,*5A
$GPRMC,212912,A,3822.5629,N,12241.9375,W,000.0,000.0,030515,0,E*7C
$GPGGA,212912,3822.5629,N,12241.9375,W,1,04,0.9,25.908,M,0.0,M,,*5F
$GPRMC,212913,A,3822.5629,N,12241.9375,W,000.0,000.0,030515,0,E*7D
$GPGGA,212913,3822.5629,N,12241.9375,W,1,04,0.9,25.908,M,0.0,M,,*5E
$GPRMC,212932,A,3822.5629,N,12241.9375,W,000.0,000.0,030515,0,E*7E
$GPGGA,212932,3822.5629,N,12241.9375,W,1,04,0.9,25.908,M,0.0,M,,*5D
$GPRMC,212933,A,3822.5629,N,12241.9375,W,000.0,000.0,030515,0,E*7F
$GPGGA,212933,3822.5629,N,12241.9375,W,1,04,0.9,25.908,M,0.0,M,,*5C
$GPRMC,212954,A,3822.5629,N,12241.9375,W,000.0,000.0,030515,0,E*7E
$GPGGA,212954,3822.5629,N,12241.9375,W,1,04,0.9,25.908,M,0.0,M,,*5D
$GPRMC,212954,A,3822.5629,N,12241.9375,W,000.0,000.0,030515,0,E*7E
$GPGGA,212954,3822.5629,N,12241.9375,W,1,04,0.9,25.908,M,0.0,M,,*5D
$GPRMC,213014,A,3822.5629,N,12241.9375,W,000.0,000.0,030515,0,E*72
$GPGGA,213014,3822.5629,N,12241.9375,W,1,04,0.9,25.908,M,0.0,M,,*51
$GPRMC,213015,A,3822.5629,N,12241.9375,W,000.0,000.0,030515,0,E*73
$GPGGA,213015,3822.5629,N,12241.9375,W,1,04,0.9,25.908,M,0.0,M,,*50
$GPRMC,213035,A,3822.5629,N,12241.9375,W,000.0,000.0,030515,0,E*71
$GPGGA,213035,3822.5629,N,12241.9375,W,1,04,0.9,25.908,M,0.0,M,,*52
$GPRMC,213037,A,3822.5629,N,12241.9375,W,000.0,000.0,030515,0,E*73
$GPGGA,213037,3822.5629,N,12241.9375,W,1,04,0.9,25.908,M,0.0,M,,*50
$GPRMC,213055,A,3822.5629,N,12241.9376,W,000.0,000.0,030515,0,E*74
$GPGGA,213055,3822.5629,N,12241.9376,W,1,04,0.9,25.908,M,0.0,M,,*57
$GPRMC,213056,A,3822.5629,N,12241.9376,W,000.0,000.0,030515,0,E*77
$GPGGA,213056,3822.5629,N,12241.9376,W,1,04,0.9,25.908,M,0.0,M,,*54
$GPRMC,213116,A,3822.5629,N,12241.9376,W,000.0,000.0,030515,0,E*72
$GPGGA,213116,3822.5629,N,12241.9376,W,1,04,0.9,25.908,M,0.0,M,,*51
$GPRMC,213117,A,3822.5629,N,12241.9376,W,000.0,000.0,030515,0,E*73
$GPGGA,213117,3822.5629,N,12241.9376,W,1,04,0.9,25.908,M,0.0,M,,*50
$GPRMC,213137,A,3822.5629,N,12241.9377,W,000.0,000.0,030515,0,E*70
$GPGGA,213137,3822.5629,N,12241.9377,W,1,04,0.9,25.908,M,0.0,M,,*53
$GPRMC,213137,A,3822.5629,N,12241.9377,W,000.0,000.0,030515,0,E*70
$GPGGA,213137,3822.5629,N,12241.9377,W,1,04,0.9,25.908,M,0.0,M,,*53
$GPRMC,213156,A,3822.5629,N,12241.9377,W,000.0,000.0,030515,0,E*77
$GPGGA,213156,3822.5629,N,12241.9377,W,1,04,0.9,25.908,M,0.0,M,,*54
$GPRMC,213157,A,3822.5629,N,12241.9377,W,000.0,000.0,030515,0,E*76
$GPGGA,213157,3822.5629,N,12241.9377,W,1,04,0.9,25.908,M,0.0,M,,*55
$GPRMC,213216,A,3822.5629,N,12241.9377,W,000.0,000.0,030515,0,E*70
$GPGGA,213216,3822.5629,N,12241.9377,W,1,04,0.9,25.908,M,0.0,M,,*53
$GPRMC,213217,A,3822.5629,N,12241.9377,W,000.0,000.0,030515,0,E*71
$GPGGA,213217,3822.5629,N,12241.9377,W,1,04,0.9,25.908,M,0.0,M,,*52
$GPRMC,213236,A,3822.5629,N,12241.9377,W,000.0,000.0,030515,0,E*72
$GPGGA,213236,3822.5629,N,12241.9377,W,1,04,0.9,25.908,M,0.0,M,,*51
$GPRMC,213237,A,3822.5629,N,12241.9377,W,000.0,000.0,030515,0,E*73
$GPGGA,213237,3822.5629,N,12241.9377,W,1,04,0.9,25.908,M,0.0,M,,*50
$GPRMC,213256,A,3822.5629,N,12241.9377,W,000.0,000.0,030515,0,E*74
$GPGGA,213256,3822.5629,N,12241.9377,W,1,04,0.9,25.908,M,0.0,M,,*57
$GPRMC,213257,A,3822.5629,N,12241.9377,W,000.0,000.0,030515,0,E*75
$GPGGA,213257,3822.5629,N,12241.9377,W,1,04,0.9,25.908,M,0.0,M,,*56
$GPRMC,213317,A,3822.5629,N,12241.9378,W,000.0,000.0,030515,0,E*7F
$GPGGA,213317,3822.5629,N,12241.9378,W,1,04,0.9,25.908,M,0.0,M,,*5C
$GPRMC,213318,A,3822.5629,N,12241.9378,W,000.0,000.0,030515,0,E*70
$GPGGA,213318,3822.5629,N,12241.9378,W,1,04,0.9,25.908,M,0.0,M,,*53
$GPRMC,213337,A,3822.5630,N,12241.9378,W,000.0,000.0,030515,0,E*75
$GPGGA,213337,3822.5630,N,12241.9378,W,1,04,0.9,25.908,M,0.0,M,,*56
$GPRMC,213338,A,3822.5630,N,12241.9378,W,000.0,000.0,030515,0,E*7A
$GPGGA,213338,3822.5630,N,12241.9378,W,1,04,0.9,25.908,M,0.0,M,,*59
$GPRMC,213357,A,3822.5630,N,12241.9378,W,000.0,000.0,030515,0,E*73
$GPGGA,213357,3822.5630,N,12241.9378,W,1,04,0.9,25.908,M,0.0,M,,*50
$GPRMC,213358,A,3822.5630,N,12241.9378,W,000.0,000.0,030515,0,E*7C
$GPGGA,213358,3822.5630,N,12241.9378,W,1,04,0.9,25.908,M,0.0,M,,*5F
$GPRMC,213418,A,3822.5630,N,12241.9379,W,000.0,000.0,030515,0,E*7E
$GPGGA,213418,3822.5630,N,12241.9379,W,1,04,0.9,25.908,M,0.0,M,,*5D
$GPRMC,213419,A,3822.5630,N,12241.9379,W,000.0,000.0,030515,0,E*7F
$GPGGA,213419,3822.5630,N,12241.9379,W,1,04,0.9,25.908,M,0.0,M,,*5C
$GPRMC,213439,A,3822.5630,N,12241.9379,W,000.0,000.0,030515,0,E*7D
$GPGGA,213439,3822.5630,N,12241.9379,W,1,04,0.9,25.908,M,0.0,M,,*5E
$GPRMC,213440,A,3822.5630,N,12241.9379,W,000.0,000.0,030515,0,E*73
$GPGGA,213440,3822.5630,N,12241.9379,W,1,04,0.9,25.908,M,0.0,M,,*50
$GPRMC,213459,A,3822.5630,N,12241.9379,W,000.0,000.0,030515,0,E*7B
$GPGGA,213459,3822.5630,N,12241.9379,W,1,04,0.9,25.908,M,0.0,M,,*58
$GPRMC,213500,A,3822.5630,N,12241.9379,W,000.0,000.0,030515,0,E*76
$GPGGA,213500,3822.5630,N,12241.9379,W,1,04,0.9,25.908,M,0.0,M,,*55
$GPRMC,213520,A,3822.5629,N,12241.9380,W,000.0,000.0,030515,0,E*7A
$GPGGA,213520,3822.5629,N,12241.9380,W,1,04,0.9,25.908,M,0.0,M,,*59
$GPRMC,213521,A,3822.5629,N,12241.9380,W,000.0,000.0,030515,0,E*7B
$GPGGA,213521,3822.5629,N,12241.9380,W,1,04,0.9,25.908,M,0.0,M,,*58
$GPRMC,213541,A,3822.5629,N,12241.9380,W,000.0,000.0,030515,0,E*7D
$GPGGA,213541,3822.5629,N,12241.9380,W,1,04,0.9,25.908,M,0.0,M,,*5E
$GPRMC,213542,A,3822.5629,N,12241.9380,W,000.0,000.0,030515,0,E*7E
$GPGGA,213542,3822.5629,N,12241.9380,W,1,04,0.9,25.908,M,0.0,M,,*5D
$GPRMC,213602,A,3822.5629,N,12241.9380,W,000.0,000.0,030515,0,E*79
$GPGGA,213602,3822.5629,N,12241.9380,W,1,04,0.9,25.908,M,0.0,M,,*5A
$GPRMC,213603,A,3822.5629,N,12241.9380,W,000.0,000.0,030515,0,E*78
$GPGGA,213603,3822.5629,N,12241.9380,W,1,04,0.9,25.908,M,0.0,M,,*5B
$GPRMC,213623,A,3822.5629,N,12241.9380,W,000.0,000.0,030515,0,E*7A
$GPGGA,213623,3822.5629,N,12241.9380,W,1,04,0.9,25.908,M,0.0,M,,*59
$GPRMC,213624,A,3822.5629,N,12241.9380,W,000.0,000.0,030515,0,E*7D
$GPGGA,213624,3822.5629,N,12241.9380,W,1,04,0.9,25.908,M,0.0,M,,*5E
$GPRMC,213643,A,3822.5629,N,12241.9381,W,000.0,000.0,030515,0,E*7D
$GPGGA,213643,3822.5629,N,12241.9381,W,1,04,0.9,25.908,M,0.0,M,,*5E
$GPRMC,213645,A,3822.5629,N,12241.9381,W,000.0,000.0,030515,0,E*7B
$GPGGA,213645,3822.5629,N,12241.9381,W,1,04,0.9,25.908,M,0.0,M,,*58
$GPRMC,213703,A,3822.5629,N,12241.9381,W,000.0,000.0,030515,0,E*78
$GPGGA,213703,3822.5629,N,12241.9381,W,1,04,0.9,25.908,M,0.0,M,,*5B
$GPRMC,213704,A,3822.5629,N,12241.9381,W,000.0,000.0,030515,0,E*7F
$GPGGA,213704,3822.5629,N,12241.9381,W,1,04,0.9,25.908,M,0.0,M,,*5C
$GPRMC,213724,A,3822.5629,N,12241.9381,W,000.0,000.0,030515,0,E*7D
$GPGGA,213724,3822.5629,N,12241.9381,W,1,04,0.9,25.908,M,0.0,M,,*5E
$GPRMC,213725,A,3822.5629,N,12241.9381,W,000.0,000.0,030515,0,E*7C
$GPGGA,213725,3822.5629,N,12241.9381,W,1,04,0.9,25.908,M,0.0,M,,*5F
$GPRMC,213745,A,3822.5629,N,12241.9381,W,000.0,000.0,030515,0,E*7A
$GPGGA,213745,3822.5629,N,12241.9381,W,1,04,0.9,25.908,M,0.0,M,,*59
$GPRMC,213746,A,3822.5629,N,12241.9381,W,000.0,000.0,030515,0,E*79
$GPGGA,213746,3822.5629,N,12241.9381,W,1,04,0.9,25.908,M,0.0,M,,*5A
$GPRMC,213806,A,3822.5629,N,12241.9382,W,000.0,000.0,030515,0,E*71
$GPGGA,213806,3822.5629,N,12241.9382,W,1,04,0.9,25.908,M,0.0,M,,*52
$GPRMC,213808,A,3822.5629,N,12241.9382,W,000.0,000.0,030515,0,E*7F
$GPGGA,213808,3822.5629,N,12241.9382,W,1,04,0.9,25.908,M,0.0,M,,*5C
$GPRMC,213827,A,3822.5628,N,12241.9382,W,000.0,000.0,030515,0,E*73
$GPGGA,213827,3822.5628,N,12241.9382,W,1,04,0.9,25.908,M,0.0,M,,*50
$GPRMC,213828,A,3822.5628,N,12241.9382,W,000.0,000.0,030515,0,E*7C
$GPGGA,213828,3822.5628,N,12241.9382,W,1,04,0.9,25.908,M,0.0,M,,*5F
$GPRMC,213848,A,3822.5628,N,12241.9382,W,000.0,000.0,030515,0,E*7A
$GPGGA,213848,3822.5628,N,12241.9382,W,1,04,0.9,25.908,M,0.0,M,,*59
$GPRMC,213849,A,3822.5628,N,12241.9382,W,000.0,000.0,030515,0,E*7B
$GPGGA,213849,3822.5628,N,12241.9382,W,1,04,0.9,25.908,M,0.0,M,,*58
$GPRMC,213909,A,3822.5628,N,12241.9382,W,000.0,000.0,030515,0,E*7E
$GPGGA,213909,3822.5628,N,12241.9382,W,1,04,0.9,25.908,M,0.0,M,,*5D
$GPRMC,213910,A,3822.5628,N,12241.9382,W,000.0,000.0,030515,0,E*76
$GPGGA,213910,3822.5628,N,12241.9382,W,1,04,0.9,25.908,M,0.0,M,,*55
$GPRMC,213930,A,3822.5628,N,12241.9382,W,000.0,000.0,030515,0,E*74
$GPGGA,213930,3822.5628,N,12241.9382,W,1,04,0.9,25.908,M,0.0,M,,*57
$GPRMC,213930,A,3822.5628,N,12241.9382,W,000.0,000.0,030515,0,E*74
$GPGGA,213930,3822.5628,N,12241.9382,W,1,04,0.9,25.908,M,0.0,M,,*57
$GPRMC,213950,A,3822.5628,N,12241.9383,W,000.0,000.0,030515,0,E*73
$GPGGA,213950,3822.5628,N,12241.9383,W,1,04,0.9,25.908,M,0.0,M,,*50
$GPRMC,213950,A,3822.5628,N,12241.9383,W,000.0,000.0,030515,0,E*73
$GPGGA,213950,3822.5628,N,12241.9383,W,1,04,0.9,25.908,M,0.0,M,,*50
$GPRMC,214009,A,3822.5628,N,12241.9383,W,000.0,000.0,030515,0,E*71
$GPGGA,214009,3822.5628,N,12241.9383,W,1,04,0.9,25.908,M,0.0,M,,*52
$GPRMC,214011,A,3822.5628,N,12241.9383,W,000.0,000.0,030515,0,E*78
$GPGGA,214011,3822.5628,N,12241.9383,W,1,04,0.9,25.908,M,0.0,M,,*5B
$GPRMC,214030,A,3822.5628,N,12241.9383,W,000.0,000.0,030515,0,E*7B
$GPGGA,214030,3822.5628,N,12241.9383,W,1,04,0.9,25.908,M,0.0,M,,*58
$GPRMC,214031,A,3822.5628,N,12241.9383,W,000.0,000.0,030515,0,E*7A
$GPGGA,214031,3822.5628,N,12241.9383,W,1,04,0.9,25.908,M,0.0,M,,*59
$GPRMC,214051,A,3822.5628,N,12241.9383,W,000.0,000.0,030515,0,E*7C
$GPGGA,214051,3822.5628,N,12241.9383,W,1,04,0.9,25.908,M,0.0,M,,*5F
$GPRMC,214051,A,3822.5628,N,12241.9383,W,000.0,000.0,030515,0,E*7C
$GPGGA,214051,3822.5628,N,12241.9383,W,1,04,0.9,25.908,M,0.0,M,,*5F
$GPRMC,214110,A,3822.5627,N,12241.9384,W,000.0,000.0,030515,0,E*70
$GPGGA,214110,3822.5627,N,12241.9384,W,1,04,0.9,25.908,M,0.0,M,,*53
$GPRMC,214111,A,3822.5627,N,12241.9384,W,000.0,000.0,030515,0,E*71
$GPGGA,214111,3822.5627,N,12241.9384,W,1,04,0.9,25.908,M,0.0,M,,*52
$GPRMC,214131,A,3822.5627,N,12241.9384,W,000.0,000.0,030515,0,E*73
$GPGGA,214131,3822.5627,N,12241.9384,W,1,04,0.9,25.908,M,0.0,M,,*50
$GPRMC,214133,A,3822.5627,N,12241.9384,W,000.0,000.0,030515,0,E*71
$GPGGA,214133,3822.5627,N,12241.9384,W,1,04,0.9,25.908,M,0.0,M,,*52
$GPRMC,214151,A,3822.5627,N,12241.9384,W,000.0,000.0,030515,0,E*75
$GPGGA,214151,3822.5627,N,12241.9384,W,1,04,0.9,25.908,M,0.0,M,,*56
$GPRMC,214152,A,3822.5627,N,12241.9384,W,000.0,000.0,030515,0,E*76
$GPGGA,214152,3822.5627,N,12241.9384,W,1,04,0.9,25.908,M,0.0,M,,*55
$GPRMC,214212,A,3822.5627,N,12241.9384,W,000.0,000.0,030515,0,E*71
$GPGGA,214212,3822.5627,N,12241.9384,W,1,04,0.9,25.908,M,0.0,M,,*52
$GPRMC,214213,A,3822.5627,N,12241.9384,W,000.0,000.0,030515,0,E*70
$GPGGA,214213,3822.5627,N,12241.9384,W,1,04,0.9,25.908,M,0.0,M,,*53
$GPRMC,214232,A,3822.5627,N,12241.9385,W,000.0,000.0,030515,0,E*72
$GPGGA,214232,3822.5627,N,12241.9385,W,1,04,0.9,25.908,M,0.0,M,,*51
$GPRMC,214233,A,3822.5627,N,12241.9385,W,000.0,000.0,030515,0,E*73
$GPGGA,214233,3822.5627,N,12241.9385,W,1,04,0.9,25.908,M,0.0,M,,*50
$GPRMC,214253,A,3822.5627,N,12241.9385,W,000.0,000.0,030515,0,E*75
$GPGGA,214253,3822.5627,N,12241.9385,W,1,04,0.9,25.908,M,0.0,M,,*56
$GPRMC,214254,A,3822.5627,N,12241.9385,W,000.0,000.0,030515,0,E*72
$GPGGA,214254,3822.5627,N,12241.9385,W,1,04,0.9,25.908,M,0.0,M,,*51
$GPRMC,214314,A,3822.5627,N,12241.9385,W,000.0,000.0,030515,0,E*77
$GPGGA,214314,3822.5627,N,12241.9385,W,1,04,0.9,25.908,M,0.0,M,,*54
$GPRMC,214315,A,3822.5627,N,12241.9385,W,000.0,000.0,030515,0,E*76
$GPGGA,214315,3822.5627,N,12241.9385,W,1,04,0.9,25.908,M,0.0,M,,*55
$GPRMC,214336,A,3822.5627,N,12241.9385,W,000.0,000.0,030515,0,E*77
$GPGGA,214336,3822.5627,N,12241.9385,W,1,04,0.9,25.908,M,0.0,M,,*54
$GPRMC,214336,A,3822.5627,N,12241.9385,W,000.0,000.0,030515,0,E*77
$GPGGA,214336,3822.5627,N,12241.9385,W,1,04,0.9,25.908,M,0.0,M,,*54
$GPRMC,214356,A,3822.5627,N,12241.9385,W,000.0,000.0,030515,0,E*71
$GPGGA,214356,3822.5627,N,12241.9385,W,1,04,0.9,25.908,M,0.0,M,,*52
$GPRMC,214357,A,3822.5627,N,12241.9385,W,000.0,000.0,030515,0,E*70
$GPGGA,214357,3822.5627,N,12241.9385,W,1,04,0.9,25.908,M,0.0,M,,*53
$GPRMC,214416,A,3822.5627,N,12241.9385,W,000.0,000.0,030515,0,E*72
$GPGGA,214416,3822.5627,N,12241.9385,W,1,04,0.9,25.908,M,0.0,M,,*51
$GPRMC,214418,A,3822.5627,N,12241.9385,W,000.0,000.0,030515,0,E*7C
$GPGGA,214418,3822.5627,N,12241.9385,W,1,04,0.9,25.908,M,0.0,M,,*5F
$GPRMC,214437,A,3822.5627,N,12241.9385,W,000.0,000.0,030515,0,E*71
$GPGGA,214437,3822.5627,N,12241.9385,W,1,04,0.9,25.908,M,0.0,M,,*52
$GPRMC,214438,A,3822.5627,N,12241.9385,W,000.0,000.0,030515,0,E*7E
$GPGGA,214438,3822.5627,N,12241.9385,W,1,04,0.9,25.908,M,0.0,M,,*5D
$GPRMC,214457,A,3822.5627,N,12241.9385,W,000.0,000.0,030515,0,E*77
$GPGGA,214457,3822.5627,N,12241.9385,W,1,04,0.9,25.908,M,0.0,M,,*54
$GPRMC,214459,A,3822.5627,N,12241.9385,W,000.0,000.0,030515,0,E*79
$GPGGA,214459,3822.5627,N,12241.9385,W,1,04,0.9,25.908,M,0.0,M,,*5A
$GPRMC,214518,A,3822.5627,N,12241.9385,W,000.0,000.0,030515,0,E*7D
$GPGGA,214518,3822.5627,N,12241.9385,W,1,04,0.9,25.908,M,0.0,M,,*5E
$GPRMC,214519,A,3822.5627,N,12241.9385,W,000.0,000.0,030515,0,E*7C
$GPGGA,214519,3822.5627,N,12241.9385,W,1,04,0.9,25.908,M,0.0,M,,*5F
$GPRMC,214539,A,3822.5627,N,12241.9385,W,000.0,000.0,030515,0,E*7E
$GPGGA,214539,3822.5627,N,12241.9385,W,1,04,0.9,25.908,M,0.0,M,,*5D
$GPRMC,214541,A,3822.5627,N,12241.9385,W,000.0,000.0,030515,0,E*71
$GPGGA,214541,3822.5627,N,12241.9385,W,1,04,0.9,25.908,M,0.0,M,,*52
$GPRMC,214600,A,3822.5626,N,12241.9385,W,000.0,000.0,030515,0,E*76
$GPGGA,214600,3822.5626,N,12241.9385,W,1,04,0.9,25.908,M,0.0,M,,*55
$GPRMC,214601,A,3822.5626,N,12241.9385,W,000.0,000.0,030515,0,E*77
$GPGGA,214601,3822.5626,N,12241.9385,W,1,04,0.9,25.908,M,0.0,M,,*54
$GPRMC,214621,A,3822.5626,N,12241.9385,W,000.0,000.0,030515,0,E*75
$GPGGA,214621,3822.5626,N,12241.9385,W,1,04,0.9,25.908,M,0.0,M,,*56
$GPRMC,214621,A,3822.5626,N,12241.9385,W,000.0,000.0,030515,0,E*75
$GPGGA,214621,3822.5626,N,12241.9385,W,1,04,0.9,25.908,M,0.0,M,,*56
$GPRMC,214641,A,3822.5626,N,12241.9385,W,000.0,000.0,030515,0,E*73
$GPGGA,214641,3822.5626,N,12241.9385,W,1,04,0.9,25.908,M,0.0,M,,*50
$GPRMC,214642,A,3822.5626,N,12241.9385,W,000.0,000.0,030515,0,E*70
$GPGGA,214642,3822.5626,N,12241.9385,W,1,04,0.9,25.908,M,0.0,M,,*53
$GPRMC,214702,A,3822.5626,N,12241.9386,W,000.0,000.0,030515,0,E*76
$GPGGA,214702,3822.5626,N,12241.9386,W,1,04,0.9,25.908,M,0.0,M,,*55
$GPRMC,214703,A,3822.5626,N,12241.9386,W,000.0,000.0,030515,0,E*77
$GPGGA,214703,3822.5626,N,12241.9386,W,1,04,0.9,25.908,M,0.0,M,,*54
$GPRMC,214723,A,3822.5626,N,12241.9386,W,000.0,000.0,030515,0,E*75
$GPGGA,214723,3822.5626,N,12241.9386,W,1,04,0.9,25.908,M,0.0,M,,*56
$GPRMC,214724,A,3822.5626,N,12241.9386,W,000.0,000.0,030515,0,E*72
$GPGGA,214724,3822.5626,N,12241.9386,W,1,04,0.9,25.908,M,0.0,M,,*51
$GPRMC,214743,A,3822.5626,N,12241.9386,W,000.0,000.0,030515,0,E*73
$GPGGA,214743,3822.5626,N,12241.9386,W,1,04,0.9,25.908,M,0.0,M,,*50
$GPRMC,214744,A,3822.5626,N,12241.9386,W,000.0,000.0,030515,0,E*74
$GPGGA,214744,3822.5626,N,12241.9386,W,1,04,0.9,25.908,M,0.0,M,,*57
$GPRMC,214803,A,3822.5626,N,12241.9386,W,000.0,000.0,030515,0,E*78
$GPGGA,214803,3822.5626,N,12241.9386,W,1,04,0.9,25.908,M,0.0,M,,*5B
$GPRMC,214804,A,3822.5626,N,12241.9386,W,000.0,000.0,030515,0,E*7F
$GPGGA,214804,3822.5626,N,12241.9386,W,1,04,0.9,25.908,M,0.0,M,,*5C
$GPRMC,214824,A,3822.5626,N,12241.9386,W,000.0,000.0,030515,0,E*7D
$GPGGA,214824,3822.5626,N,12241.9386,W,1,04,0.9,25.908,M,0.0,M,,*5E
$GPRMC,214825,A,3822.5626,N,12241.9386,W,000.0,000.0,030515,0,E*7C
$GPGGA,214825,3822.5626,N,12241.9386,W,1,04,0.9,25.908,M,0.0,M,,*5F
$GPRMC,214844,A,3822.5626,N,12241.9386,W,000.0,000.0,030515,0,E*7B
$GPGGA,214844,3822.5626,N,12241.9386,W,1,04,0.9,25.908,M,0.0,M,,*58
$GPRMC,214846,A,3822.5626,N,12241.9386,W,000.0,000.0,030515,0,E*79
$GPGGA,214846,3822.5626,N,12241.9386,W,1,04,0.9,25.908,M,0.0,M,,*5A
$GPRMC,214905,A,3822.5626,N,12241.9386,W,000.0,000.0,030515,0,E*7F
$GPGGA,214905,3822.5626,N,12241.9386,W,1,04,0.9,25.908,M,0.0,M,,*5C
$GPRMC,214906,A,3822.5626,N,12241.9386,W,000.0,000.0,030515,0,E*7C
$GPGGA,214906,3822.5626,N,12241.9386,W,1,04,0.9,25.908,M,0.0,M,,*5F
$GPRMC,214925,A,3822.5626,N,12241.9386,W,000.0,000.0,030515,0,E*7D
$GPGGA,214925,3822.5626,N,12241.9386,W,1,04,0.9,25.908,M,0.0,M,,*5E
$GPRMC,214926,A,3822.5626,N,12241.9386,W,000.0,000.0,030515,0,E*7E
$GPGGA,214926,3822.5626,N,12241.9386,W,1,04,0.9,25.908,M,0.0,M,,*5D
$GPRMC,214945,A,3822.5626,N,12241.9386,W,000.0,000.0,030515,0,E*7B
$GPGGA,214945,3822.5626,N,12241.9386,W,1,04,0.9,25.908,M,0.0,M,,*58
$GPRMC,214946,A,3822.5626,N,12241.9386,W,000.0,000.0,030515,0,E*78
$GPGGA,214946,3822.5626,N,12241.9386,W,1,04,0.9,25.908,M,0.0,M,,*5B
$GPRMC,215005,A,3822.5626,N,12241.9386,W,000.0,000.0,030515,0,E*77
$GPGGA,215005,3822.5626,N,12241.9386,W,1,04,0.9,25.908,M,0.0,M,,*54
$GPRMC,215006,A,3822.5626,N,12241.9387,W,000.0,000.0,030515,0,E*75
$GPGGA,215006,3822.5626,N,12241.9387,W,1,04,0.9,25.908,M,0.0,M,,*56
$GPRMC,215026,A,3822.5626,N,12241.9387,W,000.0,000.0,030515,0,E*77
$GPGGA,215026,3822.5626,N,12241.9387,W,1,04,0.9,25.908,M,0.0,M,,*54
$GPRMC,215027,A,3822.5626,N,12241.9387,W,000.0,000.0,030515,0,E*76
$GPGGA,215027,3822.5626,N,12241.9387,W,1,04,0.9,25.908,M,0.0,M,,*55
$GPRMC,215047,A,3822.5626,N,12241.9387,W,000.0,000.0,030515,0,E*70
$GPGGA,215047,3822.5626,N,12241.9387,W,1,04,0.9,25.908,M,0.0,M,,*53
$GPRMC,215048,A,3822.5626,N,12241.9387,W,000.0,000.0,030515,0,E*7F
$GPGGA,215048,3822.5626,N,12241.9387,W,1,04,0.9,25.908,M,0.0,M,,*5C
$GPRMC,215107,A,3822.5626,N,12241.9387,W,000.0,000.0,030515,0,E*75
$GPGGA,215107,3822.5626,N,12241.9387,W,1,04,0.9,25.908,M,0.0,M,,*56
$GPRMC,215108,A,3822.5626,N,12241.9387,W,000.0,000.0,030515,0,E*7A
$GPGGA,215108,3822.5626,N,12241.9387,W,1,04,0.9,25.908,M,0.0,M,,*59
$GPRMC,215127,A,3822.5626,N,12241.9388,W,000.0,000.0,030515,0,E*78
$GPGGA,215127,3822.5626,N,12241.9388,W,1,04,0.9,25.908,M,0.0,M,,*5B
$GPRMC,215129,A,3822.5626,N,12241.9388,W,000.0,000.0,030515,0,E*76
$GPGGA,215129,3822.5626,N,12241.9388,W,1,04,0.9,25.908,M,0.0,M,,*55
$GPRMC,215149,A,3822.5626,N,12241.9388,W,000.0,000.0,030515,0,E*70
$GPGGA,215149,3822.5626,N,12241.9388,W,1,04,0.9,25.908,M,0.0,M,,*53
$GPRMC,215149,A,3822.5626,N,12241.9388,W,000.0,000.0,030515,0,E*70
$GPGGA,215149,3822.5626,N,12241.9388,W,1,04,0.9,25.908,M,0.0,M,,*53
$GPRMC,215209,A,3822.5626,N,12241.9388,W,000.0,000.0,030515,0,E*77
$GPGGA,215209,3822.5626,N,12241.9388,W,1,04,0.9,25.908,M,0.0,M,,*54
$GPRMC,215211,A,3822.5626,N,12241.9388,W,000.0,000.0,030515,0,E*7E
$GPGGA,215211,3822.5626,N,12241.9388,W,1,04,0.9,25.908,M,0.0,M,,*5D
$GPRMC,215230,A,3822.5626,N,12241.9388,W,000.0,000.0,030515,0,E*7D
$GPGGA,215230,3822.5626,N,12241.9388,W,1,04,0.9,25.908,M,0.0,M,,*5E
$GPRMC,215231,A,3822.5626,N,12241.9388,W,000.0,000.0,030515,0,E*7C
$GPGGA,215231,3822.5626,N,12241.9388,W,1,04,0.9,25.908,M,0.0,M,,*5F
$GPRMC,215250,A,3822.5626,N,12241.9388,W,000.0,000.0,030515,0,E*7B
$GPGGA,215250,3822.5626,N,12241.9388,W,1,04,0.9,25.908,M,0.0,M,,*58
$GPRMC,215251,A,3822.5626,N,12241.9388,W,000.0,000.0,030515,0,E*7A
$GPGGA,215251,3822.5626,N,12241.9388,W,1,04,0.9,25.908,M,0.0,M,,*59
$GPRMC,215310,A,3822.5626,N,12241.9388,W,000.0,000.0,030515,0,E*7E
$GPGGA,215310,3822.5626,N,12241.9388,W,1,04,0.9,25.908,M,0.0,M,,*5D
$GPRMC,215311,A,3822.5626,N,12241.9388,W,000.0,000.0,030515,0,E*7F
$GPGGA,215311,3822.5626,N,12241.9388,W,1,04,0.9,25.908,M,0.0,M,,*5C
$GPRMC,215331,A,3822.5626,N,12241.9388,W,000.0,000.0,030515,0,E*7D
$GPGGA,215331,3822.5626,N,12241.9388,W,1,04,0.9,25.908,M,0.0,M,,*5E
$GPRMC,215332,A,3822.5626,N,12241.9388,W,000.0,000.0,030515,0,E*7E
$GPGGA,215332,3822.5626,N,12241.9388,W,1,04,0.9,25.908,M,0.0,M,,*5D
$GPRMC,215352,A,3822.5626,N,12241.9388,W,000.0,000.0,030515,0,E*78
$GPGGA,215352,3822.5626,N,12241.9388,W,1,04,0.9,25.908,M,0.0,M,,*5B
$GPRMC,215353,A,3822.5626,N,12241.9388,W,000.0,000.0,030515,0,E*79
$GPGGA,215353,3822.5626,N,12241.9388,W,1,04,0.9,25.908,M,0.0,M,,*5A
$GPRMC,215412,A,3822.5626,N,12241.9388,W,000.0,000.0,030515,0,E*7B
$GPGGA,215412,3822.5626,N,12241.9388,W,1,04,0.9,25.908,M,0.0,M,,*58
$GPRMC,215413,A,3822.5626,N,12241.9388,W,000.0,000.0,030515,0,E*7A
$GPGGA,215413,3822.5626,N,12241.9388,W,1,04,0.9,25.908,M,0.0,M,,*59
$GPRMC,215432,A,3822.5626,N,12241.9388,W,000.0,000.0,030515,0,E*79
$GPGGA,215432,3822.5626,N,12241.9388,W,1,04,0.9,25.908,M,0.0,M,,*5A
$GPRMC,215433,A,3822.5626,N,12241.9388,W,000.0,000.0,030515,0,E*78
$GPGGA,215433,3822.5626,N,12241.9388,W,1,04,0.9,25.908,M,0.0,M,,*5B
$GPRMC,215453,A,3822.5626,N,12241.9389,W,000.0,000.0,030515,0,E*7F
$GPGGA,215453,3822.5626,N,12241.9389,W,1,04,0.9,25.908,M,0.0,M,,*5C
$GPRMC,215454,A,3822.5626,N,12241.9389,W,000.0,000.0,030515,0,E*78
$GPGGA,215454,3822.5626,N,12241.9389,W,1,04,0.9,25.908,M,0.0,M,,*5B
$GPRMC,215514,A,3822.5626,N,12241.9389,W,000.0,000.0,030515,0,E*7D
$GPGGA,215514,3822.5626,N,12241.9389,W,1,04,0.9,25.908,M,0.0,M,,*5E
$GPRMC,215515,A,3822.5626,N,12241.9389,W,000.0,000.0,030515,0,E*7C
$GPGGA,215515,3822.5626,N,12241.9389,W,1,04,0.9,25.908,M,0.0,M,,*5F
$GPRMC,215535,A,3822.5626,N,12241.9389,W,000.0,000.0,030515,0,E*7E
$GPGGA,215535,3822.5626,N,12241.9389,W,1,04,0.9,25.908,M,0.0,M,,*5D
$GPRMC,215536,A,3822.5626,N,12241.9389,W,000.0,000.0,030515,0,E*7D
$GPGGA,215536,3822.5626,N,12241.9389,W,1,04,0.9,25.908,M,0.0,M,,*5E
$GPRMC,215555,A,3822.5626,N,12241.9389,W,000.0,000.0,030515,0,E*78
$GPGGA,215555,3822.5626,N,12241.9389,W,1,04,0.9,25.908,M,0.0,M,,*5B
$GPRMC,215556,A,3822.5626,N,12241.9389,W,000.0,000.0,030515,0,E*7B
$GPGGA,215556,3822.5626,N,12241.9389,W,1,04,0.9,25.908,M,0.0,M,,*58
$GPRMC,215615,A,3822.5626,N,12241.9389,W,000.0,000.0,030515,0,E*7F
$GPGGA,215615,3822.5626,N,12241.9389,W,1,04,0.9,25.908,M,0.0,M,,*5C
$GPRMC,215616,A,3822.5626,N,12241.9389,W,000.0,000.0,030515,0,E*7C
$GPGGA,215616,3822.5626,N,12241.9389,W,1,04,0.9,25.908,M,0.0,M,,*5F
$GPRMC,215636,A,3822.5626,N,12241.9389,W,000.0,000.0,030515,0,E*7E
$GPGGA,215636,3822.5626,N,12241.9389,W,1,04,0.9,25.908,M,0.0,M,,*5D
$GPRMC,215637,A,3822.5626,N,12241.9389,W,000.0,000.0,030515,0,E*7F
$GPGGA,215637,3822.5626,N,12241.9389,W,1,04,0.9,25.908,M,0.0,M,,*5C
$GPRMC,215657,A,3822.5626,N,12241.9389,W,000.0,000.0,030515,0,E*79
$GPGGA,215657,3822.5626,N,12241.9389,W,1,04,0.9,25.908,M,0.0,M,,*5A
$GPRMC,215659,A,3822.5626,N,12241.9389,W,000.0,000.0,030515,0,E*77
$GPGGA,215659,3822.5626,N,12241.9389,W,1,04,0.9,25.908,M,0.0,M,,*54
$GPRMC,215718,A,3822.5627,N,12241.9389,W,000.0,000.0,030515,0,E*72
$GPGGA,215718,3822.5627,N,12241.9389,W,1,04,0.9,25.908,M,0.0,M,,*51
$GPRMC,215719,A,3822.5627,N,12241.9389,W,000.0,000.0,030515,0,E*73
$GPGGA,215719,3822.5627,N,12241.9389,W,1,04,0.9,25.908,M,0.0,M,,*50
$GPRMC,215739,A,3822.5627,N,12241.9389,W,000.0,000.0,030515,0,E*71
$GPGGA,215739,3822.5627,N,12241.9389,W,1,04,0.9,25.908,M,0.0,M,,*52
$GPRMC,215740,A,3822.5627,N,12241.9389,W,000.0,000.0,030515,0,E*7F
$GPGGA,215740,3822.5627,N,12241.9389,W,1,04,0.9,25.908,M,0.0,M,,*5C
$GPRMC,215800,A,3822.5627,N,12241.9390,W,000.0,000.0,030515,0,E*7C
$GPGGA,215800,3822.5627,N,12241.9390,W,1,04,0.9,25.908,M,0.0,M,,*5F
$GPRMC,215801,A,3822.5627,N,12241.9390,W,000.0,000.0,030515,0,E*7D
$GPGGA,215801,3822.5627,N,12241.9390,W,1,04,0.9,25.908,M,0.0,M,,*5E
$GPRMC,215821,A,3822.5627,N,12241.9390,W,000.0,000.0,030515,0,E*7F
$GPGGA,215821,3822.5627,N,12241.9390,W,1,04,0.9,25.908,M,0.0,M,,*5C
$GPRMC,215822,A,3822.5627,N,12241.9390,W,000.0,000.0,030515,0,E*7C
$GPGGA,215822,3822.5627,N,12241.9390,W,1,04,0.9,25.908,M,0.0,M,,*5F
$GPRMC,215842,A,3822.5627,N,12241.9390,W,000.0,000.0,030515,0,E*7A
$GPGGA,215842,3822.5627,N,12241.9390,W,1,04,0.9,25.908,M,0.0,M,,*59
$GPRMC,215844,A,3822.5627,N,12241.9390,W,000.0,000.0,030515,0,E*7C
$GPGGA,215844,3822.5627,N,12241.9390,W,1,04,0.9,25.908,M,0.0,M,,*5F
$GPRMC,215903,A,3822.5627,N,12241.9390,W,000.0,000.0,030515,0,E*7E
$GPGGA,215903,3822.5627,N,12241.9390,W,1,04,0.9,25.908,M,0.0,M,,*5D
$GPRMC,215904,A,3822.5627,N,12241.9390,W,000.0,000.0,030515,0,E*79
$GPGGA,215904,3822.5627,N,12241.9390,W,1,04,0.9,25.908,M,0.0,M,,*5A
$GPRMC,215923,A,3822.5627,N,12241.9390,W,000.0,000.0,030515,0,E*7C
$GPGGA,215923,3822.5627,N,12241.9390,W,1,04,0.9,25.908,M,0.0,M,,*5F
$GPRMC,215924,A,3822.5627,N,12241.9390,W,000.0,000.0,030515,0,E*7B
$GPGGA,215924,3822.5627,N,12241.9390,W,1,04,0.9,25.908,M,0.0,M,,*58
$GPRMC,215944,A,3822.5627,N,12241.9390,W,000.0,000.0,030515,0,E*7D
$GPGGA,215944,3822.5627,N,12241.9390,W,1,04,0.9,25.908,M,0.0,M,,*5E
$GPRMC,215945,A,3822.5627,N,12241.9390,W,000.0,000.0,030515,0,E*7C
$GPGGA,215945,3822.5627,N,12241.9390,W,1,04,0.9,25.908,M,0.0,M,,*5F
$GPRMC,220004,A,3822.5627,N,12241.9390,W,000.0,000.0,030515,0,E*76
$GPGGA,220004,3822.5627,N,12241.9390,W,1,04,0.9,25.908,M,0.0,M,,*55
$GPRMC,220005,A,3822.5627,N,12241.9390,W,000.0,000.0,030515,0,E*77
$GPGGA,220005,3822.5627,N,12241.9390,W,1,04,0.9,25.908,M,0.0,M,,*54
$GPRMC,220024,A,3822.5627,N,12241.9390,W,000.0,000.0,030515,0,E*74
$GPGGA,220024,3822.5627,N,12241.9390,W,1,04,0.9,25.908,M,0.0,M,,*57
$GPRMC,220025,A,3822.5627,N,12241.9390,W,000.0,000.0,030515,0,E*75
$GPGGA,220025,3822.5627,N,12241.9390,W,1,04,0.9,25.908,M,0.0,M,,*56
$GPRMC,220045,A,3822.5627,N,12241.9390,W,000.0,000.0,030515,0,E*73
$GPGGA,220045,3822.5627,N,12241.9390,W,1,04,0.9,25.908,M,0.0,M,,*50
$GPRMC,220046,A,3822.5627,N,12241.9390,W,000.0,000.0,030515,0,E*70
$GPGGA,220046,3822.5627,N,12241.9390,W,1,04,0.9,25.908,M,0.0,M,,*53
$GPRMC,220105,A,3822.5627,N,12241.9390,W,000.0,000.0,030515,0,E*76
$GPGGA,220105,3822.5627,N,12241.9390,W,1,04,0.9,25.908,M,0.0,M,,*55
$GPRMC,220106,A,3822.5627,N,12241.9390,W,000.0,000.0,030515,0,E*75
$GPGGA,220106,3822.5627,N,12241.9390,W,1,04,0.9,25.908,M,0.0,M,,*56
$GPRMC,220126,A,3822.5627,N,12241.9390,W,000.0,000.0,030515,0,E*77
$GPGGA,220126,3822.5627,N,12241.9390,W,1,04,0.9,25.908,M,0.0,M,,*54
$GPRMC,220126,A,3822.5627,N,12241.9390,W,000.0,000.0,030515,0,E*77
$GPGGA,220126,3822.5627,N,12241.9390,W,1,04,0.9,25.908,M,0.0,M,,*54
$GPRMC,220145,A,3822.5627,N,12241.9391,W,000.0,000.0,030515,0,E*73
$GPGGA,220145,3822.5627,N,12241.9391,W,1,04,0.9,25.908,M,0.0,M,,*50
$GPRMC,220147,A,3822.5627,N,12241.9391,W,000.0,000.0,030515,0,E*71
$GPGGA,220147,3822.5627,N,12241.9391,W,1,04,0.9,25.908,M,0.0,M,,*52
$GPRMC,220206,A,3822.5627,N,12241.9391,W,000.0,000.0,030515,0,E*77
$GPGGA,220206,3822.5627,N,12241.9391,W,1,04,0.9,25.908,M,0.0,M,,*54
$GPRMC,220207,A,3822.5627,N,12241.9391,W,000.0,000.0,030515,0,E*76
$GPGGA,220207,3822.5627,N,12241.9391,W,1,04,0.9,25.908,M,0.0,M,,*55
$GPRMC,220227,A,3822.5627,N,12241.9391,W,000.0,000.0,030515,0,E*74
$GPGGA,220227,3822.5627,N,12241.9391,W,1,04,0.9,25.908,M,0.0,M,,*57
$GPRMC,220228,A,3822.5627,N,12241.9391,W,000.0,000.0,030515,0,E*7B
$GPGGA,220228,3822.5627,N,12241.9391,W,1,04,0.9,25.908,M,0.0,M,,*58
$GPRMC,220248,A,3822.5627,N,12241.9391,W,000.0,000.0,030515,0,E*7D
$GPGGA,220248,3822.5627,N,12241.9391,W,1,04,0.9,25.908,M,0.0,M,,*5E
$GPRMC,220249,A,3822.5627,N,12241.9391,W,000.0,000.0,030515,0,E*7C
$GPGGA,220249,3822.5627,N,12241.9391,W,1,04,0.9,25.908,M,0.0,M,,*5F
$GPRMC,220308,A,3822.5627,N,12241.9391,W,000.0,000.0,030515,0,E*78
$GPGGA,220308,3822.5627,N,12241.9391,W,1,04,0.9,25.908,M,0.0,M,,*5B
$GPRMC,220309,A,3822.5627,N,12241.9391,W,000.0,000.0,030515,0,E*79
$GPGGA,220309,3822.5627,N,12241.9391,W,1,04,0.9,25.908,M,0.0,M,,*5A
$GPRMC,220328,A,3822.5627,N,12241.9391,W,000.0,000.0,030515,0,E*7A
$GPGGA,220328,3822.5627,N,12241.9391,W,1,04,0.9,25.908,M,0.0,M,,*59
$GPRMC,220329,A,3822.5627,N,12241.9391,W,000.0,000.0,030515,0,E*7B
$GPGGA,220329,3822.5627,N,12241.9391,W,1,04,0.9,25.908,M,0.0,M,,*58
$GPRMC,220349,A,3822.5627,N,12241.9391,W,000.0,000.0,030515,0,E*7D
$GPGGA,220349,3822.5627,N,12241.9391,W,1,04,0.9,25.908,M,0.0,M,,*5E
$GPRMC,220350,A,3822.5627,N,12241.9391,W,000.0,000.0,030515,0,E*75
$GPGGA,220350,3822.5627,N,12241.9391,W,1,04,0.9,25.908,M,0.0,M,,*56
$GPRMC,220409,A,3822.5627,N,12241.9391,W,000.0,000.0,030515,0,E*7E
$GPGGA,220409,3822.5627,N,12241.9391,W,1,04,0.9,25.908,M,0.0,M,,*5D
$GPRMC,220410,A,3822.5627,N,12241.9391,W,000.0,000.0,030515,0,E*76
$GPGGA,220410,3822.5627,N,12241.9391,W,1,04,0.9,25.908,M,0.0,M,,*55
$GPRMC,220430,A,3822.5627,N,12241.9391,W,000.0,000.0,030515,0,E*74
$GPGGA,220430,3822.5627,N,12241.9391,W,1,04,0.9,25.908,M,0.0,M,,*57
$GPRMC,220432,A,3822.5627,N,12241.9391,W,000.0,000.0,030515,0,E*76
$GPGGA,220432,3822.5627,N,12241.9391,W,1,04,0.9,25.908,M,0.0,M,,*55
$GPRMC,220451,A,3822.5627,N,12241.9391,W,000.0,000.0,030515,0,E*73
$GPGGA,220451,3822.5627,N,12241.9391,W,1,04,0.9,25.908,M,0.0,M,,*50
$GPRMC,220452,A,3822.5627,N,12241.9391,W,000.0,000.0,030515,0,E*70
$GPGGA,220452,3822.5627,N,12241.9391,W,1,04,0.9,25.908,M,0.0,M,,*53
$GPRMC,220512,A,3822.5627,N,12241.9391,W,000.0,000.0,030515,0,E*75
$GPGGA,220512,3822.5627,N,12241.9391,W,1,04,0.9,25.908,M,0.0,M,,*56
$GPRMC,220513,A,3822.5627,N,12241.9391,W,000.0,000.0,030515,0,E*74
$GPGGA,220513,3822.5627,N,12241.9391,W,1,04,0.9,25.908,M,0.0,M,,*57
$GPRMC,220533,A,3822.5627,N,12241.9391,W,000.0,000.0,030515,0,E*76
$GPGGA,220533,3822.5627,N,12241.9391,W,1,04,0.9,25.908,M,0.0,M,,*55
$GPRMC,220534,A,3822.5627,N,12241.9391,W,000.0,000.0,030515,0,E*71
$GPGGA,220534,3822.5627,N,12241.9391,W,1,04,0.9,25.908,M,0.0,M,,*52
$GPRMC,220554,A,3822.5627,N,12241.9392,W,000.0,000.0,030515,0,E*74
$GPGGA,220554,3822.5627,N,12241.9392,W,1,04,0.9,25.908,M,0.0,M,,*57
$GPRMC,220555,A,3822.5627,N,12241.9392,W,000.0,000.0,030515,0,E*75
$GPGGA,220555,3822.5627,N,12241.9392,W,1,04,0.9,25.908,M,0.0,M,,*56
$GPRMC,220615,A,3822.5627,N,12241.9392,W,000.0,000.0,030515,0,E*72
$GPGGA,220615,3822.5627,N,12241.9392,W,1,04,0.9,25.908,M,0.0,M,,*51
$GPRMC,220616,A,3822.5627,N,12241.9392,W,000.0,000.0,030515,0,E*71
$GPGGA,220616,3822.5627,N,12241.9392,W,1,04,0.9,25.908,M,0.0,M,,*52
$GPRMC,220637,A,3822.5627,N,12241.9392,W,000.0,000.0,030515,0,E*72
$GPGGA,220637,3822.5627,N,12241.9392,W,1,04,0.9,25.908,M,0.0,M,,*51
$GPRMC,220637,A,3822.5627,N,12241.9392,W,000.0,000.0,030515,0,E*72
$GPGGA,220637,3822.5627,N,12241.9392,W,1,04,0.9,25.908,M,0.0,M,,*51
$GPRMC,220658,A,3822.5627,N,12241.9392,W,000.0,000.0,030515,0,E*7B
$GPGGA,220658,3822.5627,N,12241.9392,W,1,04,0.9,26.8224,M,0.0,M,,*66
$GPRMC,220658,A,3822.5627,N,12241.9392,W,000.0,000.0,030515,0,E*7B
$GPGGA,220658,3822.5627,N,12241.9392,W,1,04,0.9,26.8224,M,0.0,M,,*66
$GPRMC,220718,A,3822.5627,N,12241.9392,W,000.0,000.0,030515,0,E*7E
$GPGGA,220718,3822.5627,N,12241.9392,W,1,04,0.9,26.8224,M,0.0,M,,*63
$GPRMC,220720,A,3822.5627,N,12241.9392,W,000.0,000.0,030515,0,E*75
$GPGGA,220720,3822.5627,N,12241.9392,W,1,04,0.9,26.8224,M,0.0,M,,*68
$GPRMC,220739,A,3822.5627,N,12241.9392,W,000.0,000.0,030515,0,E*7D
$GPGGA,220739,3822.5627,N,12241.9392,W,1,04,0.9,26.8224,M,0.0,M,,*60
$GPRMC,220740,A,3822.5627,N,12241.9392,W,000.0,000.0,030515,0,E*73
$GPGGA,220740,3822.5627,N,12241.9392,W,1,04,0.9,26.8224,M,0.0,M,,*6E
$GPRMC,220800,A,3822.5627,N,12241.9392,W,000.0,000.0,030515,0,E*78
$GPGGA,220800,3822.5627,N,12241.9392,W,1,04,0.9,26.8224,M,0.0,M,,*65
$GPRMC,220801,A,3822.5627,N,12241.9392,W,000.0,000.0,030515,0,E*79
$GPGGA,220801,3822.5627,N,12241.9392,W,1,04,0.9,26.8224,M,0.0,M,,*64
$GPRMC,220821,A,3822.5627,N,12241.9392,W,000.0,000.0,030515,0,E*7B
$GPGGA,220821,3822.5627,N,12241.9392,W,1,04,0.9,26.8224,M,0.0,M,,*66
$GPRMC,220822,A,3822.5627,N,12241.9392,W,000.0,000.0,030515,0,E*78
$GPGGA,220822,3822.5627,N,12241.9392,W,1,04,0.9,26.8224,M,0.0,M,,*65
$GPRMC,220842,A,3822.5627,N,12241.9392,W,000.0,000.0,030515,0,E*7E
$GPGGA,220842,3822.5627,N,12241.9392,W,1,04,0.9,26.8224,M,0.0,M,,*63
$GPRMC,220843,A,3822.5627,N,12241.9392,W,000.0,000.0,030515,0,E*7F
$GPGGA,220843,3822.5627,N,12241.9392,W,1,04,0.9,26.8224,M,0.0,M,,*62
$GPRMC,220903,A,3822.5627,N,12241.9393,W,000.0,000.0,030515,0,E*7B
$GPGGA,220903,3822.5627,N,12241.9393,W,1,04,0.9,26.8224,M,0.0,M,,*66
$GPRMC,220904,A,3822.5627,N,12241.9393,W,000.0,000.0,030515,0,E*7C
$GPGGA,220904,3822.5627,N,12241.9393,W,1,04,0.9,26.8224,M,0.0,M,,*61
$GPRMC,220924,A,3822.5627,N,12241.9393,W,000.0,000.0,030515,0,E*7E
$GPGGA,220924,3822.5627,N,12241.9393,W,1,04,0.9,26.8224,M,0.0,M,,*63
$GPRMC,220925,A,3822.5627,N,12241.9393,W,000.0,000.0,030515,0,E*7F
$GPGGA,220925,3822.5627,N,12241.9393,W,1,04,0.9,26.8224,M,0.0,M,,*62
$GPRMC,220945,A,3822.5627,N,12241.9393,W,000.0,000.0,030515,0,E*79
$GPGGA,220945,3822.5627,N,12241.9393,W,1,04,0.9,26.8224,M,0.0,M,,*64
$GPRMC,220946,A,3822.5627,N,12241.9393,W,000.0,000.0,030515,0,E*7A
$GPGGA,220946,3822.5627,N,12241.9393,W,1,04,0.9,26.8224,M,0.0,M,,*67
$GPRMC,221006,A,3822.5626,N,12241.9393,W,000.0,000.0,030515,0,E*77
$GPGGA,221006,3822.5626,N,12241.9393,W,1,04,0.9,26.8224,M,0.0,M,,*6A
$GPRMC,221007,A,3822.5626,N,12241.9393,W,000.0,000.0,030515,0,E*76
$GPGGA,221007,3822.5626,N,12241.9393,W,1,04,0.9,26.8224,M,0.0,M,,*6B
$GPRMC,221027,A,3822.5626,N,12241.9393,W,000.0,000.0,030515,0,E*74
$GPGGA,221027,3822.5626,N,12241.9393,W,1,04,0.9,26.8224,M,0.0,M,,*69
$GPRMC,221028,A,3822.5626,N,12241.9393,W,000.0,000.0,030515,0,E*7B
$GPGGA,221028,3822.5626,N,12241.9393,W,1,04,0.9,26.8224,M,0.0,M,,*66
$GPRMC,221047,A,3822.5626,N,12241.9393,W,000.0,000.0,030515,0,E*72
$GPGGA,221047,3822.5626,N,12241.9393,W,1,04,0.9,26.8224,M,0.0,M,,*6F
$GPRMC,221048,A,3822.5626,N,12241.9393,W,000.0,000.0,030515,0,E*7D
$GPGGA,221048,3822.5626,N,12241.9393,W,1,04,0.9,26.8224,M,0.0,M,,*60
$GPRMC,221107,A,3822.5626,N,12241.9393,W,000.0,000.0,030515,0,E*77
$GPGGA,221107,3822.5626,N,12241.9393,W,1,04,0.9,26.8224,M,0.0,M,,*6A
$GPRMC,221108,A,3822.5626,N,12241.9393,W,000.0,000.0,030515,0,E*78
$GPGGA,221108,3822.5626,N,12241.9393,W,1,04,0.9,26.8224,M,0.0,M,,*65
$GPRMC,221128,A,3822.5626,N,12241.9394,W,000.0,000.0,030515,0,E*7D
$GPGGA,221128,3822.5626,N,12241.9394,W,1,04,0.9,26.8224,M,0.0,M,,*60
$GPRMC,221129,A,3822.5626,N,12241.9394,W,000.0,000.0,030515,0,E*7C
$GPGGA,221129,3822.5626,N,12241.9394,W,1,04,0.9,26.8224,M,0.0,M,,*61
$GPRMC,221148,A,3822.5626,N,12241.9394,W,000.0,000.0,030515,0,E*7B
$GPGGA,221148,3822.5626,N,12241.9394,W,1,04,0.9,26.8224,M,0.0,M,,*66
$GPRMC,221149,A,3822.5626,N,12241.9394,W,000.0,000.0,030515,0,E*7A
$GPGGA,221149,3822.5626,N,12241.9394,W,1,04,0.9,26.8224,M,0.0,M,,*67
$GPRMC,221209,A,3822.5626,N,12241.9394,W,000.0,000.0,030515,0,E*7D
$GPGGA,221209,3822.5626,N,12241.9394,W,1,04,0.9,26.8224,M,0.0,M,,*60
$GPRMC,221210,A,3822.5626,N,12241.9394,W,000.0,000.0,030515,0,E*75
$GPGGA,221210,3822.5626,N,12241.9394,W,1,04,0.9,26.8224,M,0.0,M,,*68
$GPRMC,221230,A,3822.5626,N,12241.9394,W,000.0,000.0,030515,0,E*77
$GPGGA,221230,3822.5626,N,12241.9394,W,1,04,0.9,26.8224,M,0.0,M,,*6A
$GPRMC,221231,A,3822.5626,N,12241.9394,W,000.0,000.0,030515,0,E*76
$GPGGA,221231,3822.5626,N,12241.9394,W,1,04,0.9,26.8224,M,0.0,M,,*6B
$GPRMC,221250,A,3822.5626,N,12241.9394,W,000.0,000.0,030515,0,E*71
$GPGGA,221250,3822.5626,N,12241.9394,W,1,04,0.9,26.8224,M,0.0,M,,*6C
$GPRMC,221251,A,3822.5626,N,12241.9394,W,000.0,000.0,030515,0,E*70
$GPGGA,221251,3822.5626,N,12241.9394,W,1,04,0.9,26.8224,M,0.0,M,,*6D
$GPRMC,221310,A,3822.5626,N,12241.9394,W,000.0,000.0,030515,0,E*74
$GPGGA,221310,3822.5626,N,12241.9394,W,1,04,0.9,26.8224,M,0.0,M,,*69
$GPRMC,221311,A,3822.5626,N,12241.9394,W,000.0,000.0,030515,0,E*75
$GPGGA,221311,3822.5626,N,12241.9394,W,1,04,0.9,26.8224,M,0.0,M,,*68
$GPRMC,221331,A,3822.5626,N,12241.9394,W,000.0,000.0,030515,0,E*77
$GPGGA,221331,3822.5626,N,12241.9394,W,1,04,0.9,26.8224,M,0.0,M,,*6A
$GPRMC,221332,A,3822.5626,N,12241.9394,W,000.0,000.0,030515,0,E*74
$GPGGA,221332,3822.5626,N,12241.9394,W,1,04,0.9,26.8224,M,0.0,M,,*69
$GPRMC,221351,A,3822.5626,N,12241.9394,W,000.0,000.0,030515,0,E*71
$GPGGA,221351,3822.5626,N,12241.9394,W,1,04,0.9,26.8224,M,0.0,M,,*6C
$GPRMC,221352,A,3822.5626,N,12241.9394,W,000.0,000.0,030515,0,E*72
$GPGGA,221352,3822.5626,N,12241.9394,W,1,04,0.9,26.8224,M,0.0,M,,*6F
$GPRMC,221412,A,3822.5625,N,12241.9394,W,000.0,000.0,030515,0,E*72
$GPGGA,221412,3822.5625,N,12241.9394,W,1,04,0.9,26.8224,M,0.0,M,,*6F
$GPRMC,221413,A,3822.5625,N,12241.9394,W,000.0,000.0,030515,0,E*73
$GPGGA,221413,3822.5625,N,12241.9394,W,1,04,0.9,26.8224,M,0.0,M,,*6E
$GPRMC,221433,A,3822.5625,N,12241.9394,W,000.0,000.0,030515,0,E*71
$GPGGA,221433,3822.5625,N,12241.9394,W,1,04,0.9,26.8224,M,0.0,M,,*6C
$GPRMC,221434,A,3822.5625,N,12241.9394,W,000.0,000.0,030515,0,E*76
$GPGGA,221434,3822.5625,N,12241.9394,W,1,04,0.9,26.8224,M,0.0,M,,*6B
$GPRMC,221453,A,3822.5625,N,12241.9395,W,000.0,000.0,030515,0,E*76
$GPGGA,221453,3822.5625,N,12241.9395,W,1,04,0.9,26.8224,M,0.0,M,,*6B
$GPRMC,221454,A,3822.5625,N,12241.9395,W,000.0,000.0,030515,0,E*71
$GPGGA,221454,3822.5625,N,12241.9395,W,1,04,0.9,26.8224,M,0.0,M,,*6C
$GPRMC,221513,A,3822.5625,N,12241.9395,W,000.0,000.0,030515,0,E*73
$GPGGA,221513,3822.5625,N,12241.9395,W,1,04,0.9,26.8224,M,0.0,M,,*6E
$GPRMC,221514,A,3822.5625,N,12241.9395,W,000.0,000.0,030515,0,E*74
$GPGGA,221514,3822.5625,N,12241.9395,W,1,04,0.9,26.8224,M,0.0,M,,*69
$GPRMC,221534,A,3822.5625,N,12241.9395,W,000.0,000.0,030515,0,E*76
$GPGGA,221534,3822.5625,N,12241.9395,W,1,04,0.9,26.8224,M,0.0,M,,*6B
$GPRMC,221535,A,3822.5625,N,12241.9395,W,000.0,000.0,030515,0,E*77
$GPGGA,221535,3822.5625,N,12241.9395,W,1,04,0.9,26.8224,M,0.0,M,,*6A
$GPRMC,221554,A,3822.5625,N,12241.9395,W,000.0,000.0,030515,0,E*70
$GPGGA,221554,3822.5625,N,12241.9395,W,1,04,0.9,26.8224,M,0.0,M,,*6D
$GPRMC,221555,A,3822.5625,N,12241.9395,W,000.0,000.0,030515,0,E*71
$GPGGA,221555,3822.5625,N,12241.9395,W,1,04,0.9,26.8224,M,0.0,M,,*6C
$GPRMC,221614,A,3822.5625,N,12241.9395,W,000.0,000.0,030515,0,E*77
$GPGGA,221614,3822.5625,N,12241.9395,W,1,04,0.9,26.8224,M,0.0,M,,*6A
$GPRMC,221615,A,3822.5625,N,12241.9395,W,000.0,000.0,030515,0,E*76
$GPGGA,221615,3822.5625,N,12241.9395,W,1,04,0.9,26.8224,M,0.0,M,,*6B
$GPRMC,221634,A,3822.5625,N,12241.9395,W,000.0,000.0,030515,0,E*75
$GPGGA,221634,3822.5625,N,12241.9395,W,1,04,0.9,26.8224,M,0.0,M,,*68
$GPRMC,221635,A,3822.5625,N,12241.9395,W,000.0,000.0,030515,0,E*74
$GPGGA,221635,3822.5625,N,12241.9395,W,1,04,0.9,26.8224,M,0.0,M,,*69
$GPRMC,221655,A,3822.5625,N,12241.9395,W,000.0,000.0,030515,0,E*72
$GPGGA,221655,3822.5625,N,12241.9395,W,1,04,0.9,26.8224,M,0.0,M,,*6F
$GPRMC,221656,A,3822.5625,N,12241.9395,W,000.0,000.0,030515,0,E*71
$GPGGA,221656,3822.5625,N,12241.9395,W,1,04,0.9,26.8224,M,0.0,M,,*6C
$GPRMC,221715,A,3822.5625,N,12241.9395,W,000.0,000.0,030515,0,E*77
$GPGGA,221715,3822.5625,N,12241.9395,W,1,04,0.9,26.8224,M,0.0,M,,*6A
$GPRMC,221716,A,3822.5625,N,12241.9395,W,000.0,000.0,030515,0,E*74
$GPGGA,221716,3822.5625,N,12241.9395,W,1,04,0.9,26.8224,M,0.0,M,,*69
$GPRMC,221736,A,3822.5625,N,12241.9395,W,000.0,000.0,030515,0,E*76
$GPGGA,221736,3822.5625,N,12241.9395,W,1,04,0.9,26.8224,M,0.0,M,,*6B
$GPRMC,221738,A,3822.5625,N,12241.9395,W,000.0,000.0,030515,0,E*78
$GPGGA,221738,3822.5625,N,12241.9395,W,1,04,0.9,26.8224,M,0.0,M,,*65
$GPRMC,221757,A,3822.5625,N,12241.9395,W,000.0,000.0,030515,0,E*71
$GPGGA,221757,3822.5625,N,12241.9395,W,1,04,0.9,26.8224,M,0.0,M,,*6C
$GPRMC,221758,A,3822.5625,N,12241.9395,W,000.0,000.0,030515,0,E*7E
$GPGGA,221758,3822.5625,N,12241.9395,W,1,04,0.9,26.8224,M,0.0,M,,*63
$GPRMC,221818,A,3822.5625,N,12241.9395,W,000.0,000.0,030515,0,E*75
$GPGGA,221818,3822.5625,N,12241.9395,W,1,04,0.9,26.8224,M,0.0,M,,*68
$GPRMC,221819,A,3822.5625,N,12241.9395,W,000.0,000.0,030515,0,E*74
$GPGGA,221819,3822.5625,N,12241.9395,W,1,04,0.9,26.8224,M,0.0,M,,*69
$GPRMC,221839,A,3822.5625,N,12241.9395,W,000.0,000.0,030515,0,E*76
$GPGGA,221839,3822.5625,N,12241.9395,W,1,04,0.9,26.8224,M,0.0,M,,*6B
$GPRMC,221840,A,3822.5624,N,12241.9395,W,000.0,000.0,030515,0,E*79
$GPGGA,221840,3822.5624,N,12241.9395,W,1,04,0.9,26.8224,M,0.0,M,,*64
$GPRMC,221859,A,3822.5625,N,12241.9395,W,000.0,000.0,030515,0,E*70
$GPGGA,221859,3822.5625,N,12241.9395,W,1,04,0.9,26.8224,M,0.0,M,,*6D
$GPRMC,221901,A,3822.5625,N,12241.9395,W,000.0,000.0,030515,0,E*7C
$GPGGA,221901,3822.5625,N,12241.9395,W,1,04,0.9,26.8224,M,0.0,M,,*61
$GPRMC,221920,A,3822.5625,N,12241.9396,W,000.0,000.0,030515,0,E*7C
$GPGGA,221920,3822.5625,N,12241.9396,W,1,04,0.9,26.8224,M,0.0,M,,*61
$GPRMC,221921,A,3822.5625,N,12241.9396,W,000.0,000.0,030515,0,E*7D
$GPGGA,221921,3822.5625,N,12241.9396,W,1,04,0.9,26.8224,M,0.0,M,,*60
$GPRMC,221941,A,3822.5625,N,12241.9396,W,000.0,000.0,030515,0,E*7B
$GPGGA,221941,3822.5625,N,12241.9396,W,1,04,0.9,26.8224,M,0.0,M,,*66
$GPRMC,221942,A,3822.5625,N,12241.9396,W,000.0,000.0,030515,0,E*78
$GPGGA,221942,3822.5625,N,12241.9396,W,1,04,0.9,26.8224,M,0.0,M,,*65
$GPRMC,222001,A,3822.5625,N,12241.9396,W,000.0,000.0,030515,0,E*75
$GPGGA,222001,3822.5625,N,12241.9396,W,1,04,0.9,26.8224,M,0.0,M,,*68
$GPRMC,222002,A,3822.5625,N,12241.9396,W,000.0,000.0,030515,0,E*76
$GPGGA,222002,3822.5625,N,12241.9396,W,1,04,0.9,26.8224,M,0.0,M,,*6B
$GPRMC,222021,A,3822.5625,N,12241.9396,W,000.0,000.0,030515,0,E*77
$GPGGA,222021,3822.5625,N,12241.9396,W,1,04,0.9,26.8224,M,0.0,M,,*6A
$GPRMC,222023,A,3822.5625,N,12241.9396,W,000.0,000.0,030515,0,E*75
$GPGGA,222023,3822.5625,N,12241.9396,W,1,04,0.9,26.8224,M,0.0,M,,*68
$GPRMC,222042,A,3822.5625,N,12241.9396,W,000.0,000.0,030515,0,E*72
$GPGGA,222042,3822.5625,N,12241.9396,W,1,04,0.9,26.8224,M,0.0,M,,*6F
$GPRMC,222044,A,3822.5625,N,12241.9396,W,000.0,000.0,030515,0,E*74
$GPGGA,222044,3822.5625,N,12241.9396,W,1,04,0.9,26.8224,M,0.0,M,,*69
$GPRMC,222103,A,3822.5625,N,12241.9396,W,000.0,000.0,030515,0,E*76
$GPGGA,222103,3822.5625,N,12241.9396,W,1,04,0.9,26.8224,M,0.0,M,,*6B
$GPRMC,222105,A,3822.5625,N,12241.9396,W,000.0,000.0,030515,0,E*70
$GPGGA,222105,3822.5625,N,12241.9396,W,1,04,0.9,26.8224,M,0.0,M,,*6D
$GPRMC,222125,A,3822.5625,N,12241.9396,W,000.0,000.0,030515,0,E*72
$GPGGA,222125,3822.5625,N,12241.9396,W,1,04,0.9,26.8224,M,0.0,M,,*6F
$GPRMC,222125,A,3822.5625,N,12241.9396,W,000.0,000.0,030515,0,E*72
$GPGGA,222125,3822.5625,N,12241.9396,W,1,04,0.9,26.8224,M,0.0,M,,*6F
$GPRMC,222145,A,3822.5625,N,12241.9396,W,000.0,000.0,030515,0,E*74
$GPGGA,222145,3822.5625,N,12241.9396,W,1,04,0.9,26.8224,M,0.0,M,,*69
$GPRMC,222146,A,3822.5625,N,12241.9396,W,000.0,000.0,030515,0,E*77
$GPGGA,222146,3822.5625,N,12241.9396,W,1,04,0.9,26.8224,M,0.0,M,,*6A
$GPRMC,222207,A,3822.5625,N,12241.9396,W,000.0,000.0,030515,0,E*71
$GPGGA,222207,3822.5625,N,12241.9396,W,1,04,0.9,26.8224,M,0.0,M,,*6C
$GPRMC,222207,A,3822.5625,N,12241.9396,W,000.0,000.0,030515,0,E*71
$GPGGA,222207,3822.5625,N,12241.9396,W,1,04,0.9,26.8224,M,0.0,M,,*6C
$GPRMC,222227,A,3822.5625,N,12241.9396,W,000.0,000.0,030515,0,E*73
$GPGGA,222227,3822.5625,N,12241.9396,W,1,04,0.9,26.8224,M,0.0,M,,*6E
$GPRMC,222228,A,3822.5625,N,12241.9396,W,000.0,000.0,030515,0,E*7C
$GPGGA,222228,3822.5625,N,12241.9396,W,1,04,0.9,26.8224,M,0.0,M,,*61
$GPRMC,222248,A,3822.5625,N,12241.9396,W,000.0,000.0,030515,0,E*7A
$GPGGA,222248,3822.5625,N,12241.9396,W,1,04,0.9,26.8224,M,0.0,M,,*67
$GPRMC,222249,A,3822.5625,N,12241.9396,W,000.0,000.0,030515,0,E*7B
$GPGGA,222249,3822.5625,N,12241.9396,W,1,04,0.9,26.8224,M,0.0,M,,*66
$GPRMC,222309,A,3822.5625,N,12241.9396,W,000.0,000.0,030515,0,E*7E
$GPGGA,222309,3822.5625,N,12241.9396,W,1,04,0.9,26.8224,M,0.0,M,,*63
$GPRMC,222310,A,3822.5625,N,12241.9396,W,000.0,000.0,030515,0,E*76
$GPGGA,222310,3822.5625,N,12241.9396,W,1,04,0.9,26.8224,M,0.0,M,,*6B
$GPRMC,222329,A,3822.5625,N,12241.9396,W,000.0,000.0,030515,0,E*7C
$GPGGA,222329,3822.5625,N,12241.9396,W,1,04,0.9,26.8224,M,0.0,M,,*61
$GPRMC,222330,A,3822.5625,N,12241.9396,W,000.0,000.0,030515,0,E*74
$GPGGA,222330,3822.5625,N,12241.9396,W,1,04,0.9,26.8224,M,0.0,M,,*69
$GPRMC,222349,A,3822.5625,N,12241.9396,W,000.0,000.0,030515,0,E*7A
$GPGGA,222349,3822.5625,N,12241.9396,W,1,04,0.9,26.8224,M,0.0,M,,*67
$GPRMC,222350,A,3822.5625,N,12241.9396,W,000.0,000.0,030515,0,E*72
$GPGGA,222350,3822.5625,N,12241.9396,W,1,04,0.9,26.8224,M,0.0,M,,*6F
$GPRMC,222410,A,3822.5625,N,12241.9396,W,000.0,000.0,030515,0,E*71
$GPGGA,222410,3822.5625,N,12241.9396,W,1,04,0.9,26.8224,M,0.0,M,,*6C
$GPRMC,222411,A,3822.5625,N,12241.9396,W,000.0,000.0,030515,0,E*70
$GPGGA,222411,3822.5625,N,12241.9396,W,1,04,0.9,26.8224,M,0.0,M,,*6D
$GPRMC,222431,A,3822.5625,N,12241.9396,W,000.0,000.0,030515,0,E*72
$GPGGA,222431,3822.5625,N,12241.9396,W,1,04,0.9,26.8224,M,0.0,M,,*6F
$GPRMC,222432,A,3822.5625,N,12241.9396,W,000.0,000.0,030515,0,E*71
$GPGGA,222432,3822.5625,N,12241.9396,W,1,04,0.9,26.8224,M,0.0,M,,*6C
$GPRMC,222452,A,3822.5625,N,12241.9396,W,000.0,000.0,030515,0,E*77
$GPGGA,222452,3822.5625,N,12241.9396,W,1,04,0.9,26.8224,M,0.0,M,,*6A
$GPRMC,222453,A,3822.5625,N,12241.9396,W,000.0,000.0,030515,0,E*76
$GPGGA,222453,3822.5625,N,12241.9396,W,1,04,0.9,26.8224,M,0.0,M,,*6B
$GPRMC,222513,A,3822.5625,N,12241.9396,W,000.0,000.0,030515,0,E*73
$GPGGA,222513,3822.5625,N,12241.9396,W,1,04,0.9,26.8224,M,0.0,M,,*6E
$GPRMC,222514,A,3822.5625,N,12241.9396,W,000.0,000.0,030515,0,E*74
$GPGGA,222514,3822.5625,N,12241.9396,W,1,04,0.9,26.8224,M,0.0,M,,*69
$GPRMC,222534,A,3822.5625,N,12241.9396,W,000.0,000.0,030515,0,E*76
$GPGGA,222534,3822.5625,N,12241.9396,W,1,04,0.9,26.8224,M,0.0,M,,*6B
$GPRMC,222535,A,3822.5625,N,12241.9396,W,000.0,000.0,030515,0,E*77
$GPGGA,222535,3822.5625,N,12241.9396,W,1,04,0.9,26.8224,M,0.0,M,,*6A
$GPRMC,222555,A,3822.5625,N,12241.9396,W,000.0,000.0,030515,0,E*71
$GPGGA,222555,3822.5625,N,12241.9396,W,1,04,0.9,26.8224,M,0.0,M,,*6C
$GPRMC,222556,A,3822.5625,N,12241.9396,W,000.0,000.0,030515,0,E*72
$GPGGA,222556,3822.5625,N,12241.9396,W,1,04,0.9,26.8224,M,0.0,M,,*6F
$GPRMC,222616,A,3822.5625,N,12241.9396,W,000.0,000.0,030515,0,E*75
$GPGGA,222616,3822.5625,N,12241.9396,W,1,04,0.9,26.8224,M,0.0,M,,*68
$GPRMC,222617,A,3822.5625,N,12241.9396,W,000.0,000.0,030515,0,E*74
$GPGGA,222617,3822.5625,N,12241.9396,W,1,04,0.9,26.8224,M,0.0,M,,*69
$GPRMC,222637,A,3822.5625,N,12241.9396,W,000.0,000.0,030515,0,E*76
$GPGGA,222637,3822.5625,N,12241.9396,W,1,04,0.9,26.8224,M,0.0,M,,*6B
$GPRMC,222638,A,3822.5625,N,12241.9396,W,000.0,000.0,030515,0,E*79
$GPGGA,222638,3822.5625,N,12241.9396,W,1,04,0.9,26.8224,M,0.0,M,,*64
$GPRMC,222657,A,3822.5625,N,12241.9396,W,000.0,000.0,030515,0,E*70
$GPGGA,222657,3822.5625,N,12241.9396,W,1,04,0.9,26.8224,M,0.0,M,,*6D
$GPRMC,222659,A,3822.5625,N,12241.9396,W,000.0,000.0,030515,0,E*7E
$GPGGA,222659,3822.5625,N,12241.9396,W,1,04,0.9,26.8224,M,0.0,M,,*63
$GPRMC,222718,A,3822.5625,N,12241.9396,W,000.0,000.0,030515,0,E*7A
$GPGGA,222718,3822.5625,N,12241.9396,W,1,04,0.9,26.8224,M,0.0,M,,*67
$GPRMC,222719,A,3822.5625,N,12241.9396,W,000.0,000.0,030515,0,E*7B
$GPGGA,222719,3822.5625,N,12241.9396,W,1,04,0.9,26.8224,M,0.0,M,,*66
$GPRMC,222739,A,3822.5625,N,12241.9396,W,000.0,000.0,030515,0,E*79
$GPGGA,222739,3822.5625,N,12241.9396,W,1,04,0.9,26.8224,M,0.0,M,,*64
$GPRMC,222740,A,3822.5625,N,12241.9396,W,000.0,000.0,030515,0,E*77
$GPGGA,222740,3822.5625,N,12241.9396,W,1,04,0.9,26.8224,M,0.0,M,,*6A
$GPRMC,222759,A,3822.5625,N,12241.9396,W,000.0,000.0,030515,0,E*7F
$GPGGA,222759,3822.5625,N,12241.9396,W,1,04,0.9,26.8224,M,0.0,M,,*62
$GPRMC,222800,A,3822.5625,N,12241.9396,W,000.0,000.0,030515,0,E*7C
$GPGGA,222800,3822.5625,N,12241.9396,W,1,04,0.9,26.8224,M,0.0,M,,*61
$GPRMC,222819,A,3822.5625,N,12241.9396,W,000.0,000.0,030515,0,E*74
$GPGGA,222819,3822.5625,N,12241.9396,W,1,04,0.9,26.8224,M,0.0,M,,*69
$GPRMC,222821,A,3822.5625,N,12241.9396,W,000.0,000.0,030515,0,E*7F
$GPGGA,222821,3822.5625,N,12241.9396,W,1,04,0.9,26.8224,M,0.0,M,,*62
$GPRMC,222840,A,3822.5625,N,12241.9396,W,000.0,000.0,030515,0,E*78
$GPGGA,222840,3822.5625,N,12241.9396,W,1,04,0.9,26.8224,M,0.0,M,,*65
$GPRMC,222842,A,3822.5625,N,12241.9396,W,000.0,000.0,030515,0,E*7A
$GPGGA,222842,3822.5625,N,12241.9396,W,1,04,0.9,26.8224,M,0.0,M,,*67
$GPRMC,222900,A,3822.5625,N,12241.9396,W,000.0,000.0,030515,0,E*7D
$GPGGA,222900,3822.5625,N,12241.9396,W,1,04,0.9,26.8224,M,0.0,M,,*60
$GPRMC,222901,A,3822.5625,N,12241.9396,W,000.0,000.0,030515,0,E*7C
$GPGGA,222901,3822.5625,N,12241.9396,W,1,04,0.9,26.8224,M,0.0,M,,*61
$GPRMC,222921,A,3822.5625,N,12241.9396,W,000.0,000.0,030515,0,E*7E
$GPGGA,222921,3822.5625,N,12241.9396,W,1,04,0.9,26.8224,M,0.0,M,,*63
$GPRMC,222923,A,3822.5625,N,12241.9396,W,000.0,000.0,030515,0,E*7C
$GPGGA,222923,3822.5625,N,12241.9396,W,1,04,0.9,26.8224,M,0.0,M,,*61
$GPRMC,222942,A,3822.5625,N,12241.9396,W,000.0,000.0,030515,0,E*7B
$GPGGA,222942,3822.5625,N,12241.9396,W,1,04,0.9,26.8224,M,0.0,M,,*66
$GPRMC,222943,A,3822.5625,N,12241.9396,W,000.0,000.0,030515,0,E*7A
$GPGGA,222943,3822.5625,N,12241.9396,W,1,04,0.9,26.8224,M,0.0,M,,*67
$GPRMC,223003,A,3822.5625,N,12241.9396,W,000.0,000.0,030515,0,E*76
$GPGGA,223003,3822.5625,N,12241.9396,W,1,04,0.9,26.8224,M,0.0,M,,*6B
$GPRMC,223003,A,3822.5625,N,12241.9396,W,000.0,000.0,030515,0,E*76
$GPGGA,223003,3822.5625,N,12241.9396,W,1,04,0.9,26.8224,M,0.0,M,,*6B
$GPRMC,223022,A,3822.5625,N,12241.9396,W,000.0,000.0,030515,0,E*75
$GPGGA,223022,3822.5625,N,12241.9396,W,1,04,0.9,26.8224,M,0.0,M,,*68
$GPRMC,223023,A,3822.5625,N,12241.9396,W,000.0,000.0,030515,0,E*74
$GPGGA,223023,3822.5625,N,12241.9396,W,1,04,0.9,26.8224,M,0.0,M,,*69
$GPRMC,223043,A,3822.5625,N,12241.9396,W,000.0,000.0,030515,0,E*72
$GPGGA,223043,3822.5625,N,12241.9396,W,1,04,0.9,26.8224,M,0.0,M,,*6F
$GPRMC,223045,A,3822.5625,N,12241.9396,W,000.0,000.0,030515,0,E*74
$GPGGA,223045,3822.5625,N,12241.9396,W,1,04,0.9,26.8224,M,0.0,M,,*69
$GPRMC,223103,A,3822.5625,N,12241.9396,W,000.0,000.0,030515,0,E*77
$GPGGA,223103,3822.5625,N,12241.9396,W,1,04,0.9,26.8224,M,0.0,M,,*6A
$GPRMC,223105,A,3822.5625,N,12241.9396,W,000.0,000.0,030515,0,E*71
$GPGGA,223105,3822.5625,N,12241.9396,W,1,04,0.9,26.8224,M,0.0,M,,*6C
$GPRMC,223124,A,3822.5625,N,12241.9396,W,000.0,000.0,030515,0,E*72
$GPGGA,223124,3822.5625,N,12241.9396,W,1,04,0.9,26.8224,M,0.0,M,,*6F
$GPRMC,223125,A,3822.5625,N,12241.9396,W,000.0,000.0,030515,0,E*73
$GPGGA,223125,3822.5625,N,12241.9396,W,1,04,0.9,26.8224,M,0.0,M,,*6E
$GPRMC,223144,A,3822.5625,N,12241.9396,W,000.0,000.0,030515,0,E*74
$GPGGA,223144,3822.5625,N,12241.9396,W,1,04,0.9,26.8224,M,0.0,M,,*69
$GPRMC,223145,A,3822.5625,N,12241.9396,W,000.0,000.0,030515,0,E*75
$GPGGA,223145,3822.5625,N,12241.9396,W,1,04,0.9,26.8224,M,0.0,M,,*68
$GPRMC,223205,A,3822.5625,N,12241.9396,W,000.0,000.0,030515,0,E*72
$GPGGA,223205,3822.5625,N,12241.9396,W,1,04,0.9,26.8224,M,0.0,M,,*6F
$GPRMC,223206,A,3822.5625,N,12241.9396,W,000.0,000.0,030515,0,E*71
$GPGGA,223206,3822.5625,N,12241.9396,W,1,04,0.9,26.8224,M,0.0,M,,*6C
$GPRMC,223225,A,3822.5625,N,12241.9397,W,000.0,000.0,030515,0,E*71
$GPGGA,223225,3822.5625,N,12241.9397,W,1,04,0.9,26.8224,M,0.0,M,,*6C
$GPRMC,223227,A,3822.5625,N,12241.9397,W,000.0,000.0,030515,0,E*73
$GPGGA,223227,3822.5625,N,12241.9397,W,1,04,0.9,26.8224,M,0.0,M,,*6E
$GPRMC,223246,A,3822.5625,N,12241.9397,W,000.0,000.0,030515,0,E*74
$GPGGA,223246,3822.5625,N,12241.9397,W,1,04,0.9,26.8224,M,0.0,M,,*69
$GPRMC,223247,A,3822.5625,N,12241.9397,W,000.0,000.0,030515,0,E*75
$GPGGA,223247,3822.5625,N,12241.9397,W,1,04,0.9,26.8224,M,0.0,M,,*68
$GPRMC,223307,A,3822.5624,N,12241.9397,W,000.0,000.0,030515,0,E*71
$GPGGA,223307,3822.5624,N,12241.9397,W,1,04,0.9,26.8224,M,0.0,M,,*6C
$GPRMC,223307,A,3822.5624,N,12241.9397,W,000.0,000.0,030515,0,E*71
$GPGGA,223307,3822.5624,N,12241.9397,W,1,04,0.9,26.8224,M,0.0,M,,*6C
$GPRMC,223326,A,3822.5624,N,12241.9397,W,000.0,000.0,030515,0,E*72
$GPGGA,223326,3822.5624,N,12241.9397,W,1,04,0.9,26.8224,M,0.0,M,,*6F
$GPRMC,223327,A,3822.5624,N,12241.9397,W,000.0,000.0,030515,0,E*73
$GPGGA,223327,3822.5624,N,12241.9397,W,1,04,0.9,26.8224,M,0.0,M,,*6E
$GPRMC,223347,A,3822.5624,N,12241.9397,W,000.0,000.0,030515,0,E*75
$GPGGA,223347,3822.5624,N,12241.9397,W,1,04,0.9,26.8224,M,0.0,M,,*68
$GPRMC,223348,A,3822.5624,N,12241.9397,W,000.0,000.0,030515,0,E*7A
$GPGGA,223348,3822.5624,N,12241.9397,W,1,04,0.9,26.8224,M,0.0,M,,*67
$GPRMC,223408,A,3822.5624,N,12241.9397,W,000.0,000.0,030515,0,E*79
$GPGGA,223408,3822.5624,N,12241.9397,W,1,04,0.9,26.8224,M,0.0,M,,*64
$GPRMC,223410,A,3822.5624,N,12241.9397,W,000.0,000.0,030515,0,E*70
$GPGGA,223410,3822.5624,N,12241.9397,W,1,04,0.9,26.8224,M,0.0,M,,*6D
$GPRMC,223429,A,3822.5624,N,12241.9397,W,000.0,000.0,030515,0,E*7A
$GPGGA,223429,3822.5624,N,12241.9397,W,1,04,0.9,26.8224,M,0.0,M,,*67
$GPRMC,223430,A,3822.5624,N,12241.9397,W,000.0,000.0,030515,0,E*72
$GPGGA,223430,3822.5624,N,12241.9397,W,1,04,0.9,26.8224,M,0.0,M,,*6F
$GPRMC,223450,A,3822.5624,N,12241.9397,W,000.0,000.0,030515,0,E*74
$GPGGA,223450,3822.5624,N,12241.9397,W,1,04,0.9,26.8224,M,0.0,M,,*69
$GPRMC,223451,A,3822.5624,N,12241.9397,W,000.0,000.0,030515,0,E*75
$GPGGA,223451,3822.5624,N,12241.9397,W,1,04,0.9,26.8224,M,0.0,M,,*68
$GPRMC,223511,A,3822.5624,N,12241.9397,W,000.0,000.0,030515,0,E*70
$GPGGA,223511,3822.5624,N,12241.9397,W,1,04,0.9,26.8224,M,0.0,M,,*6D
$GPRMC,223511,A,3822.5624,N,12241.9397,W,000.0,000.0,030515,0,E*70
$GPGGA,223511,3822.5624,N,12241.9397,W,1,04,0.9,26.8224,M,0.0,M,,*6D
$GPRMC,223531,A,3822.5624,N,12241.9397,W,000.0,000.0,030515,0,E*72
$GPGGA,223531,3822.5624,N,12241.9397,W,1,04,0.9,26.8224,M,0.0,M,,*6F
$GPRMC,223532,A,3822.5624,N,12241.9397,W,000.0,000.0,030515,0,E*71
$GPGGA,223532,3822.5624,N,12241.9397,W,1,04,0.9,26.8224,M,0.0,M,,*6C
$GPRMC,223551,A,3822.5624,N,12241.9397,W,000.0,000.0,030515,0,E*74
$GPGGA,223551,3822.5624,N,12241.9397,W,1,04,0.9,26.8224,M,0.0,M,,*69
$GPRMC,223552,A,3822.5624,N,12241.9397,W,000.0,000.0,030515,0,E*77
$GPGGA,223552,3822.5624,N,12241.9397,W,1,04,0.9,26.8224,M,0.0,M,,*6A
$GPRMC,223612,A,3822.5624,N,12241.9397,W,000.0,000.0,030515,0,E*70
$GPGGA,223612,3822.5624,N,12241.9397,W,1,04,0.9,26.8224,M,0.0,M,,*6D
$GPRMC,223613,A,3822.5624,N,12241.9397,W,000.0,000.0,030515,0,E*71
$GPGGA,223613,3822.5624,N,12241.9397,W,1,04,0.9,26.8224,M,0.0,M,,*6C
