$GPRMC,101155,A,3707.5599,N,07630.1255,W,000.0,000.0,220315,0,E*7E
$GPGGA,101155,3707.5599,N,07630.1255,W,1,04,0.9,20.7264,M,0.0,M,,*6B
$GPRMC,101215,A,3707.5613,N,07630.1237,W,000.0,000.0,220315,0,E*7C
$GPGGA,101215,3707.5613,N,07630.1237,W,1,04,0.9,19.812,M,0.0,M,,*5F
$GPRMC,101216,A,3707.5612,N,07630.1231,W,000.0,000.0,220315,0,E*78
$GPGGA,101216,3707.5612,N,07630.1231,W,1,04,0.9,19.812,M,0.0,M,,*5B
$GPRMC,101220,A,3707.5594,N,07630.1199,W,003.0,124.0,220315,0,E*75
$GPGGA,101220,3707.5594,N,07630.1199,W,1,04,0.9,16.764,M,0.0,M,,*53
$GPRMC,101221,A,3707.5587,N,07630.1192,W,003.0,129.0,220315,0,E*70
$GPGGA,101221,3707.5587,N,07630.1192,W,1,04,0.9,17.9832,M,0.0,M,,*6F
$GPRMC,101222,A,3707.5580,N,07630.1184,W,003.0,133.0,220315,0,E*78
$GPGGA,101222,3707.5580,N,07630.1184,W,1,04,0.9,15.8496,M,0.0,M,,*6D
$GPRMC,101223,A,3707.5572,N,07630.1175,W,003.0,137.0,220315,0,E*7E
$GPGGA,101223,3707.5572,N,07630.1175,W,1,04,0.9,16.764,M,0.0,M,,*5A
$GPRMC,101228,A,3707.5527,N,07630.1129,W,003.0,141.0,220315,0,E*7D
$GPGGA,101228,3707.5527,N,07630.1129,W,1,04,0.9,18.8976,M,0.0,M,,*63
$GPRMC,101229,A,3707.5518,N,07630.1122,W,003.0,144.0,220315,0,E*7E
$GPGGA,101229,3707.5518,N,07630.1122,W,1,04,0.9,18.8976,M,0.0,M,,*65
$GPRMC,101230,A,3707.5509,N,07630.1117,W,003.0,147.0,220315,0,E*73
$GPGGA,101230,3707.5509,N,07630.1117,W,1,04,0.9,20.7264,M,0.0,M,,*67
$GPRMC,101235,A,3707.5470,N,07630.1096,W,003.0,152.0,220315,0,E*75
$GPGGA,101235,3707.5470,N,07630.1096,W,1,04,0.9,22.86,M,0.0,M,,*6E
$GPRMC,101236,A,3707.5467,N,07630.1093,W,000.0,152.0,220315,0,E*76
$GPGGA,101236,3707.5467,N,07630.1093,W,1,04,0.9,23.7744,M,0.0,M,,*61
$GPRMC,101247,A,3707.5458,N,07630.1063,W,000.0,152.0,220315,0,E*73
$GPGGA,101247,3707.5458,N,07630.1063,W,1,04,0.9,23.7744,M,0.0,M,,*64
$GPRMC,101248,A,3707.5458,N,07630.1076,W,000.0,152.0,220315,0,E*78
$GPGGA,101248,3707.5458,N,07630.1076,W,1,04,0.9,36.576,M,0.0,M,,*5F
$GPRMC,101307,A,3707.5471,N,07630.1076,W,000.0,152.0,220315,0,E*79
$GPGGA,101307,3707.5471,N,07630.1076,W,1,04,0.9,36.576,M,0.0,M,,*5E
$GPRMC,101308,A,3707.5471,N,07630.1076,W,000.0,152.0,220315,0,E*76
$GPGGA,101308,3707.5471,N,07630.1076,W,1,04,0.9,36.576,M,0.0,M,,*51
$GPRMC,101328,A,3707.5432,N,07630.1063,W,000.0,152.0,220315,0,E*77
$GPGGA,101328,3707.5432,N,07630.1063,W,1,04,0.9,36.576,M,0.0,M,,*50
$GPRMC,101329,A,3707.5420,N,07630.1050,W,000.0,152.0,220315,0,E*75
$GPGGA,101329,3707.5420,N,07630.1050,W,1,04,0.9,36.576,M,0.0,M,,*52
$GPRMC,101330,A,3707.5407,N,07630.1038,W,003.0,148.0,220315,0,E*7E
$GPGGA,101330,3707.5407,N,07630.1038,W,1,04,0.9,36.576,M,0.0,M,,*51
$GPRMC,101335,A,3707.5342,N,07630.0986,W,006.0,148.0,220315,0,E*75
$GPGGA,101335,3707.5342,N,07630.0986,W,1,04,0.9,36.576,M,0.0,M,,*5F
$GPRMC,101339,A,3707.5252,N,07630.0909,W,009.0,145.0,220315,0,E*7C
$GPGGA,101339,3707.5252,N,07630.0909,W,1,04,0.9,36.576,M,0.0,M,,*54
$GPRMC,101344,A,3707.5124,N,07630.0780,W,012.0,142.0,220315,0,E*76
$GPGGA,101344,3707.5124,N,07630.0780,W,1,04,0.9,36.576,M,0.0,M,,*53
$GPRMC,101345,A,3707.5111,N,07630.0754,W,012.0,138.0,220315,0,E*75
$GPGGA,101345,3707.5111,N,07630.0754,W,1,04,0.9,36.576,M,0.0,M,,*5D
$GPRMC,101346,A,3707.5098,N,07630.0716,W,012.0,131.0,220315,0,E*79
$GPGGA,101346,3707.5098,N,07630.0716,W,1,04,0.9,36.576,M,0.0,M,,*58
$GPRMC,101347,A,3707.5098,N,07630.0677,W,011.0,120.0,220315,0,E*7D
$GPGGA,101347,3707.5098,N,07630.0677,W,1,04,0.9,36.576,M,0.0,M,,*5F
$GPRMC,101348,A,3707.5098,N,07630.0638,W,011.0,107.0,220315,0,E*7C
$GPGGA,101348,3707.5098,N,07630.0638,W,1,04,0.9,36.576,M,0.0,M,,*5B
$GPRMC,101349,A,3707.5111,N,07630.0600,W,010.0,093.0,220315,0,E*7B
$GPGGA,101349,3707.5111,N,07630.0600,W,1,04,0.9,36.576,M,0.0,M,,*51
$GPRMC,101350,A,3707.5124,N,07630.0561,W,010.0,079.0,220315,0,E*75
$GPGGA,101350,3707.5124,N,07630.0561,W,1,04,0.9,36.576,M,0.0,M,,*5B
$GPRMC,101351,A,3707.5149,N,07630.0523,W,010.0,069.0,220315,0,E*78
$GPGGA,101351,3707.5149,N,07630.0523,W,1,04,0.9,36.576,M,0.0,M,,*57
$GPRMC,101352,A,3707.5162,N,07630.0484,W,011.0,063.0,220315,0,E*75
$GPGGA,101352,3707.5162,N,07630.0484,W,1,04,0.9,36.576,M,0.0,M,,*51
$GPRMC,101354,A,3707.5214,N,07630.0381,W,014.0,059.0,220315,0,E*7F
$GPGGA,101354,3707.5214,N,07630.0381,W,1,04,0.9,36.576,M,0.0,M,,*57
$GPRMC,101356,A,3707.5291,N,07630.0226,W,019.0,058.0,220315,0,E*70
$GPGGA,101356,3707.5291,N,07630.0226,W,1,04,0.9,36.576,M,0.0,M,,*54
$GPRMC,101357,A,3707.5342,N,07630.0136,W,022.0,058.0,220315,0,E*74
$GPGGA,101357,3707.5342,N,07630.0136,W,1,04,0.9,36.576,M,0.0,M,,*58
$GPRMC,101358,A,3707.5394,N,07630.0033,W,027.0,058.0,220315,0,E*71
$GPGGA,101358,3707.5394,N,07630.0033,W,1,04,0.9,36.576,M,0.0,M,,*58
$GPRMC,101359,A,3707.5458,N,07629.9918,W,031.0,058.0,220315,0,E*71
$GPGGA,101359,3707.5458,N,07629.9918,W,1,04,0.9,36.576,M,0.0,M,,*5F
$GPRMC,101400,A,3707.5510,N,07629.9789,W,035.0,058.0,220315,0,E*75
$GPGGA,101400,3707.5510,N,07629.9789,W,1,04,0.9,36.576,M,0.0,M,,*5F
$GPRMC,101401,A,3707.5587,N,07629.9647,W,039.0,058.0,220315,0,E*75
$GPGGA,101401,3707.5587,N,07629.9647,W,1,04,0.9,36.576,M,0.0,M,,*53
$GPRMC,101402,A,3707.5664,N,07629.9493,W,043.0,058.0,220315,0,E*7E
$GPGGA,101402,3707.5664,N,07629.9493,W,1,04,0.9,36.576,M,0.0,M,,*55
$GPRMC,101403,A,3707.5742,N,07629.9338,W,047.0,058.0,220315,0,E*78
$GPGGA,101403,3707.5742,N,07629.9338,W,1,04,0.9,36.576,M,0.0,M,,*57
$GPRMC,101405,A,3707.5922,N,07629.8990,W,054.0,058.0,220315,0,E*7D
$GPGGA,101405,3707.5922,N,07629.8990,W,1,04,0.9,36.576,M,0.0,M,,*50
$GPRMC,101407,A,3707.6102,N,07629.8604,W,059.0,058.0,220315,0,E*79
$GPGGA,101407,3707.6102,N,07629.8604,W,1,04,0.9,36.576,M,0.0,M,,*59
$GPRMC,101409,A,3707.6308,N,07629.8205,W,065.0,058.0,220315,0,E*75
$GPGGA,101409,3707.6308,N,07629.8205,W,1,04,0.9,36.576,M,0.0,M,,*5A
$GPRMC,101412,A,3707.6643,N,07629.7561,W,071.0,056.0,220315,0,E*74
$GPGGA,101412,3707.6643,N,07629.7561,W,1,04,0.9,36.576,M,0.0,M,,*50
$GPRMC,101416,A,3707.7119,N,07629.6660,W,076.0,056.0,220315,0,E*7D
$GPGGA,101416,3707.7119,N,07629.6660,W,1,04,0.9,36.576,M,0.0,M,,*5E
$GPRMC,101420,A,3707.7570,N,07629.5707,W,079.0,059.0,220315,0,E*70
$GPGGA,101420,3707.7570,N,07629.5707,W,1,04,0.9,38.1,M,0.0,M,,*58
$GPRMC,101423,A,3707.7930,N,07629.4987,W,080.0,059.0,220315,0,E*7A
$GPGGA,101423,3707.7930,N,07629.4987,W,1,04,0.9,48.7680000000001,M,0.0,M,,*5A
$GPRMC,101426,A,3707.8278,N,07629.4253,W,081.0,058.0,220315,0,E*75
$GPGGA,101426,3707.8278,N,07629.4253,W,1,04,0.9,59.4360000000001,M,0.0,M,,*5D
$GPRMC,101429,A,3707.8625,N,07629.3519,W,081.0,059.0,220315,0,E*79
$GPGGA,101429,3707.8625,N,07629.3519,W,1,04,0.9,73.1520000000001,M,0.0,M,,*5F
$GPRMC,101432,A,3707.8973,N,07629.2772,W,081.0,059.0,220315,0,E*71
$GPGGA,101432,3707.8973,N,07629.2772,W,1,04,0.9,88.3920000000001,M,0.0,M,,*5D
$GPRMC,101435,A,3707.9321,N,07629.2051,W,081.0,059.0,220315,0,E*7C
$GPGGA,101435,3707.9321,N,07629.2051,W,1,04,0.9,100.584,M,0.0,M,,*61
$GPRMC,101438,A,3707.9668,N,07629.1304,W,081.0,059.0,220315,0,E*79
$GPGGA,101438,3707.9668,N,07629.1304,W,1,04,0.9,114.3,M,0.0,M,,*6B
$GPRMC,101441,A,3708.0003,N,07629.0558,W,082.0,059.0,220315,0,E*77
$GPGGA,101441,3708.0003,N,07629.0558,W,1,04,0.9,126.492,M,0.0,M,,*6B
$GPRMC,101443,A,3708.0209,N,07629.0056,W,082.0,062.0,220315,0,E*7E
$GPGGA,101443,3708.0209,N,07629.0056,W,1,04,0.9,135.636,M,0.0,M,,*64
$GPRMC,101446,A,3708.0531,N,07628.9322,W,080.0,062.0,220315,0,E*7D
$GPGGA,101446,3708.0531,N,07628.9322,W,1,04,0.9,149.352,M,0.0,M,,*69
$GPRMC,101449,A,3708.0853,N,07628.8601,W,079.0,061.0,220315,0,E*7B
$GPGGA,101449,3708.0853,N,07628.8601,W,1,04,0.9,161.544,M,0.0,M,,*61
$GPRMC,101452,A,3708.1175,N,07628.7880,W,078.0,061.0,220315,0,E*74
$GPGGA,101452,3708.1175,N,07628.7880,W,1,04,0.9,172.212,M,0.0,M,,*69
$GPRMC,101455,A,3708.1497,N,07628.7146,W,079.0,061.0,220315,0,E*78
$GPGGA,101455,3708.1497,N,07628.7146,W,1,04,0.9,182.88,M,0.0,M,,*5A
$GPRMC,101459,A,3708.1921,N,07628.6129,W,082.0,062.0,220315,0,E*7B
$GPGGA,101459,3708.1921,N,07628.6129,W,1,04,0.9,195.072,M,0.0,M,,*6D
$GPRMC,101504,A,3708.2462,N,07628.4854,W,083.0,061.0,220315,0,E*78
$GPGGA,101504,3708.2462,N,07628.4854,W,1,04,0.9,207.264,M,0.0,M,,*61
$GPRMC,101508,A,3708.2913,N,07628.3876,W,081.0,059.0,220315,0,E*71
$GPGGA,101508,3708.2913,N,07628.3876,W,1,04,0.9,220.98,M,0.0,M,,*55
$GPRMC,101511,A,3708.3235,N,07628.3155,W,080.0,059.0,220315,0,E*7E
$GPGGA,101511,3708.3235,N,07628.3155,W,1,04,0.9,233.172,M,0.0,M,,*6C
$GPRMC,101514,A,3708.3582,N,07628.2447,W,079.0,059.0,220315,0,E*71
$GPGGA,101514,3708.3582,N,07628.2447,W,1,04,0.9,245.364,M,0.0,M,,*61
$GPRMC,101517,A,3708.3943,N,07628.1726,W,080.0,058.0,220315,0,E*73
$GPGGA,101517,3708.3943,N,07628.1726,W,1,04,0.9,256.032,M,0.0,M,,*66
$GPRMC,101520,A,3708.4316,N,07628.1005,W,082.0,058.0,220315,0,E*7E
$GPGGA,101520,3708.4316,N,07628.1005,W,1,04,0.9,266.7,M,0.0,M,,*6C
$GPRMC,101524,A,3708.4818,N,07628.0052,W,081.0,056.0,220315,0,E*71
$GPGGA,101524,3708.4818,N,07628.0052,W,1,04,0.9,278.892,M,0.0,M,,*65
$GPRMC,101528,A,3708.5192,N,07627.9357,W,081.0,055.0,220315,0,E*74
$GPGGA,101528,3708.5192,N,07627.9357,W,1,04,0.9,289.56,M,0.0,M,,*5D
$GPRMC,101531,A,3708.5694,N,07627.8417,W,081.0,055.0,220315,0,E*7F
$GPGGA,101531,3708.5694,N,07627.8417,W,1,04,0.9,300.228,M,0.0,M,,*6D
$GPRMC,101535,A,3708.6183,N,07627.7451,W,082.0,056.0,220315,0,E*74
$GPGGA,101535,3708.6183,N,07627.7451,W,1,04,0.9,310.896,M,0.0,M,,*68
$GPRMC,101540,A,3708.6814,N,07627.6228,W,083.0,058.0,220315,0,E*77
$GPGGA,101540,3708.6814,N,07627.6228,W,1,04,0.9,323.088,M,0.0,M,,*63
$GPRMC,101544,A,3708.7329,N,07627.5263,W,082.0,056.0,220315,0,E*74
$GPGGA,101544,3708.7329,N,07627.5263,W,1,04,0.9,333.756,M,0.0,M,,*6A
$GPRMC,101548,A,3708.7856,N,07627.4297,W,084.0,055.0,220315,0,E*74
$GPGGA,101548,3708.7856,N,07627.4297,W,1,04,0.9,344.424,M,0.0,M,,*69
$GPRMC,101553,A,3708.8539,N,07627.3112,W,084.0,053.0,220315,0,E*7A
$GPGGA,101553,3708.8539,N,07627.3112,W,1,04,0.9,356.616,M,0.0,M,,*61
$GPRMC,101557,A,3708.9092,N,07627.2147,W,084.0,053.0,220315,0,E*7A
$GPGGA,101557,3708.9092,N,07627.2147,W,1,04,0.9,367.284,M,0.0,M,,*6C
$GPRMC,101601,A,3708.9620,N,07627.1207,W,083.0,055.0,220315,0,E*70
$GPGGA,101601,3708.9620,N,07627.1207,W,1,04,0.9,379.476,M,0.0,M,,*63
$GPRMC,101604,A,3709.0007,N,07627.0499,W,082.0,055.0,220315,0,E*7F
$GPGGA,101604,3709.0007,N,07627.0499,W,1,04,0.9,390.144,M,0.0,M,,*6E
$GPRMC,101608,A,3709.0522,N,07626.9533,W,082.0,055.0,220315,0,E*78
$GPGGA,101608,3709.0522,N,07626.9533,W,1,04,0.9,400.812,M,0.0,M,,*6D
$GPRMC,101612,A,3709.1037,N,07626.8568,W,083.0,056.0,220315,0,E*7E
$GPGGA,101612,3709.1037,N,07626.8568,W,1,04,0.9,411.48,M,0.0,M,,*5E
$GPRMC,101616,A,3709.1577,N,07626.7589,W,085.0,055.0,220315,0,E*7E
$GPGGA,101616,3709.1577,N,07626.7589,W,1,04,0.9,422.148,M,0.0,M,,*6A
$GPRMC,101620,A,3709.2118,N,07626.6662,W,083.0,053.0,220315,0,E*72
$GPGGA,101620,3709.2118,N,07626.6662,W,1,04,0.9,435.864,M,0.0,M,,*67
$GPRMC,101623,A,3709.2517,N,07626.5980,W,081.0,053.0,220315,0,E*78
$GPGGA,101623,3709.2517,N,07626.5980,W,1,04,0.9,448.056,M,0.0,M,,*6C
$GPRMC,101626,A,3709.2903,N,07626.5323,W,080.0,053.0,220315,0,E*76
$GPGGA,101626,3709.2903,N,07626.5323,W,1,04,0.9,461.772000000001,M,0.0,M,,*58
$GPRMC,101629,A,3709.3303,N,07626.4654,W,079.0,053.0,220315,0,E*70
$GPGGA,101629,3709.3303,N,07626.4654,W,1,04,0.9,475.488000000001,M,0.0,M,,*5B
$GPRMC,101632,A,3709.3676,N,07626.3972,W,079.0,053.0,220315,0,E*71
$GPGGA,101632,3709.3676,N,07626.3972,W,1,04,0.9,486.156000000001,M,0.0,M,,*50
$GPRMC,101635,A,3709.4049,N,07626.3276,W,080.0,056.0,220315,0,E*77
$GPGGA,101635,3709.4049,N,07626.3276,W,1,04,0.9,496.824000000001,M,0.0,M,,*58
$GPRMC,101639,A,3709.4551,N,07626.2336,W,080.0,056.0,220315,0,E*73
$GPGGA,101639,3709.4551,N,07626.2336,W,1,04,0.9,507.492000000001,M,0.0,M,,*54
$GPRMC,101643,A,3709.5053,N,07626.1397,W,081.0,055.0,220315,0,E*72
$GPGGA,101643,3709.5053,N,07626.1397,W,1,04,0.9,518.160000000001,M,0.0,M,,*51
$GPRMC,101647,A,3709.5569,N,07626.0457,W,082.0,055.0,220315,0,E*73
$GPGGA,101647,3709.5569,N,07626.0457,W,1,04,0.9,528.828000000001,M,0.0,M,,*55
$GPRMC,101651,A,3709.6071,N,07625.9478,W,083.0,056.0,220315,0,E*7E
$GPGGA,101651,3709.6071,N,07625.9478,W,1,04,0.9,539.496000000001,M,0.0,M,,*53
$GPRMC,101655,A,3709.6547,N,07625.8474,W,083.0,059.0,220315,0,E*78
$GPGGA,101655,3709.6547,N,07625.8474,W,1,04,0.9,550.164000000001,M,0.0,M,,*5D
$GPRMC,101659,A,3709.6997,N,07625.7457,W,084.0,061.0,220315,0,E*77
$GPGGA,101659,3709.6997,N,07625.7457,W,1,04,0.9,562.356000000001,M,0.0,M,,*5C
$GPRMC,101703,A,3709.7435,N,07625.6414,W,083.0,062.0,220315,0,E*7F
$GPGGA,101703,3709.7435,N,07625.6414,W,1,04,0.9,574.548000000001,M,0.0,M,,*5E
$GPRMC,101707,A,3709.7873,N,07625.5384,W,084.0,062.0,220315,0,E*7F
$GPGGA,101707,3709.7873,N,07625.5384,W,1,04,0.9,586.740000000001,M,0.0,M,,*5E
$GPRMC,101712,A,3709.8465,N,07625.4058,W,087.0,061.0,220315,0,E*7C
$GPGGA,101712,3709.8465,N,07625.4058,W,1,04,0.9,597.408000000001,M,0.0,M,,*52
$GPRMC,101720,A,3709.9405,N,07625.1844,W,090.0,062.0,220315,0,E*7F
$GPGGA,101720,3709.9405,N,07625.1844,W,1,04,0.9,609.600000000001,M,0.0,M,,*5A
$GPRMC,101725,A,3709.9984,N,07625.0453,W,090.0,062.0,220315,0,E*75
$GPGGA,101725,3709.9984,N,07625.0453,W,1,04,0.9,620.268000000001,M,0.0,M,,*51
$GPRMC,101730,A,3710.0590,N,07624.9024,W,092.0,062.0,220315,0,E*77
$GPGGA,101730,3710.0590,N,07624.9024,W,1,04,0.9,630.936000000001,M,0.0,M,,*50
$GPRMC,101733,A,3710.0989,N,07624.8110,W,111.0,061.0,220315,0,E*7E
$GPGGA,101733,3710.0989,N,07624.8110,W,1,04,0.9,629.412000000001,M,0.0,M,,*53
$GPRMC,101739,A,3710.1826,N,07624.6218,W,103.0,061.0,220315,0,E*77
$GPGGA,101739,3710.1826,N,07624.6218,W,1,04,0.9,618.744000000001,M,0.0,M,,*5B
$GPRMC,101741,A,3710.2096,N,07624.5574,W,111.0,061.0,220315,0,E*75
$GPGGA,101741,3710.2096,N,07624.5574,W,1,04,0.9,618.744000000001,M,0.0,M,,*5A
$GPRMC,101742,A,3710.2238,N,07624.5239,W,105.0,061.0,220315,0,E*7B
$GPGGA,101742,3710.2238,N,07624.5239,W,1,04,0.9,617.220000000001,M,0.0,M,,*59
$GPRMC,101743,A,3710.2379,N,07624.4917,W,111.0,061.0,220315,0,E*7D
$GPGGA,101743,3710.2379,N,07624.4917,W,1,04,0.9,617.220000000001,M,0.0,M,,*5A
$GPRMC,101753,A,3710.3615,N,07624.1917,W,107.0,063.0,220315,0,E*72
$GPGGA,101753,3710.3615,N,07624.1917,W,1,04,0.9,618.744000000001,M,0.0,M,,*58
$GPRMC,101759,A,3710.4555,N,07623.9471,W,127.0,063.0,220315,0,E*78
$GPGGA,101759,3710.4555,N,07623.9471,W,1,04,0.9,615.696000000001,M,0.0,M,,*53
$GPRMC,101800,A,3710.4697,N,07623.9124,W,112.0,063.0,220315,0,E*75
$GPGGA,101800,3710.4697,N,07623.9124,W,1,04,0.9,614.172000000001,M,0.0,M,,*54
$GPRMC,101801,A,3710.4838,N,07623.8763,W,127.0,063.0,220315,0,E*7D
$GPGGA,101801,3710.4838,N,07623.8763,W,1,04,0.9,614.172000000001,M,0.0,M,,*5A
$GPRMC,101802,A,3710.4967,N,07623.8403,W,113.0,063.0,220315,0,E*77
$GPGGA,101802,3710.4967,N,07623.8403,W,1,04,0.9,612.648000000001,M,0.0,M,,*5F
$GPRMC,101803,A,3710.5109,N,07623.8055,W,127.0,063.0,220315,0,E*77
$GPGGA,101803,3710.5109,N,07623.8055,W,1,04,0.9,612.648000000001,M,0.0,M,,*58
$GPRMC,101804,A,3710.5250,N,07623.7695,W,113.0,063.0,220315,0,E*7D
$GPGGA,101804,3710.5250,N,07623.7695,W,1,04,0.9,611.124000000001,M,0.0,M,,*5B
$GPRMC,101806,A,3710.5533,N,07623.6986,W,127.0,063.0,220315,0,E*76
$GPGGA,101806,3710.5533,N,07623.6986,W,1,04,0.9,611.124000000001,M,0.0,M,,*57
$GPRMC,101807,A,3710.5675,N,07623.6626,W,114.0,063.0,220315,0,E*73
$GPGGA,101807,3710.5675,N,07623.6626,W,1,04,0.9,609.600000000001,M,0.0,M,,*5A
$GPRMC,101809,A,3710.5945,N,07623.5905,W,127.0,063.0,220315,0,E*7C
$GPGGA,101809,3710.5945,N,07623.5905,W,1,04,0.9,609.600000000001,M,0.0,M,,*55
$GPRMC,101810,A,3710.6087,N,07623.5544,W,114.0,063.0,220315,0,E*79
$GPGGA,101810,3710.6087,N,07623.5544,W,1,04,0.9,608.076000000001,M,0.0,M,,*56
$GPRMC,101818,A,3710.7155,N,07623.2686,W,113.0,065.0,220315,0,E*75
$GPGGA,101818,3710.7155,N,07623.2686,W,1,04,0.9,611.124000000001,M,0.0,M,,*55
$GPRMC,101824,A,3710.7928,N,07623.0549,W,112.0,065.0,220315,0,E*7B
$GPGGA,101824,3710.7928,N,07623.0549,W,1,04,0.9,618.744000000001,M,0.0,M,,*53
$GPRMC,101829,A,3710.8597,N,07622.8747,W,127.0,065.0,220315,0,E*72
$GPGGA,101829,3710.8597,N,07622.8747,W,1,04,0.9,618.744000000001,M,0.0,M,,*5C
$GPRMC,101831,A,3710.8868,N,07622.8013,W,115.0,065.0,220315,0,E*71
$GPGGA,101831,3710.8868,N,07622.8013,W,1,04,0.9,615.696000000001,M,0.0,M,,*5D
$GPRMC,101832,A,3710.9009,N,07622.7652,W,127.0,065.0,220315,0,E*71
$GPGGA,101832,3710.9009,N,07622.7652,W,1,04,0.9,615.696000000001,M,0.0,M,,*5C
$GPRMC,101837,A,3710.9731,N,07622.5786,W,127.0,063.0,220315,0,E*74
$GPGGA,101837,3710.9731,N,07622.5786,W,1,04,0.9,605.028000000001,M,0.0,M,,*5D
$GPRMC,101841,A,3711.0336,N,07622.4318,W,119.0,062.0,220315,0,E*70
$GPGGA,101841,3711.0336,N,07622.4318,W,1,04,0.9,597.408000000001,M,0.0,M,,*5B
$GPRMC,101842,A,3711.0503,N,07622.3958,W,127.0,062.0,220315,0,E*77
$GPGGA,101842,3711.0503,N,07622.3958,W,1,04,0.9,597.408000000001,M,0.0,M,,*51
$GPRMC,101843,A,3711.0670,N,07622.3623,W,118.0,061.0,220315,0,E*7D
$GPGGA,101843,3711.0670,N,07622.3623,W,1,04,0.9,595.884000000001,M,0.0,M,,*5E
$GPRMC,101845,A,3711.1031,N,07622.2966,W,116.0,058.0,220315,0,E*72
$GPGGA,101845,3711.1031,N,07622.2966,W,1,04,0.9,595.884000000001,M,0.0,M,,*55
$GPRMC,101847,A,3711.1430,N,07622.2387,W,114.0,053.0,220315,0,E*79
$GPGGA,101847,3711.1430,N,07622.2387,W,1,04,0.9,598.932000000001,M,0.0,M,,*56
$GPRMC,101848,A,3711.1636,N,07622.2116,W,112.0,051.0,220315,0,E*7C
$GPGGA,101848,3711.1636,N,07622.2116,W,1,04,0.9,600.456000000001,M,0.0,M,,*5A
$GPRMC,101849,A,3711.1868,N,07622.1884,W,111.0,048.0,220315,0,E*72
$GPGGA,101849,3711.1868,N,07622.1884,W,1,04,0.9,601.980000000001,M,0.0,M,,*58
$GPRMC,101850,A,3711.2099,N,07622.1653,W,109.0,044.0,220315,0,E*7E
$GPGGA,101850,3711.2099,N,07622.1653,W,1,04,0.9,603.504000000001,M,0.0,M,,*53
$GPRMC,101851,A,3711.2331,N,07622.1460,W,108.0,041.0,220315,0,E*78
$GPGGA,101851,3711.2331,N,07622.1460,W,1,04,0.9,606.552000000001,M,0.0,M,,*57
$GPRMC,101852,A,3711.2576,N,07622.1280,W,106.0,037.0,220315,0,E*79
$GPGGA,101852,3711.2576,N,07622.1280,W,1,04,0.9,608.076000000001,M,0.0,M,,*54
$GPRMC,101853,A,3711.2820,N,07622.1125,W,104.0,034.0,220315,0,E*7B
$GPGGA,101853,3711.2820,N,07622.1125,W,1,04,0.9,611.124000000001,M,0.0,M,,*59
$GPRMC,101854,A,3711.3078,N,07622.0996,W,103.0,030.0,220315,0,E*7A
$GPGGA,101854,3711.3078,N,07622.0996,W,1,04,0.9,614.172000000001,M,0.0,M,,*5D
$GPRMC,101855,A,3711.3348,N,07622.0893,W,101.0,025.0,220315,0,E*79
$GPGGA,101855,3711.3348,N,07622.0893,W,1,04,0.9,617.220000000001,M,0.0,M,,*5F
$GPRMC,101856,A,3711.3606,N,07622.0816,W,100.0,021.0,220315,0,E*7D
$GPGGA,101856,3711.3606,N,07622.0816,W,1,04,0.9,621.792000000001,M,0.0,M,,*57
$GPRMC,101857,A,3711.3876,N,07622.0764,W,099.0,017.0,220315,0,E*7B
$GPGGA,101857,3711.3876,N,07622.0764,W,1,04,0.9,624.840000000001,M,0.0,M,,*50
$GPRMC,101858,A,3711.4134,N,07622.0726,W,098.0,014.0,220315,0,E*78
$GPGGA,101858,3711.4134,N,07622.0726,W,1,04,0.9,629.412000000001,M,0.0,M,,*57
$GPRMC,101859,A,3711.4404,N,07622.0700,W,097.0,010.0,220315,0,E*70
$GPGGA,101859,3711.4404,N,07622.0700,W,1,04,0.9,632.460000000001,M,0.0,M,,*5B
$GPRMC,101901,A,3711.4662,N,07622.0700,W,096.0,007.0,220315,0,E*79
$GPGGA,101901,3711.4662,N,07622.0700,W,1,04,0.9,637.032000000001,M,0.0,M,,*53
$GPRMC,101902,A,3711.4932,N,07622.0713,W,095.0,003.0,220315,0,E*75
$GPGGA,101902,3711.4932,N,07622.0713,W,1,04,0.9,640.080000000001,M,0.0,M,,*51
$GPRMC,101903,A,3711.5460,N,07622.0790,W,095.0,000.0,220315,0,E*77
$GPGGA,101903,3711.5460,N,07622.0790,W,1,04,0.9,644.652000000001,M,0.0,M,,*5D
$GPRMC,101904,A,3711.5717,N,07622.0854,W,095.0,354.0,220315,0,E*76
$GPGGA,101904,3711.5717,N,07622.0854,W,1,04,0.9,652.272000000001,M,0.0,M,,*5F
$GPRMC,101905,A,3711.5988,N,07622.0932,W,095.0,352.0,220315,0,E*78
$GPGGA,101905,3711.5988,N,07622.0932,W,1,04,0.9,655.320000000001,M,0.0,M,,*56
$GPRMC,101906,A,3711.6232,N,07622.1022,W,095.0,349.0,220315,0,E*71
$GPGGA,101906,3711.6232,N,07622.1022,W,1,04,0.9,658.368000000001,M,0.0,M,,*54
$GPRMC,101907,A,3711.6490,N,07622.1138,W,095.0,346.0,220315,0,E*7B
$GPGGA,101907,3711.6490,N,07622.1138,W,1,04,0.9,661.416000000001,M,0.0,M,,*55
$GPRMC,101908,A,3711.6734,N,07622.1266,W,095.0,343.0,220315,0,E*74
$GPGGA,101908,3711.6734,N,07622.1266,W,1,04,0.9,664.464000000001,M,0.0,M,,*5F
$GPRMC,101909,A,3711.6979,N,07622.1395,W,095.0,340.0,220315,0,E*7C
$GPGGA,101909,3711.6979,N,07622.1395,W,1,04,0.9,667.512000000001,M,0.0,M,,*57
$GPRMC,101910,A,3711.7211,N,07622.1550,W,095.0,338.0,220315,0,E*70
$GPGGA,101910,3711.7211,N,07622.1550,W,1,04,0.9,670.560000000001,M,0.0,M,,*57
$GPRMC,101911,A,3711.7442,N,07622.1717,W,095.0,335.0,220315,0,E*7D
$GPGGA,101911,3711.7442,N,07622.1717,W,1,04,0.9,673.608000000001,M,0.0,M,,*59
$GPRMC,101912,A,3711.7674,N,07622.1910,W,095.0,332.0,220315,0,E*77
$GPGGA,101912,3711.7674,N,07622.1910,W,1,04,0.9,678.180000000001,M,0.0,M,,*58
$GPRMC,101913,A,3711.7893,N,07622.2104,W,095.0,329.0,220315,0,E*75
$GPGGA,101913,3711.7893,N,07622.2104,W,1,04,0.9,681.228000000001,M,0.0,M,,*57
$GPRMC,101914,A,3711.8099,N,07622.2310,W,095.0,326.0,220315,0,E*77
$GPGGA,101914,3711.8099,N,07622.2310,W,1,04,0.9,684.276000000001,M,0.0,M,,*54
$GPRMC,101915,A,3711.8305,N,07622.2528,W,095.0,323.0,220315,0,E*78
$GPGGA,101915,3711.8305,N,07622.2528,W,1,04,0.9,687.324000000001,M,0.0,M,,*5B
$GPRMC,101916,A,3711.8498,N,07622.2760,W,096.0,321.0,220315,0,E*77
$GPGGA,101916,3711.8498,N,07622.2760,W,1,04,0.9,691.896000000001,M,0.0,M,,*50
$GPRMC,101918,A,3711.8859,N,07622.3249,W,096.0,316.0,220315,0,E*73
$GPGGA,101918,3711.8859,N,07622.3249,W,1,04,0.9,697.992000000001,M,0.0,M,,*53
$GPRMC,101919,A,3711.9026,N,07622.3520,W,097.0,314.0,220315,0,E*78
$GPGGA,101919,3711.9026,N,07622.3520,W,1,04,0.9,701.040000000001,M,0.0,M,,*53
$GPRMC,101920,A,3711.9193,N,07622.3790,W,097.0,311.0,220315,0,E*71
$GPGGA,101920,3711.9193,N,07622.3790,W,1,04,0.9,704.088000000001,M,0.0,M,,*5E
$GPRMC,101921,A,3711.9361,N,07622.4073,W,097.0,308.0,220315,0,E*7A
$GPGGA,101921,3711.9361,N,07622.4073,W,1,04,0.9,708.660000000001,M,0.0,M,,*51
$GPRMC,101924,A,3711.9824,N,07622.4910,W,097.0,305.0,220315,0,E*74
$GPGGA,101924,3711.9824,N,07622.4910,W,1,04,0.9,716.280000000001,M,0.0,M,,*57
$GPRMC,101928,A,3712.0429,N,07622.6056,W,098.0,304.0,220315,0,E*74
$GPGGA,101928,3712.0429,N,07622.6056,W,1,04,0.9,728.472000000001,M,0.0,M,,*5F
$GPRMC,101933,A,3712.1189,N,07622.7523,W,100.0,302.0,220315,0,E*70
$GPGGA,101933,3712.1189,N,07622.7523,W,1,04,0.9,739.140000000001,M,0.0,M,,*59
$GPRMC,101940,A,3712.2257,N,07622.9583,W,100.0,302.0,220315,0,E*73
$GPGGA,101940,3712.2257,N,07622.9583,W,1,04,0.9,749.808000000001,M,0.0,M,,*58
$GPRMC,101943,A,3712.2747,N,07623.0421,W,100.0,305.0,220315,0,E*72
$GPGGA,101943,3712.2747,N,07623.0421,W,1,04,0.9,755.904000000001,M,0.0,M,,*5E
$GPRMC,101946,A,3712.3262,N,07623.1231,W,099.0,308.0,220315,0,E*7E
$GPGGA,101946,3712.3262,N,07623.1231,W,1,04,0.9,763.524000000001,M,0.0,M,,*55
$GPRMC,101951,A,3712.4111,N,07623.2596,W,099.0,308.0,220315,0,E*71
$GPGGA,101951,3712.4111,N,07623.2596,W,1,04,0.9,775.716000000001,M,0.0,M,,*5E
$GPRMC,101956,A,3712.4935,N,07623.3987,W,099.0,307.0,220315,0,E*7A
$GPGGA,101956,3712.4935,N,07623.3987,W,1,04,0.9,786.384000000001,M,0.0,M,,*59
$GPRMC,102002,A,3712.5927,N,07623.5699,W,101.0,305.0,220315,0,E*77
$GPGGA,102002,3712.5927,N,07623.5699,W,1,04,0.9,797.052000000001,M,0.0,M,,*5E
$GPRMC,102008,A,3712.6995,N,07623.7411,W,103.0,308.0,220315,0,E*78
$GPGGA,102008,3712.6995,N,07623.7411,W,1,04,0.9,804.672000000001,M,0.0,M,,*5F
$GPRMC,102014,A,3712.8090,N,07623.9059,W,103.0,309.0,220315,0,E*70
$GPGGA,102014,3712.8090,N,07623.9059,W,1,04,0.9,815.340000000001,M,0.0,M,,*52
$GPRMC,102018,A,3712.8785,N,07624.0128,W,099.0,308.0,220315,0,E*75
$GPGGA,102018,3712.8785,N,07624.0128,W,1,04,0.9,829.056000000001,M,0.0,M,,*5F
$GPRMC,102021,A,3712.9274,N,07624.0913,W,097.0,308.0,220315,0,E*7B
$GPGGA,102021,3712.9274,N,07624.0913,W,1,04,0.9,842.772000000001,M,0.0,M,,*53
$GPRMC,102024,A,3712.9789,N,07624.1686,W,096.0,309.0,220315,0,E*7B
$GPGGA,102024,3712.9789,N,07624.1686,W,1,04,0.9,854.964000000001,M,0.0,M,,*5D
$GPRMC,102028,A,3713.0510,N,07624.2703,W,097.0,311.0,220315,0,E*7A
$GPGGA,102028,3713.0510,N,07624.2703,W,1,04,0.9,867.156000000001,M,0.0,M,,*5D
$GPRMC,102036,A,3713.2003,N,07624.4801,W,101.0,311.0,220315,0,E*75
$GPGGA,102036,3713.2003,N,07624.4801,W,1,04,0.9,877.824000000001,M,0.0,M,,*51
$GPRMC,102042,A,3713.3124,N,07624.6359,W,100.0,311.0,220315,0,E*76
$GPGGA,102042,3713.3124,N,07624.6359,W,1,04,0.9,888.492000000001,M,0.0,M,,*52
$GPRMC,102046,A,3713.3857,N,07624.7376,W,098.0,311.0,220315,0,E*73
$GPGGA,102046,3713.3857,N,07624.7376,W,1,04,0.9,902.208000000001,M,0.0,M,,*51
$GPRMC,102049,A,3713.4398,N,07624.8123,W,097.0,311.0,220315,0,E*71
$GPGGA,102049,3713.4398,N,07624.8123,W,1,04,0.9,912.876000000001,M,0.0,M,,*5E
$GPRMC,102053,A,3713.5132,N,07624.9127,W,097.0,312.0,220315,0,E*7F
$GPGGA,102053,3713.5132,N,07624.9127,W,1,04,0.9,925.068000000001,M,0.0,M,,*50
$GPRMC,102058,A,3713.6059,N,07625.0389,W,099.0,312.0,220315,0,E*7B
$GPGGA,102058,3713.6059,N,07625.0389,W,1,04,0.9,935.736000000001,M,0.0,M,,*57
$GPRMC,102102,A,3713.6806,N,07625.1355,W,097.0,312.0,220315,0,E*79
$GPGGA,102102,3713.6806,N,07625.1355,W,1,04,0.9,946.404000000001,M,0.0,M,,*5D
$GPRMC,102105,A,3713.7372,N,07625.2050,W,095.0,315.0,220315,0,E*77
$GPGGA,102105,3713.7372,N,07625.2050,W,1,04,0.9,958.596000000001,M,0.0,M,,*53
$GPRMC,102108,A,3713.7939,N,07625.2706,W,093.0,316.0,220315,0,E*7E
$GPGGA,102108,3713.7939,N,07625.2706,W,1,04,0.9,970.788000000001,M,0.0,M,,*58
$GPRMC,102111,A,3713.8518,N,07625.3350,W,093.0,316.0,220315,0,E*70
$GPGGA,102111,3713.8518,N,07625.3350,W,1,04,0.9,982.980000000001,M,0.0,M,,*5D
$GPRMC,102115,A,3713.9290,N,07625.4213,W,093.0,318.0,220315,0,E*7D
$GPGGA,102115,3713.9290,N,07625.4213,W,1,04,0.9,995.172000000001,M,0.0,M,,*5D
$GPRMC,102120,A,3714.0269,N,07625.5307,W,094.0,318.0,220315,0,E*71
$GPGGA,102120,3714.0269,N,07625.5307,W,1,04,0.9,1005.84,M,0.0,M,,*6E
$GPRMC,102125,A,3714.1260,N,07625.6389,W,094.0,318.0,220315,0,E*79
$GPGGA,102125,3714.1260,N,07625.6389,W,1,04,0.9,1016.508,M,0.0,M,,*55
$GPRMC,102130,A,3714.2213,N,07625.7470,W,093.0,318.0,220315,0,E*7D
$GPGGA,102130,3714.2213,N,07625.7470,W,1,04,0.9,1028.7,M,0.0,M,,*51
$GPRMC,102134,A,3714.2960,N,07625.8333,W,091.0,316.0,220315,0,E*75
$GPGGA,102134,3714.2960,N,07625.8333,W,1,04,0.9,1040.892,M,0.0,M,,*5F
$GPRMC,102138,A,3714.3694,N,07625.9169,W,089.0,316.0,220315,0,E*79
$GPGGA,102138,3714.3694,N,07625.9169,W,1,04,0.9,1053.084,M,0.0,M,,*57
$GPRMC,102141,A,3714.4247,N,07625.9787,W,089.0,318.0,220315,0,E*72
$GPGGA,102141,3714.4247,N,07625.9787,W,1,04,0.9,1063.752,M,0.0,M,,*5D
$GPRMC,102145,A,3714.4994,N,07626.0611,W,089.0,318.0,220315,0,E*77
$GPGGA,102145,3714.4994,N,07626.0611,W,1,04,0.9,1074.42,M,0.0,M,,*68
$GPRMC,102151,A,3714.6127,N,07626.1860,W,090.0,318.0,220315,0,E*71
$GPGGA,102151,3714.6127,N,07626.1860,W,1,04,0.9,1085.088,M,0.0,M,,*5E
$GPRMC,102158,A,3714.7492,N,07626.3315,W,092.0,319.0,220315,0,E*7A
$GPGGA,102158,3714.7492,N,07626.3315,W,1,04,0.9,1095.756,M,0.0,M,,*53
$GPRMC,102203,A,3714.8457,N,07626.4345,W,092.0,319.0,220315,0,E*73
$GPGGA,102203,3714.8457,N,07626.4345,W,1,04,0.9,1106.424,M,0.0,M,,*57
$GPRMC,102208,A,3714.9436,N,07626.5388,W,092.0,319.0,220315,0,E*7E
$GPGGA,102208,3714.9436,N,07626.5388,W,1,04,0.9,1117.092,M,0.0,M,,*53
$GPRMC,102213,A,3715.0427,N,07626.6443,W,093.0,319.0,220315,0,E*7E
$GPGGA,102213,3715.0427,N,07626.6443,W,1,04,0.9,1129.284,M,0.0,M,,*5A
$GPRMC,102218,A,3715.1418,N,07626.7486,W,093.0,319.0,220315,0,E*70
$GPGGA,102218,3715.1418,N,07626.7486,W,1,04,0.9,1141.476,M,0.0,M,,*51
$GPRMC,102222,A,3715.2204,N,07626.8323,W,093.0,319.0,220315,0,E*76
$GPGGA,102222,3715.2204,N,07626.8323,W,1,04,0.9,1152.144,M,0.0,M,,*51
$GPRMC,102225,A,3715.2796,N,07626.8954,W,092.0,319.0,220315,0,E*74
$GPGGA,102225,3715.2796,N,07626.8954,W,1,04,0.9,1162.812,M,0.0,M,,*5B
$GPRMC,102229,A,3715.3568,N,07626.9778,W,092.0,319.0,220315,0,E*7B
$GPGGA,102229,3715.3568,N,07626.9778,W,1,04,0.9,1175.004,M,0.0,M,,*5D
$GPRMC,102232,A,3715.4161,N,07627.0396,W,092.0,319.0,220315,0,E*77
$GPGGA,102232,3715.4161,N,07627.0396,W,1,04,0.9,1185.672,M,0.0,M,,*59
$GPRMC,102236,A,3715.4959,N,07627.1233,W,093.0,319.0,220315,0,E*7E
$GPGGA,102236,3715.4959,N,07627.1233,W,1,04,0.9,1196.34,M,0.0,M,,*67
$GPRMC,102240,A,3715.5757,N,07627.2083,W,094.0,319.0,220315,0,E*73
$GPGGA,102240,3715.5757,N,07627.2083,W,1,04,0.9,1207.008,M,0.0,M,,*59
$GPRMC,102244,A,3715.6568,N,07627.2932,W,094.0,319.0,220315,0,E*79
$GPGGA,102244,3715.6568,N,07627.2932,W,1,04,0.9,1217.676,M,0.0,M,,*5D
$GPRMC,102248,A,3715.7379,N,07627.3769,W,094.0,319.0,220315,0,E*73
$GPGGA,102248,3715.7379,N,07627.3769,W,1,04,0.9,1228.344,M,0.0,M,,*5F
$GPRMC,102252,A,3715.8203,N,07627.4593,W,094.0,321.0,220315,0,E*70
$GPGGA,102252,3715.8203,N,07627.4593,W,1,04,0.9,1239.012,M,0.0,M,,*57
$GPRMC,102256,A,3715.9040,N,07627.5417,W,094.0,321.0,220315,0,E*7C
$GPGGA,102256,3715.9040,N,07627.5417,W,1,04,0.9,1249.68,M,0.0,M,,*61
$GPRMC,102300,A,3715.9864,N,07627.6241,W,095.0,321.0,220315,0,E*77
$GPGGA,102300,3715.9864,N,07627.6241,W,1,04,0.9,1260.348,M,0.0,M,,*51
$GPRMC,102305,A,3716.0907,N,07627.7284,W,096.0,321.0,220315,0,E*77
$GPGGA,102305,3716.0907,N,07627.7284,W,1,04,0.9,1272.54,M,0.0,M,,*6F
$GPRMC,102310,A,3716.1950,N,07627.8340,W,096.0,321.0,220315,0,E*76
$GPGGA,102310,3716.1950,N,07627.8340,W,1,04,0.9,1283.208,M,0.0,M,,*5B
$GPRMC,102314,A,3716.2761,N,07627.9202,W,096.0,319.0,220315,0,E*70
$GPGGA,102314,3716.2761,N,07627.9202,W,1,04,0.9,1293.876,M,0.0,M,,*54
$GPRMC,102318,A,3716.3572,N,07628.0065,W,095.0,319.0,220315,0,E*7B
$GPGGA,102318,3716.3572,N,07628.0065,W,1,04,0.9,1306.068,M,0.0,M,,*56
$GPRMC,102322,A,3716.4383,N,07628.0940,W,095.0,318.0,220315,0,E*72
$GPGGA,102322,3716.4383,N,07628.0940,W,1,04,0.9,1316.736,M,0.0,M,,*53
$GPRMC,102326,A,3716.5181,N,07628.1816,W,095.0,318.0,220315,0,E*74
$GPGGA,102326,3716.5181,N,07628.1816,W,1,04,0.9,1328.928,M,0.0,M,,*59
$GPRMC,102331,A,3716.6186,N,07628.2936,W,096.0,318.0,220315,0,E*75
$GPGGA,102331,3716.6186,N,07628.2936,W,1,04,0.9,1341.12,M,0.0,M,,*64
$GPRMC,102336,A,3716.7190,N,07628.4056,W,096.0,318.0,220315,0,E*7D
$GPGGA,102336,3716.7190,N,07628.4056,W,1,04,0.9,1353.312,M,0.0,M,,*5C
$GPRMC,102340,A,3716.8001,N,07628.4957,W,096.0,318.0,220315,0,E*72
$GPGGA,102340,3716.8001,N,07628.4957,W,1,04,0.9,1363.98,M,0.0,M,,*61
$GPRMC,102344,A,3716.8799,N,07628.5846,W,096.0,318.0,220315,0,E*70
$GPGGA,102344,3716.8799,N,07628.5846,W,1,04,0.9,1376.172,M,0.0,M,,*52
$GPRMC,102348,A,3716.9597,N,07628.6734,W,096.0,318.0,220315,0,E*78
$GPGGA,102348,3716.9597,N,07628.6734,W,1,04,0.9,1388.364,M,0.0,M,,*5E
$GPRMC,102352,A,3717.0396,N,07628.7610,W,096.0,318.0,220315,0,E*7A
$GPGGA,102352,3717.0396,N,07628.7610,W,1,04,0.9,1400.556,M,0.0,M,,*5C
$GPRMC,102356,A,3717.1207,N,07628.8485,W,096.0,318.0,220315,0,E*77
$GPGGA,102356,3717.1207,N,07628.8485,W,1,04,0.9,1412.748,M,0.0,M,,*5F
$GPRMC,102400,A,3717.2005,N,07628.9373,W,095.0,318.0,220315,0,E*7C
$GPGGA,102400,3717.2005,N,07628.9373,W,1,04,0.9,1424.94,M,0.0,M,,*64
$GPRMC,102404,A,3717.2803,N,07629.0249,W,095.0,318.0,220315,0,E*76
$GPGGA,102404,3717.2803,N,07629.0249,W,1,04,0.9,1437.132,M,0.0,M,,*51
$GPRMC,102407,A,3717.3383,N,07629.0905,W,094.0,318.0,220315,0,E*75
$GPGGA,102407,3717.3383,N,07629.0905,W,1,04,0.9,1447.8,M,0.0,M,,*5C
$GPRMC,102411,A,3717.4155,N,07629.1794,W,094.0,316.0,220315,0,E*75
$GPGGA,102411,3717.4155,N,07629.1794,W,1,04,0.9,1459.992,M,0.0,M,,*57
$GPRMC,102415,A,3717.4927,N,07629.2682,W,094.0,316.0,220315,0,E*79
$GPGGA,102415,3717.4927,N,07629.2682,W,1,04,0.9,1472.184,M,0.0,M,,*5D
$GPRMC,102419,A,3717.5687,N,07629.3583,W,094.0,316.0,220315,0,E*72
$GPGGA,102419,3717.5687,N,07629.3583,W,1,04,0.9,1482.852,M,0.0,M,,*5B
$GPRMC,102425,A,3717.6653,N,07629.4716,W,095.0,316.0,220315,0,E*7F
$GPGGA,102425,3717.6653,N,07629.4716,W,1,04,0.9,1493.52,M,0.0,M,,*6F
$GPRMC,102429,A,3717.7618,N,07629.5862,W,095.0,315.0,220315,0,E*73
$GPGGA,102429,3717.7618,N,07629.5862,W,1,04,0.9,1504.188,M,0.0,M,,*59
$GPRMC,102434,A,3717.8571,N,07629.7021,W,095.0,315.0,220315,0,E*71
$GPGGA,102434,3717.8571,N,07629.7021,W,1,04,0.9,1514.856,M,0.0,M,,*50
$GPRMC,102440,A,3717.9756,N,07629.8540,W,111.0,314.0,220315,0,E*75
$GPGGA,102440,3717.9756,N,07629.8540,W,1,04,0.9,1520.952,M,0.0,M,,*5A
$GPRMC,102446,A,3718.0992,N,07630.0188,W,111.0,312.0,220315,0,E*75
$GPGGA,102446,3718.0992,N,07630.0188,W,1,04,0.9,1510.284,M,0.0,M,,*5F
$GPRMC,102503,A,3718.4467,N,07630.5119,W,112.0,311.0,220315,0,E*7B
$GPGGA,102503,3718.4467,N,07630.5119,W,1,04,0.9,1513.332,M,0.0,M,,*5E
$GPRMC,102504,A,3718.4673,N,07630.5428,W,127.0,311.0,220315,0,E*7A
$GPGGA,102504,3718.4673,N,07630.5428,W,1,04,0.9,1513.332,M,0.0,M,,*59
$GPRMC,102505,A,3718.4893,N,07630.5724,W,113.0,311.0,220315,0,E*73
$GPGGA,102505,3718.4893,N,07630.5724,W,1,04,0.9,1511.808,M,0.0,M,,*57
$GPRMC,102508,A,3718.5511,N,07630.6638,W,127.0,309.0,220315,0,E*79
$GPGGA,102508,3718.5511,N,07630.6638,W,1,04,0.9,1511.808,M,0.0,M,,*53
$GPRMC,102509,A,3718.5717,N,07630.6947,W,115.0,309.0,220315,0,E*7A
$GPGGA,102509,3718.5717,N,07630.6947,W,1,04,0.9,1510.284,M,0.0,M,,*5E
$GPRMC,102512,A,3718.6347,N,07630.7874,W,127.0,309.0,220315,0,E*73
$GPGGA,102512,3718.6347,N,07630.7874,W,1,04,0.9,1510.284,M,0.0,M,,*56
$GPRMC,102513,A,3718.6553,N,07630.8183,W,116.0,309.0,220315,0,E*7D
$GPGGA,102513,3718.6553,N,07630.8183,W,1,04,0.9,1508.76,M,0.0,M,,*6C
$GPRMC,102533,A,3719.0712,N,07631.4466,W,117.0,309.0,220315,0,E*7D
$GPGGA,102533,3719.0712,N,07631.4466,W,1,04,0.9,1511.808,M,0.0,M,,*54
$GPRMC,102534,A,3719.0918,N,07631.4788,W,117.0,309.0,220315,0,E*7D
$GPGGA,102534,3719.0918,N,07631.4788,W,1,04,0.9,1511.808,M,0.0,M,,*54
$GPRMC,102540,A,3719.2180,N,07631.6706,W,127.0,309.0,220315,0,E*72
$GPGGA,102540,3719.2180,N,07631.6706,W,1,04,0.9,1511.808,M,0.0,M,,*58
$GPRMC,102541,A,3719.2386,N,07631.7015,W,118.0,309.0,220315,0,E*7F
$GPGGA,102541,3719.2386,N,07631.7015,W,1,04,0.9,1510.284,M,0.0,M,,*56
$GPRMC,102546,A,3719.3428,N,07631.8611,W,118.0,309.0,220315,0,E*77
$GPGGA,102546,3719.3428,N,07631.8611,W,1,04,0.9,1510.284,M,0.0,M,,*5E
$GPRMC,102547,A,3719.3634,N,07631.8933,W,127.0,309.0,220315,0,E*7A
$GPGGA,102547,3719.3634,N,07631.8933,W,1,04,0.9,1510.284,M,0.0,M,,*5F
$GPRMC,102548,A,3719.3853,N,07631.9242,W,118.0,309.0,220315,0,E*7A
$GPGGA,102548,3719.3853,N,07631.9242,W,1,04,0.9,1508.76,M,0.0,M,,*65
$GPRMC,102608,A,3719.8037,N,07632.5538,W,117.0,309.0,220315,0,E*76
$GPGGA,102608,3719.8037,N,07632.5538,W,1,04,0.9,1510.284,M,0.0,M,,*50
$GPRMC,102609,A,3719.8256,N,07632.5847,W,117.0,309.0,220315,0,E*77
$GPGGA,102609,3719.8256,N,07632.5847,W,1,04,0.9,1510.284,M,0.0,M,,*51
$GPRMC,102629,A,3720.2363,N,07633.2143,W,116.0,308.0,220315,0,E*79
$GPGGA,102629,3720.2363,N,07633.2143,W,1,04,0.9,1510.284,M,0.0,M,,*5F
$GPRMC,102630,A,3720.2556,N,07633.2465,W,116.0,308.0,220315,0,E*70
$GPGGA,102630,3720.2556,N,07633.2465,W,1,04,0.9,1510.284,M,0.0,M,,*56
$GPRMC,102647,A,3720.5930,N,07633.7872,W,115.0,308.0,220315,0,E*77
$GPGGA,102647,3720.5930,N,07633.7872,W,1,04,0.9,1510.284,M,0.0,M,,*52
$GPRMC,102648,A,3720.6136,N,07633.8181,W,127.0,308.0,220315,0,E*7E
$GPGGA,102648,3720.6136,N,07633.8181,W,1,04,0.9,1510.284,M,0.0,M,,*5A
$GPRMC,102649,A,3720.6329,N,07633.8490,W,115.0,308.0,220315,0,E*77
$GPGGA,102649,3720.6329,N,07633.8490,W,1,04,0.9,1508.76,M,0.0,M,,*64
$GPRMC,102654,A,3720.7307,N,07634.0074,W,127.0,308.0,220315,0,E*76
$GPGGA,102654,3720.7307,N,07634.0074,W,1,04,0.9,1508.76,M,0.0,M,,*64
$GPRMC,102655,A,3720.7513,N,07634.0382,W,114.0,308.0,220315,0,E*7E
$GPGGA,102655,3720.7513,N,07634.0382,W,1,04,0.9,1507.236,M,0.0,M,,*55
$GPRMC,102707,A,3720.9831,N,07634.4116,W,112.0,308.0,220315,0,E*76
$GPGGA,102707,3720.9831,N,07634.4116,W,1,04,0.9,1510.284,M,0.0,M,,*54
$GPRMC,102709,A,3721.0230,N,07634.4734,W,127.0,308.0,220315,0,E*7B
$GPGGA,102709,3721.0230,N,07634.4734,W,1,04,0.9,1511.808,M,0.0,M,,*50
$GPRMC,102710,A,3721.0423,N,07634.5043,W,113.0,308.0,220315,0,E*76
$GPGGA,102710,3721.0423,N,07634.5043,W,1,04,0.9,1510.284,M,0.0,M,,*55
$GPRMC,102713,A,3721.1028,N,07634.5983,W,127.0,308.0,220315,0,E*79
$GPGGA,102713,3721.1028,N,07634.5983,W,1,04,0.9,1510.284,M,0.0,M,,*5D
$GPRMC,102714,A,3721.1221,N,07634.6292,W,114.0,308.0,220315,0,E*7D
$GPGGA,102714,3721.1221,N,07634.6292,W,1,04,0.9,1508.76,M,0.0,M,,*6F
$GPRMC,102716,A,3721.1620,N,07634.6923,W,127.0,308.0,220315,0,E*7B
$GPGGA,102716,3721.1620,N,07634.6923,W,1,04,0.9,1508.76,M,0.0,M,,*69
$GPRMC,102717,A,3721.1813,N,07634.7245,W,115.0,308.0,220315,0,E*7F
$GPGGA,102717,3721.1813,N,07634.7245,W,1,04,0.9,1507.236,M,0.0,M,,*55
$GPRMC,102729,A,3721.4105,N,07635.1056,W,113.0,307.0,220315,0,E*77
$GPGGA,102729,3721.4105,N,07635.1056,W,1,04,0.9,1510.284,M,0.0,M,,*5B
$GPRMC,102735,A,3721.5264,N,07635.2948,W,127.0,307.0,220315,0,E*7D
$GPGGA,102735,3721.5264,N,07635.2948,W,1,04,0.9,1511.808,M,0.0,M,,*59
$GPRMC,102736,A,3721.5457,N,07635.3270,W,114.0,307.0,220315,0,E*79
$GPGGA,102736,3721.5457,N,07635.3270,W,1,04,0.9,1510.284,M,0.0,M,,*52
$GPRMC,102738,A,3721.5856,N,07635.3901,W,127.0,307.0,220315,0,E*77
$GPGGA,102738,3721.5856,N,07635.3901,W,1,04,0.9,1510.284,M,0.0,M,,*5C
$GPRMC,102739,A,3721.6049,N,07635.4210,W,115.0,307.0,220315,0,E*7E
$GPGGA,102739,3721.6049,N,07635.4210,W,1,04,0.9,1508.76,M,0.0,M,,*62
$GPRMC,102740,A,3721.6242,N,07635.4532,W,127.0,307.0,220315,0,E*7F
$GPGGA,102740,3721.6242,N,07635.4532,W,1,04,0.9,1508.76,M,0.0,M,,*62
$GPRMC,102741,A,3721.6448,N,07635.4854,W,115.0,307.0,220315,0,E*7E
$GPGGA,102741,3721.6448,N,07635.4854,W,1,04,0.9,1507.236,M,0.0,M,,*5B
$GPRMC,102742,A,3721.6641,N,07635.5162,W,127.0,307.0,220315,0,E*7A
$GPGGA,102742,3721.6641,N,07635.5162,W,1,04,0.9,1507.236,M,0.0,M,,*5E
$GPRMC,102743,A,3721.6834,N,07635.5484,W,115.0,308.0,220315,0,E*74
$GPGGA,102743,3721.6834,N,07635.5484,W,1,04,0.9,1505.712,M,0.0,M,,*5F
$GPRMC,102752,A,3721.8611,N,07635.8265,W,113.0,308.0,220315,0,E*71
$GPGGA,102752,3721.8611,N,07635.8265,W,1,04,0.9,1507.236,M,0.0,M,,*5D
$GPRMC,102803,A,3722.0735,N,07636.1613,W,111.0,308.0,220315,0,E*7B
$GPGGA,102803,3722.0735,N,07636.1613,W,1,04,0.9,1510.284,M,0.0,M,,*5A
$GPRMC,102810,A,3722.2087,N,07636.3763,W,112.0,308.0,220315,0,E*72
$GPGGA,102810,3722.2087,N,07636.3763,W,1,04,0.9,1508.76,M,0.0,M,,*66
$GPRMC,102811,A,3722.2280,N,07636.4072,W,127.0,308.0,220315,0,E*70
$GPGGA,102811,3722.2280,N,07636.4072,W,1,04,0.9,1508.76,M,0.0,M,,*62
$GPRMC,102812,A,3722.2486,N,07636.4381,W,112.0,308.0,220315,0,E*7A
$GPGGA,102812,3722.2486,N,07636.4381,W,1,04,0.9,1507.236,M,0.0,M,,*57
$GPRMC,102832,A,3722.6387,N,07637.0483,W,112.0,308.0,220315,0,E*7A
$GPGGA,102832,3722.6387,N,07637.0483,W,1,04,0.9,1510.284,M,0.0,M,,*58
$GPRMC,102833,A,3722.6581,N,07637.0792,W,112.0,308.0,220315,0,E*78
$GPGGA,102833,3722.6581,N,07637.0792,W,1,04,0.9,1510.284,M,0.0,M,,*5A
$GPRMC,102837,A,3722.7353,N,07637.2028,W,127.0,308.0,220315,0,E*76
$GPGGA,102837,3722.7353,N,07637.2028,W,1,04,0.9,1510.284,M,0.0,M,,*52
$GPRMC,102838,A,3722.7533,N,07637.2337,W,112.0,307.0,220315,0,E*7D
$GPGGA,102838,3722.7533,N,07637.2337,W,1,04,0.9,1508.76,M,0.0,M,,*66
$GPRMC,102857,A,3723.1048,N,07637.8285,W,111.0,305.0,220315,0,E*79
$GPGGA,102857,3723.1048,N,07637.8285,W,1,04,0.9,1508.76,M,0.0,M,,*63
$GPRMC,102858,A,3723.1241,N,07637.8594,W,111.0,307.0,220315,0,E*78
$GPGGA,102858,3723.1241,N,07637.8594,W,1,04,0.9,1508.76,M,0.0,M,,*60
$GPRMC,102915,A,3723.4524,N,07638.3873,W,113.0,308.0,220315,0,E*7C
$GPGGA,102915,3723.4524,N,07638.3873,W,1,04,0.9,1508.76,M,0.0,M,,*69
$GPRMC,102916,A,3723.4717,N,07638.4182,W,127.0,308.0,220315,0,E*7A
$GPGGA,102916,3723.4717,N,07638.4182,W,1,04,0.9,1508.76,M,0.0,M,,*68
$GPRMC,102917,A,3723.4923,N,07638.4478,W,113.0,308.0,220315,0,E*75
$GPGGA,102917,3723.4923,N,07638.4478,W,1,04,0.9,1507.236,M,0.0,M,,*59
$GPRMC,102931,A,3723.7781,N,07638.8727,W,113.0,309.0,220315,0,E*70
$GPGGA,102931,3723.7781,N,07638.8727,W,1,04,0.9,1508.76,M,0.0,M,,*64
$GPRMC,102932,A,3723.7987,N,07638.9023,W,113.0,311.0,220315,0,E*70
$GPGGA,102932,3723.7987,N,07638.9023,W,1,04,0.9,1508.76,M,0.0,M,,*6D
$GPRMC,102934,A,3723.8399,N,07638.9615,W,127.0,311.0,220315,0,E*78
$GPGGA,102934,3723.8399,N,07638.9615,W,1,04,0.9,1508.76,M,0.0,M,,*62
$GPRMC,102935,A,3723.8618,N,07638.9911,W,114.0,311.0,220315,0,E*7E
$GPGGA,102935,3723.8618,N,07638.9911,W,1,04,0.9,1507.236,M,0.0,M,,*5D
$GPRMC,102940,A,3723.9674,N,07639.1404,W,127.0,311.0,220315,0,E*77
$GPGGA,102940,3723.9674,N,07639.1404,W,1,04,0.9,1507.236,M,0.0,M,,*54
$GPRMC,102941,A,3723.9880,N,07639.1700,W,114.0,311.0,220315,0,E*74
$GPGGA,102941,3723.9880,N,07639.1700,W,1,04,0.9,1505.712,M,0.0,M,,*56
$GPRMC,103000,A,3724.3961,N,07639.7224,W,113.0,312.0,220315,0,E*7B
$GPGGA,103000,3724.3961,N,07639.7224,W,1,04,0.9,1507.236,M,0.0,M,,*5C
$GPRMC,103001,A,3724.4193,N,07639.7520,W,114.0,314.0,220315,0,E*7A
$GPGGA,103001,3724.4193,N,07639.7520,W,1,04,0.9,1507.236,M,0.0,M,,*5C
$GPRMC,103003,A,3724.4631,N,07639.8086,W,127.0,314.0,220315,0,E*71
$GPGGA,103003,3724.4631,N,07639.8086,W,1,04,0.9,1507.236,M,0.0,M,,*57
$GPRMC,103004,A,3724.4850,N,07639.8383,W,114.0,314.0,220315,0,E*79
$GPGGA,103004,3724.4850,N,07639.8383,W,1,04,0.9,1505.712,M,0.0,M,,*5E
$GPRMC,103024,A,3724.9330,N,07640.4009,W,114.0,315.0,220315,0,E*79
$GPGGA,103024,3724.9330,N,07640.4009,W,1,04,0.9,1507.236,M,0.0,M,,*5E
$GPRMC,103025,A,3724.9561,N,07640.4292,W,114.0,315.0,220315,0,E*7A
$GPGGA,103025,3724.9561,N,07640.4292,W,1,04,0.9,1507.236,M,0.0,M,,*5D
$GPRMC,103027,A,3725.0025,N,07640.4846,W,127.0,315.0,220315,0,E*76
$GPGGA,103027,3725.0025,N,07640.4846,W,1,04,0.9,1507.236,M,0.0,M,,*51
$GPRMC,103028,A,3725.0257,N,07640.5129,W,115.0,315.0,220315,0,E*7E
$GPGGA,103028,3725.0257,N,07640.5129,W,1,04,0.9,1505.712,M,0.0,M,,*59
$GPRMC,103048,A,3725.4917,N,07641.0652,W,115.0,315.0,220315,0,E*7C
$GPGGA,103048,3725.4917,N,07641.0652,W,1,04,0.9,1507.236,M,0.0,M,,*5A
$GPRMC,103049,A,3725.5149,N,07641.0922,W,115.0,315.0,220315,0,E*77
$GPGGA,103049,3725.5149,N,07641.0922,W,1,04,0.9,1507.236,M,0.0,M,,*51
$GPRMC,103054,A,3725.6308,N,07641.2326,W,127.0,315.0,220315,0,E*72
$GPGGA,103054,3725.6308,N,07641.2326,W,1,04,0.9,1507.236,M,0.0,M,,*55
$GPRMC,103055,A,3725.6552,N,07641.2609,W,116.0,315.0,220315,0,E*70
$GPGGA,103055,3725.6552,N,07641.2609,W,1,04,0.9,1505.712,M,0.0,M,,*54
$GPRMC,103101,A,3725.7956,N,07641.4283,W,116.0,315.0,220315,0,E*79
$GPGGA,103101,3725.7956,N,07641.4283,W,1,04,0.9,1505.712,M,0.0,M,,*5D
$GPRMC,103102,A,3725.8188,N,07641.4566,W,127.0,315.0,220315,0,E*70
$GPGGA,103102,3725.8188,N,07641.4566,W,1,04,0.9,1505.712,M,0.0,M,,*56
$GPRMC,103103,A,3725.8419,N,07641.4836,W,116.0,315.0,220315,0,E*76
$GPGGA,103103,3725.8419,N,07641.4836,W,1,04,0.9,1504.188,M,0.0,M,,*56
$GPRMC,103123,A,3726.3080,N,07642.0462,W,116.0,315.0,220315,0,E*72
$GPGGA,103123,3726.3080,N,07642.0462,W,1,04,0.9,1505.712,M,0.0,M,,*56
$GPRMC,103124,A,3726.3312,N,07642.0746,W,116.0,315.0,220315,0,E*78
$GPGGA,103124,3726.3312,N,07642.0746,W,1,04,0.9,1504.188,M,0.0,M,,*58
$GPRMC,103139,A,3726.6775,N,07642.4969,W,116.0,315.0,220315,0,E*73
$GPGGA,103139,3726.6775,N,07642.4969,W,1,04,0.9,1507.236,M,0.0,M,,*56
$GPRMC,103140,A,3726.7007,N,07642.5252,W,127.0,315.0,220315,0,E*7E
$GPGGA,103140,3726.7007,N,07642.5252,W,1,04,0.9,1507.236,M,0.0,M,,*59
$GPRMC,103141,A,3726.7251,N,07642.5522,W,116.0,315.0,220315,0,E*7C
$GPGGA,103141,3726.7251,N,07642.5522,W,1,04,0.9,1505.712,M,0.0,M,,*58
$GPRMC,103143,A,3726.7753,N,07642.6063,W,127.0,316.0,220315,0,E*7B
$GPGGA,103143,3726.7753,N,07642.6063,W,1,04,0.9,1505.712,M,0.0,M,,*5E
$GPRMC,103144,A,3726.8024,N,07642.6307,W,118.0,318.0,220315,0,E*77
$GPGGA,103144,3726.8024,N,07642.6307,W,1,04,0.9,1504.188,M,0.0,M,,*54
$GPRMC,103145,A,3726.8294,N,07642.6552,W,127.0,321.0,220315,0,E*7F
$GPGGA,103145,3726.8294,N,07642.6552,W,1,04,0.9,1504.188,M,0.0,M,,*5A
$GPRMC,103146,A,3726.8577,N,07642.6771,W,119.0,322.0,220315,0,E*7B
$GPGGA,103146,3726.8577,N,07642.6771,W,1,04,0.9,1502.664,M,0.0,M,,*53
$GPRMC,103147,A,3726.8886,N,07642.6977,W,127.0,325.0,220315,0,E*7B
$GPGGA,103147,3726.8886,N,07642.6977,W,1,04,0.9,1502.664,M,0.0,M,,*59
$GPRMC,103148,A,3726.9195,N,07642.7170,W,120.0,328.0,220315,0,E*7A
$GPGGA,103148,3726.9195,N,07642.7170,W,1,04,0.9,1501.14,M,0.0,M,,*60
$GPRMC,103149,A,3726.9504,N,07642.7337,W,127.0,331.0,220315,0,E*79
$GPGGA,103149,3726.9504,N,07642.7337,W,1,04,0.9,1501.14,M,0.0,M,,*6C
$GPRMC,103150,A,3726.9839,N,07642.7492,W,122.0,333.0,220315,0,E*7D
$GPGGA,103150,3726.9839,N,07642.7492,W,1,04,0.9,1499.616,M,0.0,M,,*5B
$GPRMC,103151,A,3727.0174,N,07642.7634,W,127.0,336.0,220315,0,E*7A
$GPGGA,103151,3727.0174,N,07642.7634,W,1,04,0.9,1499.616,M,0.0,M,,*5C
$GPRMC,103152,A,3727.0508,N,07642.7749,W,124.0,339.0,220315,0,E*71
$GPGGA,103152,3727.0508,N,07642.7749,W,1,04,0.9,1498.092,M,0.0,M,,*50
$GPRMC,103153,A,3727.0856,N,07642.7840,W,127.0,342.0,220315,0,E*7F
$GPGGA,103153,3727.0856,N,07642.7840,W,1,04,0.9,1498.092,M,0.0,M,,*51
$GPRMC,103155,A,3727.1564,N,07642.7994,W,126.0,346.0,220315,0,E*79
$GPGGA,103155,3727.1564,N,07642.7994,W,1,04,0.9,1496.568,M,0.0,M,,*5C
$GPRMC,103156,A,3727.1912,N,07642.8046,W,127.0,349.0,220315,0,E*70
$GPGGA,103156,3727.1912,N,07642.8046,W,1,04,0.9,1496.568,M,0.0,M,,*5B
$GPRMC,103158,A,3727.2620,N,07642.8110,W,127.0,352.0,220315,0,E*7B
$GPGGA,103158,3727.2620,N,07642.8110,W,1,04,0.9,1498.092,M,0.0,M,,*54
$GPRMC,103159,A,3727.2980,N,07642.8123,W,127.0,354.0,220315,0,E*79
$GPGGA,103159,3727.2980,N,07642.8123,W,1,04,0.9,1499.616,M,0.0,M,,*5B
$GPRMC,103201,A,3727.3689,N,07642.8110,W,127.0,357.0,220315,0,E*73
$GPGGA,103201,3727.3689,N,07642.8110,W,1,04,0.9,1501.14,M,0.0,M,,*66
$GPRMC,103203,A,3727.4397,N,07642.8058,W,127.0,000.0,220315,0,E*70
$GPGGA,103203,3727.4397,N,07642.8058,W,1,04,0.9,1504.188,M,0.0,M,,*55
$GPRMC,103205,A,3727.5118,N,07642.7968,W,127.0,003.0,220315,0,E*74
$GPGGA,103205,3727.5118,N,07642.7968,W,1,04,0.9,1507.236,M,0.0,M,,*57
$GPRMC,103207,A,3727.5826,N,07642.7840,W,128.0,006.0,220315,0,E*73
$GPGGA,103207,3727.5826,N,07642.7840,W,1,04,0.9,1508.76,M,0.0,M,,*63
$GPRMC,103210,A,3727.6894,N,07642.7608,W,129.0,008.0,220315,0,E*72
$GPGGA,103210,3727.6894,N,07642.7608,W,1,04,0.9,1511.808,M,0.0,M,,*54
$GPRMC,103213,A,3727.7976,N,07642.7337,W,143.0,010.0,220315,0,E*71
$GPGGA,103213,3727.7976,N,07642.7337,W,1,04,0.9,1511.808,M,0.0,M,,*52
$GPRMC,103214,A,3727.8336,N,07642.7234,W,131.0,011.0,220315,0,E*71
$GPGGA,103214,3727.8336,N,07642.7234,W,1,04,0.9,1510.284,M,0.0,M,,*59
$GPRMC,103215,A,3727.8710,N,07642.7131,W,143.0,011.0,220315,0,E*73
$GPGGA,103215,3727.8710,N,07642.7131,W,1,04,0.9,1510.284,M,0.0,M,,*5E
$GPRMC,103217,A,3727.9431,N,07642.6925,W,133.0,011.0,220315,0,E*7B
$GPGGA,103217,3727.9431,N,07642.6925,W,1,04,0.9,1507.236,M,0.0,M,,*5E
$GPRMC,103218,A,3727.9791,N,07642.6810,W,143.0,013.0,220315,0,E*7F
$GPGGA,103218,3727.9791,N,07642.6810,W,1,04,0.9,1507.236,M,0.0,M,,*5F
$GPRMC,103220,A,3728.0525,N,07642.6591,W,134.0,013.0,220315,0,E*7B
$GPGGA,103220,3728.0525,N,07642.6591,W,1,04,0.9,1504.188,M,0.0,M,,*5E
$GPRMC,103221,A,3728.0886,N,07642.6488,W,143.0,013.0,220315,0,E*77
$GPGGA,103221,3728.0886,N,07642.6488,W,1,04,0.9,1504.188,M,0.0,M,,*52
$GPRMC,103222,A,3728.1246,N,07642.6372,W,134.0,013.0,220315,0,E*71
$GPGGA,103222,3728.1246,N,07642.6372,W,1,04,0.9,1502.664,M,0.0,M,,*57
$GPRMC,103232,A,3728.4825,N,07642.5277,W,131.0,013.0,220315,0,E*78
$GPGGA,103232,3728.4825,N,07642.5277,W,1,04,0.9,1505.712,M,0.0,M,,*5C
$GPRMC,103238,A,3728.6962,N,07642.4621,W,143.0,013.0,220315,0,E*71
$GPGGA,103238,3728.6962,N,07642.4621,W,1,04,0.9,1508.76,M,0.0,M,,*68
$GPRMC,103239,A,3728.7323,N,07642.4518,W,132.0,013.0,220315,0,E*71
$GPGGA,103239,3728.7323,N,07642.4518,W,1,04,0.9,1507.236,M,0.0,M,,*57
$GPRMC,103241,A,3728.8044,N,07642.4299,W,143.0,013.0,220315,0,E*7B
$GPGGA,103241,3728.8044,N,07642.4299,W,1,04,0.9,1507.236,M,0.0,M,,*5B
$GPRMC,103242,A,3728.8404,N,07642.4196,W,133.0,013.0,220315,0,E*73
$GPGGA,103242,3728.8404,N,07642.4196,W,1,04,0.9,1505.712,M,0.0,M,,*55
$GPRMC,103243,A,3728.8777,N,07642.4093,W,143.0,013.0,220315,0,E*76
$GPGGA,103243,3728.8777,N,07642.4093,W,1,04,0.9,1505.712,M,0.0,M,,*57
$GPRMC,103244,A,3728.9138,N,07642.3990,W,133.0,013.0,220315,0,E*77
$GPGGA,103244,3728.9138,N,07642.3990,W,1,04,0.9,1504.188,M,0.0,M,,*55
$GPRMC,103245,A,3728.9499,N,07642.3887,W,143.0,013.0,220315,0,E*78
$GPGGA,103245,3728.9499,N,07642.3887,W,1,04,0.9,1504.188,M,0.0,M,,*5D
$GPRMC,103246,A,3728.9872,N,07642.3784,W,134.0,013.0,220315,0,E*7E
$GPGGA,103246,3728.9872,N,07642.3784,W,1,04,0.9,1502.664,M,0.0,M,,*58
$GPRMC,103248,A,3729.0593,N,07642.3578,W,143.0,011.0,220315,0,E*79
$GPGGA,103248,3729.0593,N,07642.3578,W,1,04,0.9,1502.664,M,0.0,M,,*5D
$GPRMC,103249,A,3729.0966,N,07642.3475,W,134.0,011.0,220315,0,E*72
$GPGGA,103249,3729.0966,N,07642.3475,W,1,04,0.9,1501.14,M,0.0,M,,*64
$GPRMC,103258,A,3729.4224,N,07642.2613,W,132.0,011.0,220315,0,E*7E
$GPGGA,103258,3729.4224,N,07642.2613,W,1,04,0.9,1504.188,M,0.0,M,,*5F
$GPRMC,103306,A,3729.7120,N,07642.1904,W,143.0,010.0,220315,0,E*7D
$GPGGA,103306,3729.7120,N,07642.1904,W,1,04,0.9,1507.236,M,0.0,M,,*5E
$GPRMC,103307,A,3729.7481,N,07642.1814,W,133.0,010.0,220315,0,E*75
$GPGGA,103307,3729.7481,N,07642.1814,W,1,04,0.9,1505.712,M,0.0,M,,*50
$GPRMC,103310,A,3729.8575,N,07642.1583,W,143.0,010.0,220315,0,E*72
$GPGGA,103310,3729.8575,N,07642.1583,W,1,04,0.9,1505.712,M,0.0,M,,*50
$GPRMC,103311,A,3729.8949,N,07642.1505,W,133.0,010.0,220315,0,E*79
$GPGGA,103311,3729.8949,N,07642.1505,W,1,04,0.9,1504.188,M,0.0,M,,*58
$GPRMC,103315,A,3730.0416,N,07642.1183,W,143.0,008.0,220315,0,E*7E
$GPGGA,103315,3730.0416,N,07642.1183,W,1,04,0.9,1504.188,M,0.0,M,,*51
$GPRMC,103316,A,3730.0789,N,07642.1106,W,134.0,008.0,220315,0,E*75
$GPGGA,103316,3730.0789,N,07642.1106,W,1,04,0.9,1502.664,M,0.0,M,,*59
$GPRMC,103333,A,3730.7047,N,07641.9922,W,133.0,007.0,220315,0,E*7D
$GPGGA,103333,3730.7047,N,07641.9922,W,1,04,0.9,1505.712,M,0.0,M,,*5E
$GPRMC,103334,A,3730.7420,N,07641.9857,W,143.0,007.0,220315,0,E*7B
$GPGGA,103334,3730.7420,N,07641.9857,W,1,04,0.9,1505.712,M,0.0,M,,*5F
$GPRMC,103335,A,3730.7793,N,07641.9793,W,133.0,007.0,220315,0,E*71
$GPGGA,103335,3730.7793,N,07641.9793,W,1,04,0.9,1504.188,M,0.0,M,,*56
$GPRMC,103339,A,3730.9261,N,07641.9536,W,143.0,007.0,220315,0,E*71
$GPGGA,103339,3730.9261,N,07641.9536,W,1,04,0.9,1504.188,M,0.0,M,,*51
$GPRMC,103340,A,3730.9622,N,07641.9471,W,133.0,007.0,220315,0,E*79
$GPGGA,103340,3730.9622,N,07641.9471,W,1,04,0.9,1502.664,M,0.0,M,,*5D
$GPRMC,103400,A,3731.6561,N,07641.8441,W,131.0,006.0,220315,0,E*71
$GPGGA,103400,3731.6561,N,07641.8441,W,1,04,0.9,1504.188,M,0.0,M,,*55
$GPRMC,103401,A,3731.6921,N,07641.8390,W,131.0,006.0,220315,0,E*73
$GPGGA,103401,3731.6921,N,07641.8390,W,1,04,0.9,1504.188,M,0.0,M,,*57
$GPRMC,103403,A,3731.7643,N,07641.8287,W,143.0,006.0,220315,0,E*79
$GPGGA,103403,3731.7643,N,07641.8287,W,1,04,0.9,1504.188,M,0.0,M,,*58
$GPRMC,103403,A,3731.8016,N,07641.8235,W,131.0,006.0,220315,0,E*7C
$GPGGA,103403,3731.8016,N,07641.8235,W,1,04,0.9,1502.664,M,0.0,M,,*5B
$GPRMC,103410,A,3732.0552,N,07641.7913,W,131.0,006.0,220315,0,E*70
$GPGGA,103410,3732.0552,N,07641.7913,W,1,04,0.9,1502.664,M,0.0,M,,*57
$GPRMC,103411,A,3732.0926,N,07641.7862,W,143.0,006.0,220315,0,E*7C
$GPGGA,103411,3732.0926,N,07641.7862,W,1,04,0.9,1502.664,M,0.0,M,,*5E
$GPRMC,103412,A,3732.1286,N,07641.7823,W,131.0,004.0,220315,0,E*7D
$GPGGA,103412,3732.1286,N,07641.7823,W,1,04,0.9,1501.14,M,0.0,M,,*6A
$GPRMC,103432,A,3732.8534,N,07641.7115,W,130.0,003.0,220315,0,E*72
$GPGGA,103432,3732.8534,N,07641.7115,W,1,04,0.9,1501.14,M,0.0,M,,*63
$GPRMC,103433,A,3732.8895,N,07641.7089,W,130.0,003.0,220315,0,E*71
$GPGGA,103433,3732.8895,N,07641.7089,W,1,04,0.9,1501.14,M,0.0,M,,*60
$GPRMC,103453,A,3733.6118,N,07641.6574,W,129.0,001.0,220315,0,E*78
$GPGGA,103453,3733.6118,N,07641.6574,W,1,04,0.9,1501.14,M,0.0,M,,*63
$GPRMC,103454,A,3733.6478,N,07641.6562,W,129.0,001.0,220315,0,E*7B
$GPGGA,103454,3733.6478,N,07641.6562,W,1,04,0.9,1501.14,M,0.0,M,,*60
$GPRMC,103505,A,3734.0431,N,07641.6356,W,129.0,001.0,220315,0,E*73
$GPGGA,103505,3734.0431,N,07641.6356,W,1,04,0.9,1504.188,M,0.0,M,,*59
$GPRMC,103506,A,3734.0791,N,07641.6330,W,143.0,001.0,220315,0,E*75
$GPGGA,103506,3734.0791,N,07641.6330,W,1,04,0.9,1504.188,M,0.0,M,,*53
$GPRMC,103507,A,3734.1151,N,07641.6317,W,130.0,001.0,220315,0,E*7E
$GPGGA,103507,3734.1151,N,07641.6317,W,1,04,0.9,1502.664,M,0.0,M,,*5F
$GPRMC,103509,A,3734.1885,N,07641.6278,W,143.0,001.0,220315,0,E*7C
$GPGGA,103509,3734.1885,N,07641.6278,W,1,04,0.9,1502.664,M,0.0,M,,*59
$GPRMC,103510,A,3734.2246,N,07641.6265,W,130.0,001.0,220315,0,E*7A
$GPGGA,103510,3734.2246,N,07641.6265,W,1,04,0.9,1501.14,M,0.0,M,,*69
$GPRMC,103512,A,3734.2967,N,07641.6240,W,143.0,001.0,220315,0,E*73
$GPGGA,103512,3734.2967,N,07641.6240,W,1,04,0.9,1501.14,M,0.0,M,,*64
$GPRMC,103513,A,3734.3327,N,07641.6227,W,130.0,001.0,220315,0,E*78
$GPGGA,103513,3734.3327,N,07641.6227,W,1,04,0.9,1499.616,M,0.0,M,,*5F
$GPRMC,103528,A,3734.8696,N,07641.6008,W,128.0,001.0,220315,0,E*72
$GPGGA,103528,3734.8696,N,07641.6008,W,1,04,0.9,1502.664,M,0.0,M,,*5A
$GPRMC,103529,A,3734.9056,N,07641.5995,W,143.0,001.0,220315,0,E*7B
$GPGGA,103529,3734.9056,N,07641.5995,W,1,04,0.9,1502.664,M,0.0,M,,*5E
$GPRMC,103530,A,3734.9417,N,07641.5995,W,129.0,001.0,220315,0,E*7E
$GPGGA,103530,3734.9417,N,07641.5995,W,1,04,0.9,1501.14,M,0.0,M,,*65
$GPRMC,103531,A,3734.9778,N,07641.5995,W,143.0,000.0,220315,0,E*78
$GPGGA,103531,3734.9778,N,07641.5995,W,1,04,0.9,1501.14,M,0.0,M,,*6E
$GPRMC,103532,A,3735.0125,N,07641.5995,W,128.0,000.0,220315,0,E*70
$GPGGA,103532,3735.0125,N,07641.5995,W,1,04,0.9,1499.616,M,0.0,M,,*5F
$GPRMC,103534,A,3735.0846,N,07641.6034,W,143.0,359.0,220315,0,E*79
$GPGGA,103534,3735.0846,N,07641.6034,W,1,04,0.9,1499.616,M,0.0,M,,*54
$GPRMC,103535,A,3735.1194,N,07641.6059,W,128.0,357.0,220315,0,E*77
$GPGGA,103535,3735.1194,N,07641.6059,W,1,04,0.9,1498.092,M,0.0,M,,*52
$GPRMC,103539,A,3735.2597,N,07641.6201,W,126.0,354.0,220315,0,E*7D
$GPGGA,103539,3735.2597,N,07641.6201,W,1,04,0.9,1498.092,M,0.0,M,,*55
$GPRMC,103545,A,3735.4644,N,07641.6497,W,124.0,353.0,220315,0,E*71
$GPGGA,103545,3735.4644,N,07641.6497,W,1,04,0.9,1501.14,M,0.0,M,,*63
$GPRMC,103547,A,3735.5327,N,07641.6613,W,123.0,352.0,220315,0,E*7A
$GPGGA,103547,3735.5327,N,07641.6613,W,1,04,0.9,1502.664,M,0.0,M,,*5C
$GPRMC,103603,A,3736.0760,N,07641.7720,W,123.0,350.0,220315,0,E*7A
$GPGGA,103603,3736.0760,N,07641.7720,W,1,04,0.9,1499.616,M,0.0,M,,*58
$GPRMC,103604,A,3736.1094,N,07641.7798,W,123.0,349.0,220315,0,E*7B
$GPGGA,103604,3736.1094,N,07641.7798,W,1,04,0.9,1499.616,M,0.0,M,,*51
$GPRMC,103623,A,3736.7429,N,07641.9342,W,122.0,347.0,220315,0,E*78
$GPGGA,103623,3736.7429,N,07641.9342,W,1,04,0.9,1502.664,M,0.0,M,,*5B
$GPRMC,103624,A,3736.7751,N,07641.9432,W,122.0,347.0,220315,0,E*73
$GPGGA,103624,3736.7751,N,07641.9432,W,1,04,0.9,1502.664,M,0.0,M,,*50
$GPRMC,103642,A,3737.3686,N,07642.1042,W,121.0,347.0,220315,0,E*76
$GPGGA,103642,3737.3686,N,07642.1042,W,1,04,0.9,1505.712,M,0.0,M,,*51
$GPRMC,103644,A,3737.4342,N,07642.1235,W,121.0,347.0,220315,0,E*78
$GPGGA,103644,3737.4342,N,07642.1235,W,1,04,0.9,1504.188,M,0.0,M,,*5B
$GPRMC,103646,A,3737.4999,N,07642.1415,W,127.0,347.0,220315,0,E*74
$GPGGA,103646,3737.4999,N,07642.1415,W,1,04,0.9,1504.188,M,0.0,M,,*51
$GPRMC,103655,A,3737.7973,N,07642.2291,W,121.0,346.0,220315,0,E*7F
$GPGGA,103655,3737.7973,N,07642.2291,W,1,04,0.9,1498.092,M,0.0,M,,*53
$GPRMC,103701,A,3737.9930,N,07642.2883,W,120.0,346.0,220315,0,E*7E
$GPGGA,103701,3737.9930,N,07642.2883,W,1,04,0.9,1501.14,M,0.0,M,,*6C
$GPRMC,103714,A,3738.4127,N,07642.4261,W,127.0,345.0,220315,0,E*72
$GPGGA,103714,3738.4127,N,07642.4261,W,1,04,0.9,1505.712,M,0.0,M,,*51
$GPRMC,103715,A,3738.4449,N,07642.4376,W,120.0,345.0,220315,0,E*7E
$GPGGA,103715,3738.4449,N,07642.4376,W,1,04,0.9,1504.188,M,0.0,M,,*5E
$GPRMC,103718,A,3738.5427,N,07642.4724,W,127.0,343.0,220315,0,E*78
$GPGGA,103718,3738.5427,N,07642.4724,W,1,04,0.9,1504.188,M,0.0,M,,*59
$GPRMC,103719,A,3738.5749,N,07642.4840,W,121.0,343.0,220315,0,E*79
$GPGGA,103719,3738.5749,N,07642.4840,W,1,04,0.9,1502.664,M,0.0,M,,*5D
$GPRMC,103738,A,3739.1852,N,07642.7234,W,120.0,342.0,220315,0,E*70
$GPGGA,103738,3739.1852,N,07642.7234,W,1,04,0.9,1504.188,M,0.0,M,,*57
$GPRMC,103739,A,3739.2173,N,07642.7363,W,120.0,342.0,220315,0,E*7B
$GPGGA,103739,3739.2173,N,07642.7363,W,1,04,0.9,1504.188,M,0.0,M,,*5C
$GPRMC,103741,A,3739.2804,N,07642.7621,W,127.0,342.0,220315,0,E*79
$GPGGA,103741,3739.2804,N,07642.7621,W,1,04,0.9,1504.188,M,0.0,M,,*59
$GPRMC,103742,A,3739.3126,N,07642.7762,W,121.0,342.0,220315,0,E*72
$GPGGA,103742,3739.3126,N,07642.7762,W,1,04,0.9,1502.664,M,0.0,M,,*57
$GPRMC,103802,A,3739.9474,N,07643.0492,W,120.0,340.0,220315,0,E*78
$GPGGA,103802,3739.9474,N,07643.0492,W,1,04,0.9,1505.712,M,0.0,M,,*59
$GPRMC,103803,A,3739.9782,N,07643.0633,W,120.0,340.0,220315,0,E*7A
$GPGGA,103803,3739.9782,N,07643.0633,W,1,04,0.9,1505.712,M,0.0,M,,*5B
$GPRMC,103804,A,3740.0104,N,07643.0775,W,127.0,340.0,220315,0,E*76
$GPGGA,103804,3740.0104,N,07643.0775,W,1,04,0.9,1505.712,M,0.0,M,,*50
$GPRMC,103805,A,3740.0413,N,07643.0930,W,120.0,339.0,220315,0,E*72
$GPGGA,103805,3740.0413,N,07643.0930,W,1,04,0.9,1504.188,M,0.0,M,,*59
$GPRMC,103817,A,3740.4173,N,07643.2680,W,120.0,339.0,220315,0,E*70
$GPGGA,103817,3740.4173,N,07643.2680,W,1,04,0.9,1505.712,M,0.0,M,,*5F
$GPRMC,103818,A,3740.4482,N,07643.2835,W,127.0,339.0,220315,0,E*73
$GPGGA,103818,3740.4482,N,07643.2835,W,1,04,0.9,1505.712,M,0.0,M,,*5B
$GPRMC,103819,A,3740.4791,N,07643.2977,W,119.0,339.0,220315,0,E*79
$GPGGA,103819,3740.4791,N,07643.2977,W,1,04,0.9,1504.188,M,0.0,M,,*58
$GPRMC,103822,A,3740.5731,N,07643.3440,W,127.0,339.0,220315,0,E*7F
$GPGGA,103822,3740.5731,N,07643.3440,W,1,04,0.9,1504.188,M,0.0,M,,*53
$GPRMC,103823,A,3740.6039,N,07643.3595,W,120.0,338.0,220315,0,E*7D
$GPGGA,103823,3740.6039,N,07643.3595,W,1,04,0.9,1502.664,M,0.0,M,,*54
$GPRMC,103826,A,3740.6967,N,07643.4045,W,127.0,338.0,220315,0,E*72
$GPGGA,103826,3740.6967,N,07643.4045,W,1,04,0.9,1502.664,M,0.0,M,,*5C
$GPRMC,103827,A,3740.7288,N,07643.4200,W,120.0,338.0,220315,0,E*7C
$GPGGA,103827,3740.7288,N,07643.4200,W,1,04,0.9,1501.14,M,0.0,M,,*67
$GPRMC,103841,A,3741.1588,N,07643.6311,W,118.0,338.0,220315,0,E*74
$GPGGA,103841,3741.1588,N,07643.6311,W,1,04,0.9,1504.188,M,0.0,M,,*55
$GPRMC,103842,A,3741.1898,N,07643.6465,W,127.0,338.0,220315,0,E*73
$GPGGA,103842,3741.1898,N,07643.6465,W,1,04,0.9,1504.188,M,0.0,M,,*5E
$GPRMC,103843,A,3741.2206,N,07643.6620,W,119.0,338.0,220315,0,E*72
$GPGGA,103843,3741.2206,N,07643.6620,W,1,04,0.9,1502.664,M,0.0,M,,*51
$GPRMC,103845,A,3741.2824,N,07643.6929,W,127.0,338.0,220315,0,E*75
$GPGGA,103845,3741.2824,N,07643.6929,W,1,04,0.9,1502.664,M,0.0,M,,*5B
$GPRMC,103846,A,3741.3134,N,07643.7083,W,119.0,338.0,220315,0,E*7A
$GPGGA,103846,3741.3134,N,07643.7083,W,1,04,0.9,1501.14,M,0.0,M,,*6B
$GPRMC,103848,A,3741.3752,N,07643.7393,W,127.0,338.0,220315,0,E*7D
$GPGGA,103848,3741.3752,N,07643.7393,W,1,04,0.9,1501.14,M,0.0,M,,*61
$GPRMC,103849,A,3741.4060,N,07643.7547,W,119.0,338.0,220315,0,E*7F
$GPGGA,103849,3741.4060,N,07643.7547,W,1,04,0.9,1499.616,M,0.0,M,,*5A
$GPRMC,103902,A,3741.8013,N,07643.9607,W,118.0,336.0,220315,0,E*7F
$GPGGA,103902,3741.8013,N,07643.9607,W,1,04,0.9,1502.664,M,0.0,M,,*53
$GPRMC,103910,A,3742.0433,N,07644.0894,W,118.0,336.0,220315,0,E*7B
$GPGGA,103910,3742.0433,N,07644.0894,W,1,04,0.9,1504.188,M,0.0,M,,*54
$GPRMC,103913,A,3742.1335,N,07644.1384,W,127.0,336.0,220315,0,E*7F
$GPGGA,103913,3742.1335,N,07644.1384,W,1,04,0.9,1504.188,M,0.0,M,,*5C
$GPRMC,103914,A,3742.1643,N,07644.1551,W,118.0,336.0,220315,0,E*7E
$GPGGA,103914,3742.1643,N,07644.1551,W,1,04,0.9,1502.664,M,0.0,M,,*52
$GPRMC,103934,A,3742.7720,N,07644.4847,W,119.0,336.0,220315,0,E*70
$GPGGA,103934,3742.7720,N,07644.4847,W,1,04,0.9,1504.188,M,0.0,M,,*5E
$GPRMC,103935,A,3742.8016,N,07644.5014,W,119.0,336.0,220315,0,E*73
$GPGGA,103935,3742.8016,N,07644.5014,W,1,04,0.9,1504.188,M,0.0,M,,*5D
$GPRMC,103938,A,3742.8931,N,07644.5516,W,127.0,336.0,220315,0,E*78
$GPGGA,103938,3742.8931,N,07644.5516,W,1,04,0.9,1504.188,M,0.0,M,,*5B
$GPRMC,103939,A,3742.9240,N,07644.5684,W,119.0,336.0,220315,0,E*70
$GPGGA,103939,3742.9240,N,07644.5684,W,1,04,0.9,1502.664,M,0.0,M,,*5D
$GPRMC,103955,A,3743.4093,N,07644.8387,W,119.0,335.0,220315,0,E*72
$GPGGA,103955,3743.4093,N,07644.8387,W,1,04,0.9,1504.188,M,0.0,M,,*5F
$GPRMC,103956,A,3743.4389,N,07644.8555,W,127.0,335.0,220315,0,E*7D
$GPGGA,103956,3743.4389,N,07644.8555,W,1,04,0.9,1504.188,M,0.0,M,,*5D
$GPRMC,103957,A,3743.4698,N,07644.8722,W,119.0,335.0,220315,0,E*76
$GPGGA,103957,3743.4698,N,07644.8722,W,1,04,0.9,1502.664,M,0.0,M,,*58
