$GPRMC,121809,A,4326.1450,N,08558.8674,W,055.0,132.0,290615,0,E*7E
$GPGGA,121809,4326.1450,N,08558.8674,W,1,04,0.9,509.320800000001,M,0.0,M,,*54
$GPRMC,121809,A,4326.1391,N,08558.8502,W,056.0,123.0,290615,0,E*75
$GPGGA,121809,4326.1391,N,08558.8502,W,1,04,0.9,512.368800000001,M,0.0,M,,*5A
$GPRMC,121811,A,4326.1318,N,08558.8317,W,055.0,120.0,290615,0,E*7F
$GPGGA,121811,4326.1318,N,08558.8317,W,1,04,0.9,513.283200000001,M,0.0,M,,*5F
$GPRMC,121812,A,4326.1260,N,08558.8140,W,054.0,116.0,290615,0,E*76
$GPGGA,121812,4326.1260,N,08558.8140,W,1,04,0.9,520.293600000001,M,0.0,M,,*57
$GPRMC,121812,A,4326.1218,N,08558.7968,W,053.0,113.0,290615,0,E*76
$GPGGA,121812,4326.1218,N,08558.7968,W,1,04,0.9,526.694400000001,M,0.0,M,,*52
$GPRMC,121813,A,4326.1172,N,08558.7769,W,052.0,109.0,290615,0,E*7D
$GPGGA,121813,4326.1172,N,08558.7769,W,1,04,0.9,526.084800000001,M,0.0,M,,*58
$GPRMC,121816,A,4326.1144,N,08558.7350,W,054.0,101.0,290615,0,E*7D
$GPGGA,121816,4326.1144,N,08558.7350,W,1,04,0.9,524.560800000001,M,0.0,M,,*5B
$GPRMC,121817,A,4326.1132,N,08558.7137,W,056.0,098.0,290615,0,E*7D
$GPGGA,121817,4326.1132,N,08558.7137,W,1,04,0.9,521.817600000001,M,0.0,M,,*5E
$GPRMC,121819,A,4326.1121,N,08558.6671,W,061.0,094.0,290615,0,E*7D
$GPGGA,121819,4326.1121,N,08558.6671,W,1,04,0.9,518.769600000001,M,0.0,M,,*5A
$GPRMC,121820,A,4326.1128,N,08558.6448,W,060.0,091.0,290615,0,E*72
$GPGGA,121820,4326.1128,N,08558.6448,W,1,04,0.9,517.245600000001,M,0.0,M,,*55
$GPRMC,121823,A,4326.1155,N,08558.5775,W,058.0,087.0,290615,0,E*79
$GPGGA,121823,4326.1155,N,08558.5775,W,1,04,0.9,526.999200000001,M,0.0,M,,*5E
$GPRMC,121827,A,4326.1154,N,08558.4883,W,058.0,091.0,290615,0,E*7C
$GPGGA,121827,4326.1154,N,08558.4883,W,1,04,0.9,524.865600000001,M,0.0,M,,*58
$GPRMC,121828,A,4326.1115,N,08558.4419,W,060.0,095.0,290615,0,E*76
$GPGGA,121828,4326.1115,N,08558.4419,W,1,04,0.9,522.122400000001,M,0.0,M,,*53
$GPRMC,121831,A,4326.1064,N,08558.3980,W,060.0,099.0,290615,0,E*7F
$GPGGA,121831,4326.1064,N,08558.3980,W,1,04,0.9,523.341600000001,M,0.0,M,,*52
$GPRMC,121833,A,4326.1008,N,08558.3370,W,055.0,098.0,290615,0,E*75
$GPGGA,121833,4326.1008,N,08558.3370,W,1,04,0.9,535.228800000001,M,0.0,M,,*58
$GPRMC,121834,A,4326.0999,N,08558.3180,W,052.0,095.0,290615,0,E*75
$GPGGA,121834,4326.0999,N,08558.3180,W,1,04,0.9,538.276800000001,M,0.0,M,,*54
$GPRMC,121837,A,4326.1003,N,08558.2781,W,051.0,091.0,290615,0,E*7C
$GPGGA,121837,4326.1003,N,08558.2781,W,1,04,0.9,539.496000000001,M,0.0,M,,*5B
$GPRMC,121838,A,4326.1022,N,08558.2576,W,052.0,087.0,290615,0,E*7E
$GPGGA,121838,4326.1022,N,08558.2576,W,1,04,0.9,536.143200000001,M,0.0,M,,*5D
$GPRMC,121838,A,4326.1053,N,08558.2365,W,054.0,084.0,290615,0,E*79
$GPGGA,121838,4326.1053,N,08558.2365,W,1,04,0.9,532.180800000001,M,0.0,M,,*5E
$GPRMC,121839,A,4326.1088,N,08558.2156,W,056.0,079.0,290615,0,E*7C
$GPGGA,121839,4326.1088,N,08558.2156,W,1,04,0.9,529.437600000001,M,0.0,M,,*56
$GPRMC,121840,A,4326.1128,N,08558.1947,W,057.0,077.0,290615,0,E*7D
$GPGGA,121840,4326.1128,N,08558.1947,W,1,04,0.9,526.694400000001,M,0.0,M,,*5E
$GPRMC,121843,A,4326.1222,N,08558.1521,W,058.0,073.0,290615,0,E*70
$GPGGA,121843,4326.1222,N,08558.1521,W,1,04,0.9,522.427200000001,M,0.0,M,,*50
$GPRMC,121847,A,4326.1436,N,08558.0445,W,058.0,077.0,290615,0,E*71
$GPGGA,121847,4326.1436,N,08558.0445,W,1,04,0.9,515.112000000001,M,0.0,M,,*50
$GPRMC,121853,A,4326.1590,N,08557.9342,W,059.0,080.0,290615,0,E*76
$GPGGA,121853,4326.1590,N,08557.9342,W,1,04,0.9,508.101600000001,M,0.0,M,,*56
$GPRMC,121856,A,4326.1666,N,08557.8496,W,056.0,083.0,290615,0,E*7A
$GPGGA,121856,4326.1666,N,08557.8496,W,1,04,0.9,505.968000000001,M,0.0,M,,*5A
$GPRMC,121902,A,4326.1745,N,08557.7216,W,056.0,086.0,290615,0,E*7E
$GPGGA,121902,4326.1745,N,08557.7216,W,1,04,0.9,507.187200000001,M,0.0,M,,*52
$GPRMC,121910,A,4326.1856,N,08557.5440,W,060.0,083.0,290615,0,E*77
$GPGGA,121910,4326.1856,N,08557.5440,W,1,04,0.9,501.396000000001,M,0.0,M,,*5D
$GPRMC,121917,A,4326.1949,N,08557.4059,W,062.0,086.0,290615,0,E*75
$GPGGA,121917,4326.1949,N,08557.4059,W,1,04,0.9,496.519200000001,M,0.0,M,,*54
$GPRMC,121919,A,4326.1914,N,08557.3604,W,060.0,092.0,290615,0,E*7D
$GPGGA,121919,4326.1914,N,08557.3604,W,1,04,0.9,498.043200000001,M,0.0,M,,*5F
$GPRMC,121920,A,4326.1880,N,08557.3385,W,059.0,097.0,290615,0,E*78
$GPGGA,121920,4326.1880,N,08557.3385,W,1,04,0.9,498.348000000001,M,0.0,M,,*5F
$GPRMC,121920,A,4326.1841,N,08557.3157,W,058.0,101.0,290615,0,E*77
$GPGGA,121920,4326.1841,N,08557.3157,W,1,04,0.9,497.128800000001,M,0.0,M,,*5C
$GPRMC,121924,A,4326.1788,N,08557.2485,W,059.0,098.0,290615,0,E*72
$GPGGA,121924,4326.1788,N,08557.2485,W,1,04,0.9,494.080800000001,M,0.0,M,,*59
$GPRMC,121925,A,4326.1824,N,08557.2238,W,062.0,091.0,290615,0,E*7B
$GPGGA,121925,4326.1824,N,08557.2238,W,1,04,0.9,492.556800000001,M,0.0,M,,*59
$GPRMC,121925,A,4326.1876,N,08557.2007,W,064.0,082.0,290615,0,E*76
$GPGGA,121925,4326.1876,N,08557.2007,W,1,04,0.9,491.947200000001,M,0.0,M,,*55
$GPRMC,121926,A,4326.1944,N,08557.1762,W,064.0,077.0,290615,0,E*78
$GPGGA,121926,4326.1944,N,08557.1762,W,1,04,0.9,490.118400000001,M,0.0,M,,*54
$GPRMC,121928,A,4326.2060,N,08557.1575,W,066.0,074.0,290615,0,E*7F
$GPGGA,121928,4326.2060,N,08557.1575,W,1,04,0.9,490.118400000001,M,0.0,M,,*52
$GPRMC,121929,A,4326.2252,N,08557.1462,W,064.0,064.0,290615,0,E*79
$GPGGA,121929,4326.2252,N,08557.1462,W,1,04,0.9,488.899200000001,M,0.0,M,,*58
$GPRMC,121929,A,4326.2384,N,08557.1310,W,064.0,043.0,290615,0,E*74
$GPGGA,121929,4326.2384,N,08557.1310,W,1,04,0.9,495.300000000001,M,0.0,M,,*55
$GPRMC,121931,A,4326.2520,N,08557.1172,W,063.0,040.0,290615,0,E*77
$GPGGA,121931,4326.2520,N,08557.1172,W,1,04,0.9,498.043200000001,M,0.0,M,,*59
$GPRMC,121932,A,4326.2806,N,08557.0929,W,062.0,036.0,290615,0,E*7A
$GPGGA,121932,4326.2806,N,08557.0929,W,1,04,0.9,499.872000000001,M,0.0,M,,*5D
$GPRMC,121934,A,4326.3232,N,08557.1081,W,060.0,025.0,290615,0,E*7A
$GPGGA,121934,4326.3232,N,08557.1081,W,1,04,0.9,500.481600000001,M,0.0,M,,*5A
$GPRMC,121936,A,4326.3419,N,08557.1120,W,066.0,353.0,290615,0,E*79
$GPGGA,121936,4326.3419,N,08557.1120,W,1,04,0.9,504.444000000001,M,0.0,M,,*56
$GPRMC,121937,A,4326.3736,N,08557.1456,W,069.0,335.0,290615,0,E*7D
$GPGGA,121937,4326.3736,N,08557.1456,W,1,04,0.9,506.882400000001,M,0.0,M,,*5D
$GPRMC,121938,A,4326.3890,N,08557.1642,W,068.0,325.0,290615,0,E*76
$GPGGA,121938,4326.3890,N,08557.1642,W,1,04,0.9,502.920000000001,M,0.0,M,,*5F
$GPRMC,121940,A,4326.4039,N,08557.1831,W,072.0,320.0,290615,0,E*71
$GPGGA,121940,4326.4039,N,08557.1831,W,1,04,0.9,502.920000000001,M,0.0,M,,*56
$GPRMC,121941,A,4326.4174,N,08557.2047,W,069.0,317.0,290615,0,E*7C
$GPGGA,121941,4326.4174,N,08557.2047,W,1,04,0.9,501.700800000001,M,0.0,M,,*52
$GPRMC,121942,A,4326.4359,N,08557.2597,W,069.0,309.0,290615,0,E*75
$GPGGA,121942,4326.4359,N,08557.2597,W,1,04,0.9,501.700800000001,M,0.0,M,,*54
$GPRMC,121944,A,4326.4436,N,08557.2863,W,075.0,301.0,290615,0,E*7E
$GPGGA,121944,4326.4436,N,08557.2863,W,1,04,0.9,500.786400000001,M,0.0,M,,*59
$GPRMC,121945,A,4326.4339,N,08557.3107,W,075.0,297.0,290615,0,E*73
$GPGGA,121945,4326.4339,N,08557.3107,W,1,04,0.9,501.396000000001,M,0.0,M,,*5A
$GPRMC,121946,A,4326.4333,N,08557.3370,W,068.0,279.0,290615,0,E*74
$GPGGA,121946,4326.4333,N,08557.3370,W,1,04,0.9,499.262400000001,M,0.0,M,,*5F
$GPRMC,121946,A,4326.4348,N,08557.3636,W,068.0,276.0,290615,0,E*70
$GPGGA,121946,4326.4348,N,08557.3636,W,1,04,0.9,498.957600000001,M,0.0,M,,*5A
$GPRMC,121949,A,4326.4357,N,08557.4175,W,069.0,274.0,290615,0,E*75
$GPGGA,121949,4326.4357,N,08557.4175,W,1,04,0.9,497.433600000001,M,0.0,M,,*5C
$GPRMC,121950,A,4326.4352,N,08557.4698,W,069.0,271.0,290615,0,E*79
$GPGGA,121950,4326.4352,N,08557.4698,W,1,04,0.9,496.214400000001,M,0.0,M,,*55
$GPRMC,121954,A,4326.4315,N,08557.5768,W,070.0,268.0,290615,0,E*71
$GPGGA,121954,4326.4315,N,08557.5768,W,1,04,0.9,492.252000000001,M,0.0,M,,*5F
$GPRMC,122004,A,4326.4225,N,08557.8136,W,069.0,267.0,290615,0,E*7B
$GPGGA,122004,4326.4225,N,08557.8136,W,1,04,0.9,488.594400000001,M,0.0,M,,*50
$GPRMC,122007,A,4326.4162,N,08557.9185,W,069.0,265.0,290615,0,E*73
$GPGGA,122007,4326.4162,N,08557.9185,W,1,04,0.9,486.460800000001,M,0.0,M,,*52
$GPRMC,122010,A,4326.4061,N,08558.0005,W,071.0,261.0,290615,0,E*75
$GPGGA,122010,4326.4061,N,08558.0005,W,1,04,0.9,489.508800000001,M,0.0,M,,*59
$GPRMC,122014,A,4326.3976,N,08558.1104,W,072.0,265.0,290615,0,E*7F
$GPGGA,122014,4326.3976,N,08558.1104,W,1,04,0.9,496.214400000001,M,0.0,M,,*5C
$GPRMC,122019,A,4326.3942,N,08558.2169,W,069.0,268.0,290615,0,E*7A
$GPGGA,122019,4326.3942,N,08558.2169,W,1,04,0.9,495.604800000001,M,0.0,M,,*54
$GPRMC,122021,A,4326.3950,N,08558.2957,W,069.0,271.0,290615,0,E*7F
$GPGGA,122021,4326.3950,N,08558.2957,W,1,04,0.9,490.423200000001,M,0.0,M,,*51
$GPRMC,122031,A,4326.4035,N,08558.5335,W,069.0,273.0,290615,0,E*78
$GPGGA,122031,4326.4035,N,08558.5335,W,1,04,0.9,480.060000000001,M,0.0,M,,*54
$GPRMC,122034,A,4326.4099,N,08558.6399,W,069.0,276.0,290615,0,E*7B
$GPGGA,122034,4326.4099,N,08558.6399,W,1,04,0.9,479.145600000001,M,0.0,M,,*54
$GPRMC,122039,A,4326.4141,N,08558.7447,W,069.0,272.0,290615,0,E*73
$GPGGA,122039,4326.4141,N,08558.7447,W,1,04,0.9,480.974400000001,M,0.0,M,,*56
$GPRMC,122045,A,4326.4211,N,08558.9239,W,068.0,273.0,290615,0,E*7F
$GPGGA,122045,4326.4211,N,08558.9239,W,1,04,0.9,484.632000000001,M,0.0,M,,*57
$GPRMC,122048,A,4326.4196,N,08558.9988,W,065.0,269.0,290615,0,E*79
$GPGGA,122048,4326.4196,N,08558.9988,W,1,04,0.9,491.642400000001,M,0.0,M,,*50
$GPRMC,122049,A,4326.4163,N,08559.0222,W,063.0,265.0,290615,0,E*7B
$GPGGA,122049,4326.4163,N,08559.0222,W,1,04,0.9,494.690400000001,M,0.0,M,,*52
$GPRMC,122051,A,4326.4111,N,08559.0444,W,062.0,259.0,290615,0,E*7F
$GPGGA,122051,4326.4111,N,08559.0444,W,1,04,0.9,496.519200000001,M,0.0,M,,*5E
$GPRMC,122052,A,4326.4038,N,08559.0655,W,062.0,252.0,290615,0,E*7F
$GPGGA,122052,4326.4038,N,08559.0655,W,1,04,0.9,497.433600000001,M,0.0,M,,*59
$GPRMC,122053,A,4326.3959,N,08559.0860,W,061.0,245.0,290615,0,E*7A
$GPGGA,122053,4326.3959,N,08559.0860,W,1,04,0.9,497.738400000001,M,0.0,M,,*53
$GPRMC,122054,A,4326.3760,N,08559.1223,W,061.0,237.0,290615,0,E*70
$GPGGA,122054,4326.3760,N,08559.1223,W,1,04,0.9,498.043200000001,M,0.0,M,,*5E
$GPRMC,122057,A,4326.3494,N,08559.1523,W,060.0,232.0,290615,0,E*78
$GPGGA,122057,4326.3494,N,08559.1523,W,1,04,0.9,498.652800000001,M,0.0,M,,*5E
$GPRMC,122058,A,4326.3293,N,08559.1556,W,060.0,225.0,290615,0,E*72
$GPGGA,122058,4326.3293,N,08559.1556,W,1,04,0.9,498.652800000001,M,0.0,M,,*52
$GPRMC,122058,A,4326.3133,N,08559.1617,W,062.0,203.0,290615,0,E*7B
$GPGGA,122058,4326.3133,N,08559.1617,W,1,04,0.9,496.824000000001,M,0.0,M,,*54
$GPRMC,122100,A,4326.2960,N,08559.1669,W,062.0,196.0,290615,0,E*7E
$GPGGA,122100,4326.2960,N,08559.1669,W,1,04,0.9,497.433600000001,M,0.0,M,,*53
$GPRMC,122101,A,4326.2774,N,08559.1684,W,061.0,192.0,290615,0,E*70
$GPGGA,122101,4326.2774,N,08559.1684,W,1,04,0.9,498.348000000001,M,0.0,M,,*58
$GPRMC,122101,A,4326.2600,N,08559.1673,W,064.0,186.0,290615,0,E*7A
$GPGGA,122101,4326.2600,N,08559.1673,W,1,04,0.9,498.348000000001,M,0.0,M,,*52
$GPRMC,122102,A,4326.2432,N,08559.1690,W,062.0,181.0,290615,0,E*76
$GPGGA,122102,4326.2432,N,08559.1690,W,1,04,0.9,501.700800000001,M,0.0,M,,*5E
$GPRMC,122105,A,4326.2107,N,08559.1734,W,058.0,185.0,290615,0,E*70
$GPGGA,122105,4326.2107,N,08559.1734,W,1,04,0.9,506.272800000001,M,0.0,M,,*52
$GPRMC,122106,A,4326.1782,N,08559.1846,W,058.0,193.0,290615,0,E*76
$GPGGA,122106,4326.1782,N,08559.1846,W,1,04,0.9,512.368800000001,M,0.0,M,,*5C
$GPRMC,122113,A,4326.0639,N,08559.2119,W,060.0,189.0,290615,0,E*72
$GPGGA,122113,4326.0639,N,08559.2119,W,1,04,0.9,520.598400000001,M,0.0,M,,*5C
$GPRMC,122114,A,4326.0477,N,08559.2131,W,060.0,186.0,290615,0,E*78
$GPGGA,122114,4326.0477,N,08559.2131,W,1,04,0.9,521.208000000001,M,0.0,M,,*52
$GPRMC,122117,A,4326.0148,N,08559.2146,W,059.0,182.0,290615,0,E*7C
$GPGGA,122117,4326.0148,N,08559.2146,W,1,04,0.9,522.427200000001,M,0.0,M,,*52
$GPRMC,122126,A,4325.8495,N,08559.2222,W,060.0,181.0,290615,0,E*78
$GPGGA,122126,4325.8495,N,08559.2222,W,1,04,0.9,519.988800000001,M,0.0,M,,*55
$GPRMC,122134,A,4325.7359,N,08559.2300,W,058.0,185.0,290615,0,E*7D
$GPGGA,122134,4325.7359,N,08559.2300,W,1,04,0.9,517.245600000001,M,0.0,M,,*55
$GPRMC,122137,A,4325.6717,N,08559.2352,W,058.0,185.0,290615,0,E*76
$GPGGA,122137,4325.6717,N,08559.2352,W,1,04,0.9,506.577600000001,M,0.0,M,,*58
$GPRMC,122141,A,4325.6241,N,08559.2330,W,057.0,179.0,290615,0,E*79
$GPGGA,122141,4325.6241,N,08559.2330,W,1,04,0.9,505.968000000001,M,0.0,M,,*5C
$GPRMC,122141,A,4325.6100,N,08559.2249,W,057.0,174.0,290615,0,E*7D
$GPGGA,122141,4325.6100,N,08559.2249,W,1,04,0.9,505.663200000001,M,0.0,M,,*53
$GPRMC,122142,A,4325.5965,N,08559.2148,W,056.0,163.0,290615,0,E*73
$GPGGA,122142,4325.5965,N,08559.2148,W,1,04,0.9,503.224800000001,M,0.0,M,,*51
$GPRMC,122144,A,4325.5844,N,08559.2007,W,056.0,153.0,290615,0,E*7E
$GPGGA,122144,4325.5844,N,08559.2007,W,1,04,0.9,499.567200000001,M,0.0,M,,*57
$GPRMC,122145,A,4325.5742,N,08559.1843,W,057.0,142.0,290615,0,E*7C
$GPGGA,122145,4325.5742,N,08559.1843,W,1,04,0.9,497.128800000001,M,0.0,M,,*5F
$GPRMC,122145,A,4325.5667,N,08559.1656,W,057.0,130.0,290615,0,E*75
$GPGGA,122145,4325.5667,N,08559.1656,W,1,04,0.9,494.995200000001,M,0.0,M,,*54
$GPRMC,122146,A,4325.5616,N,08559.1450,W,057.0,120.0,290615,0,E*75
$GPGGA,122146,4325.5616,N,08559.1450,W,1,04,0.9,494.080800000001,M,0.0,M,,*52
$GPRMC,122148,A,4325.5564,N,08559.1246,W,057.0,111.0,290615,0,E*7E
$GPGGA,122148,4325.5564,N,08559.1246,W,1,04,0.9,491.947200000001,M,0.0,M,,*56
$GPRMC,122150,A,4325.5542,N,08559.0834,W,059.0,107.0,290615,0,E*74
$GPGGA,122150,4325.5542,N,08559.0834,W,1,04,0.9,491.032800000001,M,0.0,M,,*54
$GPRMC,122150,A,4325.5614,N,08559.0582,W,054.0,097.0,290615,0,E*71
$GPGGA,122150,4325.5614,N,08559.0582,W,1,04,0.9,490.118400000001,M,0.0,M,,*50
$GPRMC,122152,A,4325.5680,N,08559.0355,W,059.0,084.0,290615,0,E*7D
$GPGGA,122152,4325.5680,N,08559.0355,W,1,04,0.9,491.337600000001,M,0.0,M,,*5F
$GPRMC,122153,A,4325.5733,N,08559.0132,W,060.0,076.0,290615,0,E*71
$GPGGA,122153,4325.5733,N,08559.0132,W,1,04,0.9,488.289600000001,M,0.0,M,,*58
$GPRMC,122153,A,4325.5796,N,08558.9905,W,061.0,072.0,290615,0,E*7F
$GPGGA,122153,4325.5796,N,08558.9905,W,1,04,0.9,486.460800000001,M,0.0,M,,*52
$GPRMC,122155,A,4325.5877,N,08558.9691,W,062.0,068.0,290615,0,E*73
$GPGGA,122155,4325.5877,N,08558.9691,W,1,04,0.9,485.851200000001,M,0.0,M,,*51
$GPRMC,122155,A,4325.5970,N,08558.9489,W,063.0,064.0,290615,0,E*73
$GPGGA,122155,4325.5970,N,08558.9489,W,1,04,0.9,484.936800000001,M,0.0,M,,*57
$GPRMC,122156,A,4325.6068,N,08558.9283,W,063.0,060.0,290615,0,E*7B
$GPGGA,122156,4325.6068,N,08558.9283,W,1,04,0.9,484.327200000001,M,0.0,M,,*5B
$GPRMC,122158,A,4325.6294,N,08558.8890,W,065.0,055.0,290615,0,E*7D
$GPGGA,122158,4325.6294,N,08558.8890,W,1,04,0.9,482.803200000001,M,0.0,M,,*56
$GPRMC,122200,A,4325.6418,N,08558.8704,W,066.0,052.0,290615,0,E*77
$GPGGA,122200,4325.6418,N,08558.8704,W,1,04,0.9,482.498400000001,M,0.0,M,,*50
$GPRMC,122201,A,4325.6691,N,08558.8421,W,065.0,045.0,290615,0,E*74
$GPGGA,122201,4325.6691,N,08558.8421,W,1,04,0.9,484.936800000001,M,0.0,M,,*55
$GPRMC,122202,A,4325.6841,N,08558.8285,W,064.0,039.0,290615,0,E*76
$GPGGA,122202,4325.6841,N,08558.8285,W,1,04,0.9,484.632000000001,M,0.0,M,,*5E
$GPRMC,122204,A,4325.7001,N,08558.8173,W,062.0,034.0,290615,0,E*7C
$GPGGA,122204,4325.7001,N,08558.8173,W,1,04,0.9,488.899200000001,M,0.0,M,,*5E
$GPRMC,122204,A,4325.7160,N,08558.8078,W,063.0,027.0,290615,0,E*73
$GPGGA,122204,4325.7160,N,08558.8078,W,1,04,0.9,491.947200000001,M,0.0,M,,*58
$GPRMC,122205,A,4325.7332,N,08558.8004,W,063.0,023.0,290615,0,E*78
$GPGGA,122205,4325.7332,N,08558.8004,W,1,04,0.9,494.385600000001,M,0.0,M,,*52
$GPRMC,122206,A,4325.7514,N,08558.7947,W,064.0,018.0,290615,0,E*77
$GPGGA,122206,4325.7514,N,08558.7947,W,1,04,0.9,494.385600000001,M,0.0,M,,*52
$GPRMC,122208,A,4325.7697,N,08558.7908,W,066.0,013.0,290615,0,E*73
$GPGGA,122208,4325.7697,N,08558.7908,W,1,04,0.9,494.995200000001,M,0.0,M,,*50
$GPRMC,122209,A,4325.7883,N,08558.7890,W,066.0,009.0,290615,0,E*72
$GPGGA,122209,4325.7883,N,08558.7890,W,1,04,0.9,494.995200000001,M,0.0,M,,*5A
$GPRMC,122209,A,4325.8075,N,08558.7885,W,068.0,005.0,290615,0,E*7A
$GPGGA,122209,4325.8075,N,08558.7885,W,1,04,0.9,495.300000000001,M,0.0,M,,*55
$GPRMC,122211,A,4325.8455,N,08558.7871,W,069.0,002.0,290615,0,E*78
$GPGGA,122211,4325.8455,N,08558.7871,W,1,04,0.9,496.214400000001,M,0.0,M,,*52
$GPRMC,122215,A,4325.9240,N,08558.7867,W,070.0,000.0,290615,0,E*72
$GPGGA,122215,4325.9240,N,08558.7867,W,1,04,0.9,495.909600000001,M,0.0,M,,*54
$GPRMC,122229,A,4326.1780,N,08558.7963,W,072.0,358.0,290615,0,E*76
$GPGGA,122229,4326.1780,N,08558.7963,W,1,04,0.9,495.604800000001,M,0.0,M,,*50
$GPRMC,122235,A,4326.3181,N,08558.8042,W,072.0,357.0,290615,0,E*74
$GPGGA,122235,4326.3181,N,08558.8042,W,1,04,0.9,488.289600000001,M,0.0,M,,*5E
$GPRMC,122240,A,4326.4156,N,08558.8160,W,071.0,354.0,290615,0,E*7A
$GPGGA,122240,4326.4156,N,08558.8160,W,1,04,0.9,486.460800000001,M,0.0,M,,*51
$GPRMC,122247,A,4326.5344,N,08558.8352,W,072.0,354.0,290615,0,E*7D
$GPGGA,122247,4326.5344,N,08558.8352,W,1,04,0.9,497.738400000001,M,0.0,M,,*57
$GPRMC,122251,A,4326.6125,N,08558.8419,W,069.0,357.0,290615,0,E*7D
$GPGGA,122251,4326.6125,N,08558.8419,W,1,04,0.9,508.406400000001,M,0.0,M,,*57
$GPRMC,122257,A,4326.7273,N,08558.8553,W,069.0,353.0,290615,0,E*71
$GPGGA,122257,4326.7273,N,08558.8553,W,1,04,0.9,506.577600000001,M,0.0,M,,*54
$GPRMC,122259,A,4326.7646,N,08558.8647,W,069.0,351.0,290615,0,E*79
$GPGGA,122259,4326.7646,N,08558.8647,W,1,04,0.9,507.187200000001,M,0.0,M,,*50
$GPRMC,122312,A,4327.0129,N,08558.9261,W,072.0,347.0,290615,0,E*73
$GPGGA,122312,4327.0129,N,08558.9261,W,1,04,0.9,497.433600000001,M,0.0,M,,*51
$GPRMC,122321,A,4327.1871,N,08558.9861,W,071.0,346.0,290615,0,E*7E
$GPGGA,122321,4327.1871,N,08558.9861,W,1,04,0.9,500.481600000001,M,0.0,M,,*58
$GPRMC,122322,A,4327.2238,N,08559.0007,W,070.0,345.0,290615,0,E*7B
$GPGGA,122322,4327.2238,N,08559.0007,W,1,04,0.9,501.091200000001,M,0.0,M,,*5F
$GPRMC,122324,A,4327.2597,N,08559.0213,W,069.0,340.0,290615,0,E*75
$GPGGA,122324,4327.2597,N,08559.0213,W,1,04,0.9,502.615200000001,M,0.0,M,,*55
$GPRMC,122325,A,4327.2763,N,08559.0340,W,069.0,336.0,290615,0,E*7B
$GPGGA,122325,4327.2763,N,08559.0340,W,1,04,0.9,504.139200000001,M,0.0,M,,*55
$GPRMC,122326,A,4327.2928,N,08559.0483,W,069.0,332.0,290615,0,E*75
$GPGGA,122326,4327.2928,N,08559.0483,W,1,04,0.9,504.444000000001,M,0.0,M,,*52
$GPRMC,122328,A,4327.3083,N,08559.0653,W,070.0,327.0,290615,0,E*71
$GPGGA,122328,4327.3083,N,08559.0653,W,1,04,0.9,502.920000000001,M,0.0,M,,*53
$GPRMC,122329,A,4327.3221,N,08559.0847,W,071.0,322.0,290615,0,E*75
$GPGGA,122329,4327.3221,N,08559.0847,W,1,04,0.9,502.310400000001,M,0.0,M,,*5E
$GPRMC,122329,A,4327.3351,N,08559.1056,W,071.0,316.0,290615,0,E*7D
$GPGGA,122329,4327.3351,N,08559.1056,W,1,04,0.9,502.005600000001,M,0.0,M,,*54
$GPRMC,122331,A,4327.3473,N,08559.1279,W,072.0,310.0,290615,0,E*79
$GPGGA,122331,4327.3473,N,08559.1279,W,1,04,0.9,501.700800000001,M,0.0,M,,*5A
$GPRMC,122332,A,4327.3587,N,08559.1510,W,072.0,307.0,290615,0,E*7E
$GPGGA,122332,4327.3587,N,08559.1510,W,1,04,0.9,498.957600000001,M,0.0,M,,*58
$GPRMC,122332,A,4327.3692,N,08559.1757,W,073.0,303.0,290615,0,E*7D
$GPGGA,122332,4327.3692,N,08559.1757,W,1,04,0.9,497.433600000001,M,0.0,M,,*5E
$GPRMC,122334,A,4327.3881,N,08559.2250,W,073.0,300.0,290615,0,E*75
$GPGGA,122334,4327.3881,N,08559.2250,W,1,04,0.9,498.957600000001,M,0.0,M,,*55
$GPRMC,122337,A,4327.4144,N,08559.2975,W,072.0,296.0,290615,0,E*72
$GPGGA,122337,4327.4144,N,08559.2975,W,1,04,0.9,506.882400000001,M,0.0,M,,*50
$GPRMC,122339,A,4327.4284,N,08559.3465,W,070.0,293.0,290615,0,E*79
$GPGGA,122339,4327.4284,N,08559.3465,W,1,04,0.9,512.368800000001,M,0.0,M,,*5A
$GPRMC,122340,A,4327.4339,N,08559.3720,W,069.0,290.0,290615,0,E*79
$GPGGA,122340,4327.4339,N,08559.3720,W,1,04,0.9,514.502400000001,M,0.0,M,,*51
$GPRMC,122341,A,4327.4390,N,08559.3967,W,069.0,287.0,290615,0,E*70
$GPGGA,122341,4327.4390,N,08559.3967,W,1,04,0.9,517.245600000001,M,0.0,M,,*5B
$GPRMC,122343,A,4327.4482,N,08559.4463,W,068.0,284.0,290615,0,E*7A
$GPGGA,122343,4327.4482,N,08559.4463,W,1,04,0.9,523.036800000001,M,0.0,M,,*5C
$GPRMC,122353,A,4327.4848,N,08559.6772,W,071.0,282.0,290615,0,E*7E
$GPGGA,122353,4327.4848,N,08559.6772,W,1,04,0.9,529.437600000001,M,0.0,M,,*57
$GPRMC,122356,A,4327.4893,N,08559.7539,W,067.0,277.0,290615,0,E*7C
$GPGGA,122356,4327.4893,N,08559.7539,W,1,04,0.9,530.961600000001,M,0.0,M,,*5E
$GPRMC,122357,A,4327.4904,N,08559.7801,W,067.0,274.0,290615,0,E*77
$GPGGA,122357,4327.4904,N,08559.7801,W,1,04,0.9,535.228800000001,M,0.0,M,,*5B
$GPRMC,122358,A,4327.4900,N,08559.8052,W,066.0,271.0,290615,0,E*79
$GPGGA,122358,4327.4900,N,08559.8052,W,1,04,0.9,537.667200000001,M,0.0,M,,*56
$GPRMC,122358,A,4327.4880,N,08559.8305,W,066.0,268.0,290615,0,E*79
$GPGGA,122358,4327.4880,N,08559.8305,W,1,04,0.9,540.105600000001,M,0.0,M,,*59
$GPRMC,122400,A,4327.4857,N,08559.8548,W,065.0,265.0,290615,0,E*78
$GPGGA,122400,4327.4857,N,08559.8548,W,1,04,0.9,542.544000000001,M,0.0,M,,*53
$GPRMC,122402,A,4327.4789,N,08559.9030,W,065.0,260.0,290615,0,E*78
$GPGGA,122402,4327.4789,N,08559.9030,W,1,04,0.9,543.763200000001,M,0.0,M,,*52
$GPRMC,122403,A,4327.4713,N,08559.9507,W,064.0,257.0,290615,0,E*7E
$GPGGA,122403,4327.4713,N,08559.9507,W,1,04,0.9,544.068000000001,M,0.0,M,,*58
$GPRMC,122412,A,4327.4420,N,08600.1515,W,067.0,262.0,290615,0,E*7C
$GPGGA,122412,4327.4420,N,08600.1515,W,1,04,0.9,544.677600000001,M,0.0,M,,*51
$GPRMC,122414,A,4327.4406,N,08600.2034,W,068.0,267.0,290615,0,E*71
$GPGGA,122414,4327.4406,N,08600.2034,W,1,04,0.9,548.640000000001,M,0.0,M,,*58
$GPRMC,122416,A,4327.4413,N,08600.2551,W,068.0,270.0,290615,0,E*77
$GPGGA,122416,4327.4413,N,08600.2551,W,1,04,0.9,551.992800000001,M,0.0,M,,*58
$GPRMC,122417,A,4327.4442,N,08600.3071,W,069.0,274.0,290615,0,E*71
$GPGGA,122417,4327.4442,N,08600.3071,W,1,04,0.9,554.431200000001,M,0.0,M,,*50
$GPRMC,122419,A,4327.4497,N,08600.3581,W,067.0,277.0,290615,0,E*70
$GPGGA,122419,4327.4497,N,08600.3581,W,1,04,0.9,555.040800000001,M,0.0,M,,*55
$GPRMC,122421,A,4327.4563,N,08600.4076,W,066.0,280.0,290615,0,E*72
$GPGGA,122421,4327.4563,N,08600.4076,W,1,04,0.9,556.564800000001,M,0.0,M,,*5E
$GPRMC,122426,A,4327.4722,N,08600.5315,W,065.0,281.0,290615,0,E*77
$GPGGA,122426,4327.4722,N,08600.5315,W,1,04,0.9,554.126400000001,M,0.0,M,,*55
$GPRMC,122427,A,4327.4736,N,08600.5571,W,067.0,277.0,290615,0,E*7C
$GPGGA,122427,4327.4736,N,08600.5571,W,1,04,0.9,552.297600000001,M,0.0,M,,*58
$GPRMC,122429,A,4327.4746,N,08600.5822,W,067.0,275.0,290615,0,E*7C
$GPGGA,122429,4327.4746,N,08600.5822,W,1,04,0.9,550.773600000001,M,0.0,M,,*57
$GPRMC,122430,A,4327.4717,N,08600.6338,W,067.0,269.0,290615,0,E*7E
$GPGGA,122430,4327.4717,N,08600.6338,W,1,04,0.9,549.554400000001,M,0.0,M,,*55
$GPRMC,122431,A,4327.4658,N,08600.6575,W,067.0,266.0,290615,0,E*75
$GPGGA,122431,4327.4658,N,08600.6575,W,1,04,0.9,550.468800000001,M,0.0,M,,*5B
$GPRMC,122432,A,4327.4605,N,08600.6806,W,065.0,256.0,290615,0,E*76
$GPGGA,122432,4327.4605,N,08600.6806,W,1,04,0.9,551.383200000001,M,0.0,M,,*50
$GPRMC,122433,A,4327.4537,N,08600.7029,W,063.0,251.0,290615,0,E*70
$GPGGA,122433,4327.4537,N,08600.7029,W,1,04,0.9,551.078400000001,M,0.0,M,,*56
$GPRMC,122435,A,4327.4464,N,08600.7240,W,062.0,248.0,290615,0,E*75
$GPGGA,122435,4327.4464,N,08600.7240,W,1,04,0.9,550.773600000001,M,0.0,M,,*55
$GPRMC,122436,A,4327.4278,N,08600.7638,W,061.0,240.0,290615,0,E*7D
$GPGGA,122436,4327.4278,N,08600.7638,W,1,04,0.9,549.249600000001,M,0.0,M,,*52
$GPRMC,122437,A,4327.4170,N,08600.7828,W,062.0,237.0,290615,0,E*7B
$GPGGA,122437,4327.4170,N,08600.7828,W,1,04,0.9,548.030400000001,M,0.0,M,,*58
$GPRMC,122439,A,4327.4055,N,08600.8015,W,063.0,234.0,290615,0,E*78
$GPGGA,122439,4327.4055,N,08600.8015,W,1,04,0.9,546.506400000001,M,0.0,M,,*57
$GPRMC,122440,A,4327.3946,N,08600.8194,W,064.0,231.0,290615,0,E*70
$GPGGA,122440,4327.3946,N,08600.8194,W,1,04,0.9,545.592000000001,M,0.0,M,,*57
$GPRMC,122442,A,4327.3689,N,08600.8490,W,062.0,225.0,290615,0,E*7C
$GPGGA,122442,4327.3689,N,08600.8490,W,1,04,0.9,540.410400000001,M,0.0,M,,*52
$GPRMC,122443,A,4327.3555,N,08600.8624,W,062.0,222.0,290615,0,E*75
$GPGGA,122443,4327.3555,N,08600.8624,W,1,04,0.9,537.667200000001,M,0.0,M,,*58
$GPRMC,122444,A,4327.3417,N,08600.8753,W,061.0,218.0,290615,0,E*7E
$GPGGA,122444,4327.3417,N,08600.8753,W,1,04,0.9,536.448000000001,M,0.0,M,,*55
$GPRMC,122444,A,4327.3278,N,08600.8868,W,060.0,215.0,290615,0,E*7A
$GPGGA,122444,4327.3278,N,08600.8868,W,1,04,0.9,535.838400000001,M,0.0,M,,*51
$GPRMC,122446,A,4327.3129,N,08600.8978,W,059.0,212.0,290615,0,E*72
$GPGGA,122446,4327.3129,N,08600.8978,W,1,04,0.9,535.533600000001,M,0.0,M,,*50
$GPRMC,122446,A,4327.2986,N,08600.9056,W,060.0,210.0,290615,0,E*72
$GPGGA,122446,4327.2986,N,08600.9056,W,1,04,0.9,536.143200000001,M,0.0,M,,*5C
$GPRMC,122447,A,4327.2840,N,08600.9119,W,057.0,205.0,290615,0,E*72
$GPGGA,122447,4327.2840,N,08600.9119,W,1,04,0.9,536.143200000001,M,0.0,M,,*5C
$GPRMC,122448,A,4327.2684,N,08600.9166,W,056.0,199.0,290615,0,E*74
$GPGGA,122448,4327.2684,N,08600.9166,W,1,04,0.9,534.619200000001,M,0.0,M,,*57
$GPRMC,122450,A,4327.2521,N,08600.9205,W,056.0,193.0,290615,0,E*7D
$GPGGA,122450,4327.2521,N,08600.9205,W,1,04,0.9,532.790400000001,M,0.0,M,,*54
$GPRMC,122452,A,4327.2191,N,08600.9167,W,058.0,181.0,290615,0,E*7A
$GPGGA,122452,4327.2191,N,08600.9167,W,1,04,0.9,529.132800000001,M,0.0,M,,*56
$GPRMC,122452,A,4327.2030,N,08600.9117,W,059.0,175.0,290615,0,E*7D
$GPGGA,122452,4327.2030,N,08600.9117,W,1,04,0.9,527.608800000001,M,0.0,M,,*5B
$GPRMC,122454,A,4327.1884,N,08600.9039,W,060.0,168.0,290615,0,E*74
$GPGGA,122454,4327.1884,N,08600.9039,W,1,04,0.9,527.608800000001,M,0.0,M,,*54
$GPRMC,122455,A,4327.1737,N,08600.8936,W,059.0,160.0,290615,0,E*77
$GPGGA,122455,4327.1737,N,08600.8936,W,1,04,0.9,527.913600000001,M,0.0,M,,*5E
$GPRMC,122456,A,4327.1607,N,08600.8810,W,059.0,153.0,290615,0,E*73
$GPGGA,122456,4327.1607,N,08600.8810,W,1,04,0.9,530.047200000001,M,0.0,M,,*50
$GPRMC,122457,A,4327.1490,N,08600.8672,W,057.0,146.0,290615,0,E*7E
$GPGGA,122457,4327.1490,N,08600.8672,W,1,04,0.9,533.704800000001,M,0.0,M,,*5E
$GPRMC,122457,A,4327.1382,N,08600.8529,W,056.0,140.0,290615,0,E*70
$GPGGA,122457,4327.1382,N,08600.8529,W,1,04,0.9,537.362400000001,M,0.0,M,,*5B
$GPRMC,122458,A,4327.1276,N,08600.8393,W,054.0,136.0,290615,0,E*71
$GPGGA,122458,4327.1276,N,08600.8393,W,1,04,0.9,541.934400000001,M,0.0,M,,*51
$GPRMC,122502,A,4327.0954,N,08600.8034,W,050.0,142.0,290615,0,E*7C
$GPGGA,122502,4327.0954,N,08600.8034,W,1,04,0.9,553.516800000001,M,0.0,M,,*58
$GPRMC,122504,A,4327.0652,N,08600.7954,W,053.0,160.0,290615,0,E*70
$GPGGA,122504,4327.0652,N,08600.7954,W,1,04,0.9,547.725600000001,M,0.0,M,,*5E
$GPRMC,122504,A,4327.0485,N,08600.7953,W,055.0,168.0,290615,0,E*71
$GPGGA,122504,4327.0485,N,08600.7953,W,1,04,0.9,540.410400000001,M,0.0,M,,*51
$GPRMC,122506,A,4327.0314,N,08600.7983,W,059.0,178.0,290615,0,E*7C
$GPGGA,122506,4327.0314,N,08600.7983,W,1,04,0.9,532.485600000001,M,0.0,M,,*5A
$GPRMC,122507,A,4327.0140,N,08600.8031,W,062.0,185.0,290615,0,E*7B
$GPGGA,122507,4327.0140,N,08600.8031,W,1,04,0.9,526.084800000001,M,0.0,M,,*59
$GPRMC,122507,A,4326.9961,N,08600.8202,W,062.0,189.0,290615,0,E*76
$GPGGA,122507,4326.9961,N,08600.8202,W,1,04,0.9,517.245600000001,M,0.0,M,,*5B
$GPRMC,122509,A,4326.9798,N,08600.8333,W,069.0,207.0,290615,0,E*7D
$GPGGA,122509,4326.9798,N,08600.8333,W,1,04,0.9,522.732000000001,M,0.0,M,,*5B
$GPRMC,122510,A,4326.9654,N,08600.8471,W,069.0,211.0,290615,0,E*72
$GPGGA,122510,4326.9654,N,08600.8471,W,1,04,0.9,523.951200000001,M,0.0,M,,*5B
$GPRMC,122511,A,4326.9443,N,08600.8746,W,063.0,216.0,290615,0,E*7D
$GPGGA,122511,4326.9443,N,08600.8746,W,1,04,0.9,525.170400000001,M,0.0,M,,*52
$GPRMC,122513,A,4326.9398,N,08600.9002,W,054.0,220.0,290615,0,E*79
$GPGGA,122513,4326.9398,N,08600.9002,W,1,04,0.9,525.780000000001,M,0.0,M,,*5A
$GPRMC,122514,A,4326.9313,N,08600.9221,W,058.0,237.0,290615,0,E*74
$GPGGA,122514,4326.9313,N,08600.9221,W,1,04,0.9,532.790400000001,M,0.0,M,,*5E
$GPRMC,122517,A,4326.9054,N,08600.9860,W,062.0,241.0,290615,0,E*70
$GPGGA,122517,4326.9054,N,08600.9860,W,1,04,0.9,525.170400000001,M,0.0,M,,*5C
$GPRMC,122520,A,4326.8786,N,08601.0541,W,067.0,241.0,290615,0,E*7E
$GPGGA,122520,4326.8786,N,08601.0541,W,1,04,0.9,516.026400000001,M,0.0,M,,*55
$GPRMC,122521,A,4326.8602,N,08601.0940,W,063.0,239.0,290615,0,E*74
$GPGGA,122521,4326.8602,N,08601.0940,W,1,04,0.9,520.903200000001,M,0.0,M,,*59
$GPRMC,122523,A,4326.8505,N,08601.1126,W,061.0,237.0,290615,0,E*77
$GPGGA,122523,4326.8505,N,08601.1126,W,1,04,0.9,523.646400000001,M,0.0,M,,*5D
$GPRMC,122524,A,4326.8311,N,08601.1438,W,059.0,233.0,290615,0,E*76
$GPGGA,122524,4326.8311,N,08601.1438,W,1,04,0.9,525.780000000001,M,0.0,M,,*5A
$GPRMC,122526,A,4326.8201,N,08601.1593,W,054.0,229.0,290615,0,E*72
$GPGGA,122526,4326.8201,N,08601.1593,W,1,04,0.9,530.352000000001,M,0.0,M,,*57
$GPRMC,122526,A,4326.8089,N,08601.1749,W,056.0,226.0,290615,0,E*78
$GPGGA,122526,4326.8089,N,08601.1749,W,1,04,0.9,532.485600000001,M,0.0,M,,*59
$GPRMC,122529,A,4326.7728,N,08601.2228,W,060.0,222.0,290615,0,E*74
$GPGGA,122529,4326.7728,N,08601.2228,W,1,04,0.9,530.047200000001,M,0.0,M,,*58
$GPRMC,122536,A,4326.6998,N,08601.3192,W,060.0,225.0,290615,0,E*7A
$GPGGA,122536,4326.6998,N,08601.3192,W,1,04,0.9,531.266400000001,M,0.0,M,,*57
$GPRMC,122540,A,4326.6548,N,08601.3889,W,060.0,228.0,290615,0,E*74
$GPGGA,122540,4326.6548,N,08601.3889,W,1,04,0.9,534.619200000001,M,0.0,M,,*5B
$GPRMC,122543,A,4326.6236,N,08601.4439,W,061.0,231.0,290615,0,E*70
$GPGGA,122543,4326.6236,N,08601.4439,W,1,04,0.9,533.095200000001,M,0.0,M,,*53
$GPRMC,122545,A,4326.5946,N,08601.5014,W,062.0,235.0,290615,0,E*74
$GPGGA,122545,4326.5946,N,08601.5014,W,1,04,0.9,532.485600000001,M,0.0,M,,*50
$GPRMC,122548,A,4326.5767,N,08601.5409,W,062.0,238.0,290615,0,E*71
$GPGGA,122548,4326.5767,N,08601.5409,W,1,04,0.9,532.180800000001,M,0.0,M,,*56
$GPRMC,122552,A,4326.5423,N,08601.6230,W,061.0,241.0,290615,0,E*7B
$GPGGA,122552,4326.5423,N,08601.6230,W,1,04,0.9,532.180800000001,M,0.0,M,,*51
$GPRMC,122555,A,4326.5143,N,08601.6822,W,062.0,238.0,290615,0,E*7B
$GPGGA,122555,4326.5143,N,08601.6822,W,1,04,0.9,534.314400000001,M,0.0,M,,*59
$GPRMC,122556,A,4326.4944,N,08601.7186,W,060.0,234.0,290615,0,E*7E
$GPGGA,122556,4326.4944,N,08601.7186,W,1,04,0.9,537.667200000001,M,0.0,M,,*56
$GPRMC,122559,A,4326.4727,N,08601.7500,W,058.0,229.0,290615,0,E*77
$GPGGA,122559,4326.4727,N,08601.7500,W,1,04,0.9,539.496000000001,M,0.0,M,,*58
$GPRMC,122559,A,4326.4603,N,08601.7628,W,056.0,225.0,290615,0,E*7B
$GPGGA,122559,4326.4603,N,08601.7628,W,1,04,0.9,541.020000000001,M,0.0,M,,*50
$GPRMC,122601,A,4326.4468,N,08601.7735,W,055.0,218.0,290615,0,E*7A
$GPGGA,122601,4326.4468,N,08601.7735,W,1,04,0.9,543.458400000001,M,0.0,M,,*51
$GPRMC,122602,A,4326.4323,N,08601.7819,W,056.0,210.0,290615,0,E*7B
$GPGGA,122602,4326.4323,N,08601.7819,W,1,04,0.9,544.982400000001,M,0.0,M,,*56
$GPRMC,122602,A,4326.4169,N,08601.7892,W,057.0,203.0,290615,0,E*77
$GPGGA,122602,4326.4169,N,08601.7892,W,1,04,0.9,545.287200000001,M,0.0,M,,*50
$GPRMC,122603,A,4326.4008,N,08601.7943,W,059.0,199.0,290615,0,E*73
$GPGGA,122603,4326.4008,N,08601.7943,W,1,04,0.9,545.287200000001,M,0.0,M,,*5A
$GPRMC,122605,A,4326.3843,N,08601.7977,W,059.0,194.0,290615,0,E*7F
$GPGGA,122605,4326.3843,N,08601.7977,W,1,04,0.9,543.763200000001,M,0.0,M,,*52
$GPRMC,122606,A,4326.3680,N,08601.7988,W,060.0,189.0,290615,0,E*7B
$GPGGA,122606,4326.3680,N,08601.7988,W,1,04,0.9,542.848800000001,M,0.0,M,,*5D
$GPRMC,122607,A,4326.3514,N,08601.7986,W,059.0,184.0,290615,0,E*7D
$GPGGA,122607,4326.3514,N,08601.7986,W,1,04,0.9,542.239200000001,M,0.0,M,,*5A
$GPRMC,122607,A,4326.3347,N,08601.7968,W,059.0,180.0,290615,0,E*79
$GPGGA,122607,4326.3347,N,08601.7968,W,1,04,0.9,542.544000000001,M,0.0,M,,*55
$GPRMC,122608,A,4326.3192,N,08601.7927,W,060.0,177.0,290615,0,E*75
$GPGGA,122608,4326.3192,N,08601.7927,W,1,04,0.9,542.239200000001,M,0.0,M,,*54
$GPRMC,122610,A,4326.3032,N,08601.7874,W,058.0,171.0,290615,0,E*7D
$GPGGA,122610,4326.3032,N,08601.7874,W,1,04,0.9,542.239200000001,M,0.0,M,,*51
$GPRMC,122610,A,4326.2880,N,08601.7810,W,058.0,168.0,290615,0,E*77
$GPGGA,122610,4326.2880,N,08601.7810,W,1,04,0.9,541.629600000001,M,0.0,M,,*51
$GPRMC,122611,A,4326.2739,N,08601.7728,W,058.0,164.0,290615,0,E*73
$GPGGA,122611,4326.2739,N,08601.7728,W,1,04,0.9,541.934400000001,M,0.0,M,,*58
$GPRMC,122612,A,4326.2593,N,08601.7637,W,058.0,160.0,290615,0,E*79
$GPGGA,122612,4326.2593,N,08601.7637,W,1,04,0.9,542.544000000001,M,0.0,M,,*5A
$GPRMC,122614,A,4326.2456,N,08601.7531,W,057.0,156.0,290615,0,E*78
$GPGGA,122614,4326.2456,N,08601.7531,W,1,04,0.9,543.458400000001,M,0.0,M,,*58
$GPRMC,122614,A,4326.2323,N,08601.7411,W,057.0,151.0,290615,0,E*79
$GPGGA,122614,4326.2323,N,08601.7411,W,1,04,0.9,545.592000000001,M,0.0,M,,*5B
$GPRMC,122616,A,4326.2192,N,08601.7286,W,057.0,147.0,290615,0,E*7C
$GPGGA,122616,4326.2192,N,08601.7286,W,1,04,0.9,547.420800000001,M,0.0,M,,*5B
$GPRMC,122617,A,4326.1935,N,08601.7012,W,058.0,143.0,290615,0,E*7F
$GPGGA,122617,4326.1935,N,08601.7012,W,1,04,0.9,552.907200000001,M,0.0,M,,*55
$GPRMC,122620,A,4326.1569,N,08601.6603,W,057.0,140.0,290615,0,E*75
$GPGGA,122620,4326.1569,N,08601.6603,W,1,04,0.9,561.136800000001,M,0.0,M,,*53
$GPRMC,122624,A,4326.1216,N,08601.6225,W,053.0,142.0,290615,0,E*78
$GPGGA,122624,4326.1216,N,08601.6225,W,1,04,0.9,568.452000000001,M,0.0,M,,*5E
$GPRMC,122627,A,4326.0823,N,08601.5844,W,059.0,145.0,290615,0,E*75
$GPGGA,122627,4326.0823,N,08601.5844,W,1,04,0.9,565.404000000001,M,0.0,M,,*50
$GPRMC,122631,A,4326.0288,N,08601.5302,W,059.0,142.0,290615,0,E*77
$GPGGA,122631,4326.0288,N,08601.5302,W,1,04,0.9,577.291200000001,M,0.0,M,,*5E
$GPRMC,122632,A,4326.0074,N,08601.5010,W,056.0,137.0,290615,0,E*78
$GPGGA,122632,4326.0074,N,08601.5010,W,1,04,0.9,586.435200000001,M,0.0,M,,*5A
$GPRMC,122633,A,4325.9983,N,08601.4856,W,054.0,133.0,290615,0,E*7F
$GPGGA,122633,4325.9983,N,08601.4856,W,1,04,0.9,589.788000000001,M,0.0,M,,*53
$GPRMC,122634,A,4325.9898,N,08601.4690,W,053.0,130.0,290615,0,E*73
$GPGGA,122634,4325.9898,N,08601.4690,W,1,04,0.9,591.312000000001,M,0.0,M,,*55
$GPRMC,122636,A,4325.9823,N,08601.4514,W,053.0,126.0,290615,0,E*79
$GPGGA,122636,4325.9823,N,08601.4514,W,1,04,0.9,591.616800000001,M,0.0,M,,*51
$GPRMC,122637,A,4325.9764,N,08601.4317,W,054.0,121.0,290615,0,E*71
$GPGGA,122637,4325.9764,N,08601.4317,W,1,04,0.9,589.788000000001,M,0.0,M,,*5E
$GPRMC,122637,A,4325.9714,N,08601.4114,W,055.0,116.0,290615,0,E*72
$GPGGA,122637,4325.9714,N,08601.4114,W,1,04,0.9,586.740000000001,M,0.0,M,,*53
$GPRMC,122638,A,4325.9674,N,08601.3904,W,057.0,110.0,290615,0,E*70
$GPGGA,122638,4325.9674,N,08601.3904,W,1,04,0.9,584.301600000001,M,0.0,M,,*50
$GPRMC,122639,A,4325.9650,N,08601.3675,W,057.0,106.0,290615,0,E*79
$GPGGA,122639,4325.9650,N,08601.3675,W,1,04,0.9,582.777600000001,M,0.0,M,,*5D
$GPRMC,122640,A,4325.9632,N,08601.3448,W,059.0,101.0,290615,0,E*76
$GPGGA,122640,4325.9632,N,08601.3448,W,1,04,0.9,581.863200000001,M,0.0,M,,*56
$GPRMC,122641,A,4325.9620,N,08601.3222,W,059.0,098.0,290615,0,E*7F
$GPGGA,122641,4325.9620,N,08601.3222,W,1,04,0.9,581.558400000001,M,0.0,M,,*5D
$GPRMC,122643,A,4325.9614,N,08601.2990,W,059.0,095.0,290615,0,E*74
$GPGGA,122643,4325.9614,N,08601.2990,W,1,04,0.9,581.558400000001,M,0.0,M,,*5B
$GPRMC,122644,A,4325.9616,N,08601.2502,W,060.0,091.0,290615,0,E*78
$GPGGA,122644,4325.9616,N,08601.2502,W,1,04,0.9,582.168000000001,M,0.0,M,,*59
$GPRMC,122648,A,4325.9650,N,08601.1808,W,060.0,087.0,290615,0,E*75
$GPGGA,122648,4325.9650,N,08601.1808,W,1,04,0.9,580.034400000001,M,0.0,M,,*5D
$GPRMC,122651,A,4325.9701,N,08601.1079,W,064.0,084.0,290615,0,E*71
$GPGGA,122651,4325.9701,N,08601.1079,W,1,04,0.9,569.366400000001,M,0.0,M,,*5D
$GPRMC,122652,A,4325.9767,N,08601.0579,W,067.0,081.0,290615,0,E*70
$GPGGA,122652,4325.9767,N,08601.0579,W,1,04,0.9,564.794400000001,M,0.0,M,,*5E
$GPRMC,122655,A,4325.9851,N,08601.0094,W,066.0,077.0,290615,0,E*73
$GPGGA,122655,4325.9851,N,08601.0094,W,1,04,0.9,562.356000000001,M,0.0,M,,*5D
$GPRMC,122656,A,4325.9962,N,08600.9606,W,067.0,074.0,290615,0,E*76
$GPGGA,122656,4325.9962,N,08600.9606,W,1,04,0.9,560.832000000001,M,0.0,M,,*51
$GPRMC,122658,A,4326.0091,N,08600.9131,W,067.0,070.0,290615,0,E*70
$GPGGA,122658,4326.0091,N,08600.9131,W,1,04,0.9,561.441600000001,M,0.0,M,,*5C
$GPRMC,122701,A,4326.0233,N,08600.8667,W,066.0,068.0,290615,0,E*7A
$GPGGA,122701,4326.0233,N,08600.8667,W,1,04,0.9,564.184800000001,M,0.0,M,,*59
$GPRMC,122704,A,4326.0461,N,08600.7724,W,065.0,072.0,290615,0,E*7F
$GPGGA,122704,4326.0461,N,08600.7724,W,1,04,0.9,565.099200000001,M,0.0,M,,*52
$GPRMC,122706,A,4326.0484,N,08600.7470,W,064.0,075.0,290615,0,E*72
$GPGGA,122706,4326.0484,N,08600.7470,W,1,04,0.9,565.708800000001,M,0.0,M,,*5C
$GPRMC,122706,A,4326.0502,N,08600.7233,W,064.0,081.0,290615,0,E*77
$GPGGA,122706,4326.0502,N,08600.7233,W,1,04,0.9,568.756800000001,M,0.0,M,,*54
$GPRMC,122708,A,4326.0517,N,08600.6996,W,064.0,084.0,290615,0,E*7D
$GPGGA,122708,4326.0517,N,08600.6996,W,1,04,0.9,571.195200000001,M,0.0,M,,*50
$GPRMC,122711,A,4326.0541,N,08600.6296,W,061.0,088.0,290615,0,E*74
$GPGGA,122711,4326.0541,N,08600.6296,W,1,04,0.9,575.767200000001,M,0.0,M,,*5F
$GPRMC,122714,A,4326.0583,N,08600.5603,W,061.0,085.0,290615,0,E*79
$GPGGA,122714,4326.0583,N,08600.5603,W,1,04,0.9,581.253600000001,M,0.0,M,,*52
$GPRMC,122714,A,4326.0609,N,08600.5374,W,061.0,082.0,290615,0,E*7A
$GPGGA,122714,4326.0609,N,08600.5374,W,1,04,0.9,583.692000000001,M,0.0,M,,*5B
$GPRMC,122717,A,4326.0690,N,08600.4916,W,062.0,078.0,290615,0,E*70
$GPGGA,122717,4326.0690,N,08600.4916,W,1,04,0.9,583.692000000001,M,0.0,M,,*57
$GPRMC,122720,A,4326.0783,N,08600.3973,W,063.0,084.0,290615,0,E*71
$GPGGA,122720,4326.0783,N,08600.3973,W,1,04,0.9,580.034400000001,M,0.0,M,,*59
$GPRMC,122722,A,4326.0756,N,08600.3744,W,060.0,090.0,290615,0,E*77
$GPGGA,122722,4326.0756,N,08600.3744,W,1,04,0.9,579.729600000001,M,0.0,M,,*56
$GPRMC,122723,A,4326.0717,N,08600.3520,W,062.0,098.0,290615,0,E*79
$GPGGA,122723,4326.0717,N,08600.3520,W,1,04,0.9,577.596000000001,M,0.0,M,,*5C
$GPRMC,122724,A,4326.0664,N,08600.3307,W,061.0,103.0,290615,0,E*78
$GPGGA,122724,4326.0664,N,08600.3307,W,1,04,0.9,576.681600000001,M,0.0,M,,*5F
$GPRMC,122725,A,4326.0605,N,08600.3098,W,060.0,108.0,290615,0,E*71
$GPGGA,122725,4326.0605,N,08600.3098,W,1,04,0.9,576.681600000001,M,0.0,M,,*5C
$GPRMC,122727,A,4326.0469,N,08600.2483,W,056.0,108.0,290615,0,E*71
$GPGGA,122727,4326.0469,N,08600.2483,W,1,04,0.9,577.596000000001,M,0.0,M,,*5B
$GPRMC,122729,A,4326.0414,N,08600.2061,W,056.0,102.0,290615,0,E*77
$GPGGA,122729,4326.0414,N,08600.2061,W,1,04,0.9,578.510400000001,M,0.0,M,,*52
$GPRMC,122731,A,4326.0400,N,08600.1841,W,057.0,098.0,290615,0,E*71
$GPGGA,122731,4326.0400,N,08600.1841,W,1,04,0.9,577.900800000001,M,0.0,M,,*59
$GPRMC,122731,A,4326.0391,N,08600.1614,W,058.0,095.0,290615,0,E*72
$GPGGA,122731,4326.0391,N,08600.1614,W,1,04,0.9,576.376800000001,M,0.0,M,,*52
$GPRMC,122734,A,4326.0376,N,08600.1147,W,060.0,092.0,290615,0,E*73
$GPGGA,122734,4326.0376,N,08600.1147,W,1,04,0.9,573.633600000001,M,0.0,M,,*50
$GPRMC,122740,A,4326.0299,N,08559.9561,W,058.0,096.0,290615,0,E*78
$GPGGA,122740,4326.0299,N,08559.9561,W,1,04,0.9,578.510400000001,M,0.0,M,,*5F
$GPRMC,122745,A,4326.0260,N,08559.8683,W,057.0,091.0,290615,0,E*7D
$GPGGA,122745,4326.0260,N,08559.8683,W,1,04,0.9,590.092800000001,M,0.0,M,,*57
$GPRMC,122748,A,4326.0210,N,08559.7792,W,059.0,096.0,290615,0,E*70
$GPGGA,122748,4326.0210,N,08559.7792,W,1,04,0.9,600.456000000001,M,0.0,M,,*5D
$GPRMC,122752,A,4326.0117,N,08559.6865,W,061.0,097.0,290615,0,E*73
$GPGGA,122752,4326.0117,N,08559.6865,W,1,04,0.9,614.172000000001,M,0.0,M,,*52
$GPRMC,122754,A,4326.0091,N,08559.6422,W,057.0,095.0,290615,0,E*72
$GPGGA,122754,4326.0091,N,08559.6422,W,1,04,0.9,623.011200000001,M,0.0,M,,*56
$GPRMC,122757,A,4326.0088,N,08559.5983,W,057.0,092.0,290615,0,E*7B
$GPGGA,122757,4326.0088,N,08559.5983,W,1,04,0.9,625.449600000001,M,0.0,M,,*53
$GPRMC,122758,A,4326.0114,N,08559.5530,W,059.0,087.0,290615,0,E*7E
$GPGGA,122758,4326.0114,N,08559.5530,W,1,04,0.9,623.316000000001,M,0.0,M,,*51
$GPRMC,122800,A,4326.0146,N,08559.5302,W,060.0,083.0,290615,0,E*72
$GPGGA,122800,4326.0146,N,08559.5302,W,1,04,0.9,620.572800000001,M,0.0,M,,*5C
$GPRMC,122801,A,4326.0192,N,08559.5072,W,062.0,079.0,290615,0,E*79
$GPGGA,122801,4326.0192,N,08559.5072,W,1,04,0.9,618.744000000001,M,0.0,M,,*54
$GPRMC,122801,A,4326.0250,N,08559.4849,W,062.0,075.0,290615,0,E*79
$GPGGA,122801,4326.0250,N,08559.4849,W,1,04,0.9,618.744000000001,M,0.0,M,,*58
$GPRMC,122802,A,4326.0318,N,08559.4628,W,062.0,071.0,290615,0,E*7A
$GPGGA,122802,4326.0318,N,08559.4628,W,1,04,0.9,618.439200000001,M,0.0,M,,*54
$GPRMC,122803,A,4326.0393,N,08559.4414,W,062.0,068.0,290615,0,E*7D
$GPGGA,122803,4326.0393,N,08559.4414,W,1,04,0.9,617.829600000001,M,0.0,M,,*5D
$GPRMC,122805,A,4326.0474,N,08559.4213,W,062.0,065.0,290615,0,E*79
$GPGGA,122805,4326.0474,N,08559.4213,W,1,04,0.9,616.915200000001,M,0.0,M,,*5F
$GPRMC,122806,A,4326.0648,N,08559.3811,W,062.0,060.0,290615,0,E*7D
$GPGGA,122806,4326.0648,N,08559.3811,W,1,04,0.9,616.915200000001,M,0.0,M,,*5E
$GPRMC,122809,A,4326.0838,N,08559.3420,W,062.0,057.0,290615,0,E*71
$GPGGA,122809,4326.0838,N,08559.3420,W,1,04,0.9,615.086400000001,M,0.0,M,,*50
$GPRMC,122811,A,4326.1036,N,08559.3026,W,063.0,055.0,290615,0,E*7E
$GPGGA,122811,4326.1036,N,08559.3026,W,1,04,0.9,614.172000000001,M,0.0,M,,*53
$GPRMC,122813,A,4326.1326,N,08559.2397,W,065.0,058.0,290615,0,E*7D
$GPGGA,122813,4326.1326,N,08559.2397,W,1,04,0.9,608.990400000001,M,0.0,M,,*56
$GPRMC,122819,A,4326.1892,N,08559.1149,W,062.0,058.0,290615,0,E*76
$GPGGA,122819,4326.1892,N,08559.1149,W,1,04,0.9,623.011200000001,M,0.0,M,,*55
$GPRMC,122823,A,4326.2202,N,08559.0565,W,063.0,055.0,290615,0,E*78
$GPGGA,122823,4326.2202,N,08559.0565,W,1,04,0.9,629.107200000001,M,0.0,M,,*5B
$GPRMC,122824,A,4326.2426,N,08559.0184,W,065.0,052.0,290615,0,E*75
$GPGGA,122824,4326.2426,N,08559.0184,W,1,04,0.9,630.021600000001,M,0.0,M,,*5E
$GPRMC,122827,A,4326.2679,N,08558.9825,W,065.0,047.0,290615,0,E*70
$GPGGA,122827,4326.2679,N,08558.9825,W,1,04,0.9,634.288800000001,M,0.0,M,,*54
$GPRMC,122827,A,4326.2817,N,08558.9655,W,066.0,044.0,290615,0,E*7F
$GPGGA,122827,4326.2817,N,08558.9655,W,1,04,0.9,635.203200000001,M,0.0,M,,*53
$GPRMC,122829,A,4326.2964,N,08558.9496,W,067.0,042.0,290615,0,E*7E
$GPGGA,122829,4326.2964,N,08558.9496,W,1,04,0.9,635.508000000001,M,0.0,M,,*5B
$GPRMC,122829,A,4326.3116,N,08558.9346,W,067.0,039.0,290615,0,E*74
$GPGGA,122829,4326.3116,N,08558.9346,W,1,04,0.9,636.117600000001,M,0.0,M,,*52
$GPRMC,122830,A,4326.3272,N,08558.9207,W,068.0,036.0,290615,0,E*79
$GPGGA,122830,4326.3272,N,08558.9207,W,1,04,0.9,635.812800000001,M,0.0,M,,*5E
$GPRMC,122833,A,4326.3604,N,08558.8961,W,068.0,030.0,290615,0,E*73
$GPGGA,122833,4326.3604,N,08558.8961,W,1,04,0.9,635.812800000001,M,0.0,M,,*52
$GPRMC,122834,A,4326.3781,N,08558.8856,W,068.0,027.0,290615,0,E*7B
$GPGGA,122834,4326.3781,N,08558.8856,W,1,04,0.9,635.812800000001,M,0.0,M,,*5C
$GPRMC,122835,A,4326.3954,N,08558.8753,W,068.0,025.0,290615,0,E*74
$GPGGA,122835,4326.3954,N,08558.8753,W,1,04,0.9,634.593600000001,M,0.0,M,,*5A
$GPRMC,122837,A,4326.4313,N,08558.8589,W,068.0,020.0,290615,0,E*78
$GPGGA,122837,4326.4313,N,08558.8589,W,1,04,0.9,634.288800000001,M,0.0,M,,*50
$GPRMC,122838,A,4326.4680,N,08558.8456,W,068.0,017.0,290615,0,E*7F
$GPGGA,122838,4326.4680,N,08558.8456,W,1,04,0.9,633.374400000001,M,0.0,M,,*5A
$GPRMC,122841,A,4326.5059,N,08558.8335,W,069.0,014.0,290615,0,E*72
$GPGGA,122841,4326.5059,N,08558.8335,W,1,04,0.9,633.374400000001,M,0.0,M,,*55
$GPRMC,122842,A,4326.5439,N,08558.8290,W,069.0,008.0,290615,0,E*70
$GPGGA,122842,4326.5439,N,08558.8290,W,1,04,0.9,633.679200000001,M,0.0,M,,*54
$GPRMC,122844,A,4326.5817,N,08558.8228,W,069.0,005.0,290615,0,E*78
$GPGGA,122844,4326.5817,N,08558.8228,W,1,04,0.9,635.203200000001,M,0.0,M,,*5E
$GPRMC,122847,A,4326.6228,N,08558.8330,W,072.0,356.0,290615,0,E*79
$GPGGA,122847,4326.6228,N,08558.8330,W,1,04,0.9,633.679200000001,M,0.0,M,,*5F
$GPRMC,122848,A,4326.6422,N,08558.8414,W,073.0,350.0,290615,0,E*7C
$GPGGA,122848,4326.6422,N,08558.8414,W,1,04,0.9,635.203200000001,M,0.0,M,,*52
$GPRMC,122849,A,4326.6621,N,08558.8511,W,074.0,343.0,290615,0,E*7D
$GPGGA,122849,4326.6621,N,08558.8511,W,1,04,0.9,635.508000000001,M,0.0,M,,*58
$GPRMC,122850,A,4326.6805,N,08558.8627,W,074.0,340.0,290615,0,E*78
$GPGGA,122850,4326.6805,N,08558.8627,W,1,04,0.9,636.117600000001,M,0.0,M,,*51
$GPRMC,122851,A,4326.7003,N,08558.8779,W,074.0,336.0,290615,0,E*7D
$GPGGA,122851,4326.7003,N,08558.8779,W,1,04,0.9,636.422400000001,M,0.0,M,,*54
$GPRMC,122852,A,4326.7131,N,08558.8987,W,078.0,333.0,290615,0,E*78
$GPGGA,122852,4326.7131,N,08558.8987,W,1,04,0.9,636.117600000001,M,0.0,M,,*59
$GPRMC,122853,A,4326.7278,N,08558.9175,W,074.0,322.0,290615,0,E*7F
$GPGGA,122853,4326.7278,N,08558.9175,W,1,04,0.9,635.812800000001,M,0.0,M,,*53
$GPRMC,122854,A,4326.7408,N,08558.9392,W,074.0,317.0,290615,0,E*74
$GPGGA,122854,4326.7408,N,08558.9392,W,1,04,0.9,633.374400000001,M,0.0,M,,*5F
$GPRMC,122854,A,4326.7544,N,08558.9621,W,075.0,312.0,290615,0,E*74
$GPGGA,122854,4326.7544,N,08558.9621,W,1,04,0.9,632.155200000001,M,0.0,M,,*5D
$GPRMC,122857,A,4326.7755,N,08559.0118,W,076.0,303.0,290615,0,E*73
$GPGGA,122857,4326.7755,N,08559.0118,W,1,04,0.9,630.936000000001,M,0.0,M,,*54
$GPRMC,122859,A,4326.7894,N,08559.0647,W,073.0,294.0,290615,0,E*78
$GPGGA,122859,4326.7894,N,08559.0647,W,1,04,0.9,632.764800000001,M,0.0,M,,*56
$GPRMC,122901,A,4326.8077,N,08559.1392,W,069.0,291.0,290615,0,E*7C
$GPGGA,122901,4326.8077,N,08559.1392,W,1,04,0.9,633.679200000001,M,0.0,M,,*5A
$GPRMC,122902,A,4326.8120,N,08559.1630,W,068.0,288.0,290615,0,E*78
$GPGGA,122902,4326.8120,N,08559.1630,W,1,04,0.9,633.679200000001,M,0.0,M,,*57
$GPRMC,122904,A,4326.8199,N,08559.2123,W,066.0,284.0,290615,0,E*78
$GPGGA,122904,4326.8199,N,08559.2123,W,1,04,0.9,633.984000000001,M,0.0,M,,*5A
$GPRMC,122906,A,4326.8241,N,08559.2648,W,066.0,279.0,290615,0,E*74
$GPGGA,122906,4326.8241,N,08559.2648,W,1,04,0.9,630.936000000001,M,0.0,M,,*5E
$GPRMC,122908,A,4326.8273,N,08559.3155,W,067.0,275.0,290615,0,E*7C
$GPGGA,122908,4326.8273,N,08559.3155,W,1,04,0.9,626.973600000001,M,0.0,M,,*5B
$GPRMC,122913,A,4326.8290,N,08559.3692,W,069.0,271.0,290615,0,E*7D
$GPGGA,122913,4326.8290,N,08559.3692,W,1,04,0.9,622.706400000001,M,0.0,M,,*5A
$GPRMC,122915,A,4326.8261,N,08559.4934,W,064.0,269.0,290615,0,E*75
$GPGGA,122915,4326.8261,N,08559.4934,W,1,04,0.9,623.011200000001,M,0.0,M,,*50
$GPRMC,122917,A,4326.8232,N,08559.5195,W,066.0,265.0,290615,0,E*7D
$GPGGA,122917,4326.8232,N,08559.5195,W,1,04,0.9,623.316000000001,M,0.0,M,,*50
$GPRMC,122918,A,4326.8206,N,08559.5449,W,068.0,262.0,290615,0,E*78
$GPGGA,122918,4326.8206,N,08559.5449,W,1,04,0.9,622.706400000001,M,0.0,M,,*5C
$GPRMC,122920,A,4326.8116,N,08559.5965,W,070.0,258.0,290615,0,E*72
$GPGGA,122920,4326.8116,N,08559.5965,W,1,04,0.9,616.915200000001,M,0.0,M,,*5B
$GPRMC,122921,A,4326.7983,N,08559.6469,W,070.0,252.0,290615,0,E*70
$GPGGA,122921,4326.7983,N,08559.6469,W,1,04,0.9,616.610400000001,M,0.0,M,,*5F
$GPRMC,122922,A,4326.7919,N,08559.6700,W,069.0,250.0,290615,0,E*76
$GPGGA,122922,4326.7919,N,08559.6700,W,1,04,0.9,618.134400000001,M,0.0,M,,*5C
$GPRMC,122925,A,4326.7768,N,08559.7153,W,066.0,246.0,290615,0,E*70
$GPGGA,122925,4326.7768,N,08559.7153,W,1,04,0.9,618.134400000001,M,0.0,M,,*52
$GPRMC,122927,A,4326.7593,N,08559.7579,W,065.0,243.0,290615,0,E*7E
$GPGGA,122927,4326.7593,N,08559.7579,W,1,04,0.9,616.915200000001,M,0.0,M,,*59
$GPRMC,122928,A,4326.7495,N,08559.7764,W,062.0,238.0,290615,0,E*73
$GPGGA,122928,4326.7495,N,08559.7764,W,1,04,0.9,615.391200000001,M,0.0,M,,*5A
$GPRMC,122929,A,4326.7289,N,08559.8136,W,062.0,233.0,290615,0,E*7C
$GPGGA,122929,4326.7289,N,08559.8136,W,1,04,0.9,611.124000000001,M,0.0,M,,*54
$GPRMC,122931,A,4326.7048,N,08559.8477,W,063.0,228.0,290615,0,E*71
$GPGGA,122931,4326.7048,N,08559.8477,W,1,04,0.9,604.723200000001,M,0.0,M,,*55
$GPRMC,122932,A,4326.6910,N,08559.8633,W,062.0,225.0,290615,0,E*79
$GPGGA,122932,4326.6910,N,08559.8633,W,1,04,0.9,602.894400000001,M,0.0,M,,*52
$GPRMC,122934,A,4326.6772,N,08559.8777,W,063.0,222.0,290615,0,E*72
$GPGGA,122934,4326.6772,N,08559.8777,W,1,04,0.9,599.846400000001,M,0.0,M,,*51
$GPRMC,122934,A,4326.6631,N,08559.8920,W,063.0,218.0,290615,0,E*71
$GPGGA,122934,4326.6631,N,08559.8920,W,1,04,0.9,598.017600000001,M,0.0,M,,*54
$GPRMC,122935,A,4326.6482,N,08559.9041,W,062.0,214.0,290615,0,E*78
$GPGGA,122935,4326.6482,N,08559.9041,W,1,04,0.9,597.103200000001,M,0.0,M,,*5F
$GPRMC,122936,A,4326.6323,N,08559.9134,W,061.0,211.0,290615,0,E*72
$GPGGA,122936,4326.6323,N,08559.9134,W,1,04,0.9,596.493600000001,M,0.0,M,,*5A
$GPRMC,122938,A,4326.6169,N,08559.9204,W,060.0,205.0,290615,0,E*74
$GPGGA,122938,4326.6169,N,08559.9204,W,1,04,0.9,597.103200000001,M,0.0,M,,*51
$GPRMC,122939,A,4326.6017,N,08559.9242,W,057.0,200.0,290615,0,E*7E
$GPGGA,122939,4326.6017,N,08559.9242,W,1,04,0.9,597.408000000001,M,0.0,M,,*56
$GPRMC,122940,A,4326.5860,N,08559.9268,W,055.0,193.0,290615,0,E*78
$GPGGA,122940,4326.5860,N,08559.9268,W,1,04,0.9,598.017600000001,M,0.0,M,,*58
$GPRMC,122940,A,4326.5705,N,08559.9240,W,055.0,190.0,290615,0,E*7D
$GPGGA,122940,4326.5705,N,08559.9240,W,1,04,0.9,597.712800000001,M,0.0,M,,*5D
$GPRMC,122941,A,4326.5547,N,08559.9211,W,054.0,179.0,290615,0,E*7A
$GPGGA,122941,4326.5547,N,08559.9211,W,1,04,0.9,596.188800000001,M,0.0,M,,*58
$GPRMC,122943,A,4326.5403,N,08559.9172,W,055.0,174.0,290615,0,E*73
$GPGGA,122943,4326.5403,N,08559.9172,W,1,04,0.9,596.493600000001,M,0.0,M,,*5C
$GPRMC,122943,A,4326.5253,N,08559.9117,W,054.0,170.0,290615,0,E*76
$GPGGA,122943,4326.5253,N,08559.9117,W,1,04,0.9,594.664800000001,M,0.0,M,,*5A
$GPRMC,122945,A,4326.5108,N,08559.9050,W,054.0,166.0,290615,0,E*78
$GPGGA,122945,4326.5108,N,08559.9050,W,1,04,0.9,593.750400000001,M,0.0,M,,*5E
$GPRMC,122946,A,4326.4972,N,08559.8967,W,054.0,161.0,290615,0,E*74
$GPGGA,122946,4326.4972,N,08559.8967,W,1,04,0.9,593.140800000001,M,0.0,M,,*5E
$GPRMC,122947,A,4326.4842,N,08559.8866,W,054.0,157.0,290615,0,E*72
$GPGGA,122947,4326.4842,N,08559.8866,W,1,04,0.9,594.055200000001,M,0.0,M,,*55
$GPRMC,122948,A,4326.4714,N,08559.8750,W,054.0,153.0,290615,0,E*7F
$GPGGA,122948,4326.4714,N,08559.8750,W,1,04,0.9,595.579200000001,M,0.0,M,,*56
$GPRMC,122949,A,4326.4601,N,08559.8610,W,054.0,146.0,290615,0,E*7A
$GPGGA,122949,4326.4601,N,08559.8610,W,1,04,0.9,597.103200000001,M,0.0,M,,*5C
$GPRMC,122949,A,4326.4494,N,08559.8453,W,055.0,140.0,290615,0,E*76
$GPGGA,122949,4326.4494,N,08559.8453,W,1,04,0.9,597.712800000001,M,0.0,M,,*5B
$GPRMC,122950,A,4326.4395,N,08559.8286,W,056.0,135.0,290615,0,E*77
$GPGGA,122950,4326.4395,N,08559.8286,W,1,04,0.9,597.103200000001,M,0.0,M,,*57
$GPRMC,122951,A,4326.4307,N,08559.8113,W,056.0,130.0,290615,0,E*77
$GPGGA,122951,4326.4307,N,08559.8113,W,1,04,0.9,597.408000000001,M,0.0,M,,*5E
$GPRMC,122952,A,4326.4235,N,08559.7937,W,055.0,125.0,290615,0,E*72
$GPGGA,122952,4326.4235,N,08559.7937,W,1,04,0.9,597.712800000001,M,0.0,M,,*5C
$GPRMC,122953,A,4326.4173,N,08559.7754,W,053.0,119.0,290615,0,E*70
$GPGGA,122953,4326.4173,N,08559.7754,W,1,04,0.9,597.712800000001,M,0.0,M,,*57
$GPRMC,122954,A,4326.4130,N,08559.7563,W,053.0,116.0,290615,0,E*79
$GPGGA,122954,4326.4130,N,08559.7563,W,1,04,0.9,598.322400000001,M,0.0,M,,*55
$GPRMC,122955,A,4326.4095,N,08559.7383,W,051.0,109.0,290615,0,E*72
$GPGGA,122955,4326.4095,N,08559.7383,W,1,04,0.9,599.541600000001,M,0.0,M,,*52
$GPRMC,122957,A,4326.4064,N,08559.7191,W,050.0,106.0,290615,0,E*71
$GPGGA,122957,4326.4064,N,08559.7191,W,1,04,0.9,600.456000000001,M,0.0,M,,*5D
$GPRMC,122957,A,4326.4043,N,08559.7000,W,050.0,103.0,290615,0,E*78
$GPGGA,122957,4326.4043,N,08559.7000,W,1,04,0.9,598.017600000001,M,0.0,M,,*54
$GPRMC,122958,A,4326.4034,N,08559.6806,W,050.0,100.0,290615,0,E*7B
$GPGGA,122958,4326.4034,N,08559.6806,W,1,04,0.9,594.664800000001,M,0.0,M,,*54
$GPRMC,122959,A,4326.4028,N,08559.6614,W,051.0,096.0,290615,0,E*75
$GPGGA,122959,4326.4028,N,08559.6614,W,1,04,0.9,589.788000000001,M,0.0,M,,*52
$GPRMC,123001,A,4326.4028,N,08559.6411,W,051.0,093.0,290615,0,E*72
$GPGGA,123001,4326.4028,N,08559.6411,W,1,04,0.9,583.692000000001,M,0.0,M,,*50
$GPRMC,123003,A,4326.4037,N,08559.5999,W,053.0,089.0,290615,0,E*79
$GPGGA,123003,4326.4037,N,08559.5999,W,1,04,0.9,576.072000000001,M,0.0,M,,*50
$GPRMC,123005,A,4326.4061,N,08559.5602,W,054.0,086.0,290615,0,E*79
$GPGGA,123005,4326.4061,N,08559.5602,W,1,04,0.9,570.585600000001,M,0.0,M,,*55
$GPRMC,123015,A,4326.4158,N,08559.4171,W,055.0,087.0,290615,0,E*71
$GPGGA,123015,4326.4158,N,08559.4171,W,1,04,0.9,559.003200000001,M,0.0,M,,*59
$GPRMC,123015,A,4326.4222,N,08559.3356,W,053.0,083.0,290615,0,E*7D
$GPGGA,123015,4326.4222,N,08559.3356,W,1,04,0.9,561.136800000001,M,0.0,M,,*51
$GPRMC,123017,A,4326.4249,N,08559.3160,W,052.0,079.0,290615,0,E*71
$GPGGA,123017,4326.4249,N,08559.3160,W,1,04,0.9,560.222400000001,M,0.0,M,,*52
$GPRMC,123020,A,4326.4384,N,08559.2558,W,056.0,075.0,290615,0,E*73
$GPGGA,123020,4326.4384,N,08559.2558,W,1,04,0.9,558.088800000001,M,0.0,M,,*5D
$GPRMC,123022,A,4326.4528,N,08559.2146,W,059.0,068.0,290615,0,E*79
$GPGGA,123022,4326.4528,N,08559.2146,W,1,04,0.9,554.736000000001,M,0.0,M,,*52
$GPRMC,123023,A,4326.4612,N,08559.1942,W,060.0,062.0,290615,0,E*7D
$GPGGA,123023,4326.4612,N,08559.1942,W,1,04,0.9,556.564800000001,M,0.0,M,,*59
$GPRMC,123025,A,4326.4834,N,08559.1625,W,062.0,058.0,290615,0,E*74
$GPGGA,123025,4326.4834,N,08559.1625,W,1,04,0.9,558.698400000001,M,0.0,M,,*59
$GPRMC,123026,A,4326.4951,N,08559.1465,W,058.0,046.0,290615,0,E*75
$GPGGA,123026,4326.4951,N,08559.1465,W,1,04,0.9,560.222400000001,M,0.0,M,,*50
$GPRMC,123028,A,4326.5236,N,08559.1253,W,058.0,036.0,290615,0,E*74
$GPGGA,123028,4326.5236,N,08559.1253,W,1,04,0.9,558.393600000001,M,0.0,M,,*54
$GPRMC,123029,A,4326.5389,N,08559.1147,W,057.0,032.0,290615,0,E*7D
$GPGGA,123029,4326.5389,N,08559.1147,W,1,04,0.9,557.784000000001,M,0.0,M,,*5D
$GPRMC,123030,A,4326.5558,N,08559.1086,W,059.0,029.0,290615,0,E*77
$GPGGA,123030,4326.5558,N,08559.1086,W,1,04,0.9,556.869600000001,M,0.0,M,,*58
$GPRMC,123031,A,4326.5737,N,08559.1026,W,060.0,023.0,290615,0,E*77
$GPGGA,123031,4326.5737,N,08559.1026,W,1,04,0.9,554.736000000001,M,0.0,M,,*59
$GPRMC,123032,A,4326.5924,N,08559.0946,W,063.0,018.0,290615,0,E*7D
$GPGGA,123032,4326.5924,N,08559.0946,W,1,04,0.9,550.468800000001,M,0.0,M,,*5C
$GPRMC,123034,A,4326.6275,N,08559.0854,W,066.0,014.0,290615,0,E*7C
$GPGGA,123034,4326.6275,N,08559.0854,W,1,04,0.9,548.944800000001,M,0.0,M,,*5E
$GPRMC,123034,A,4326.6432,N,08559.0823,W,063.0,011.0,290615,0,E*79
$GPGGA,123034,4326.6432,N,08559.0823,W,1,04,0.9,548.030400000001,M,0.0,M,,*5D
$GPRMC,123037,A,4326.6787,N,08559.0808,W,062.0,004.0,290615,0,E*7B
$GPGGA,123037,4326.6787,N,08559.0808,W,1,04,0.9,544.372800000001,M,0.0,M,,*5F
$GPRMC,123039,A,4326.7131,N,08559.0826,W,062.0,001.0,290615,0,E*76
$GPGGA,123039,4326.7131,N,08559.0826,W,1,04,0.9,539.496000000001,M,0.0,M,,*58
$GPRMC,123041,A,4326.7639,N,08559.0889,W,062.0,357.0,290615,0,E*73
$GPGGA,123041,4326.7639,N,08559.0889,W,1,04,0.9,535.228800000001,M,0.0,M,,*5A
$GPRMC,123046,A,4326.8381,N,08559.0979,W,067.0,354.0,290615,0,E*75
$GPGGA,123046,4326.8381,N,08559.0979,W,1,04,0.9,526.389600000001,M,0.0,M,,*5C
$GPRMC,123049,A,4326.8927,N,08559.1116,W,067.0,352.0,290615,0,E*7A
$GPGGA,123049,4326.8927,N,08559.1116,W,1,04,0.9,522.732000000001,M,0.0,M,,*53
$GPRMC,123054,A,4327.0013,N,08559.1322,W,063.0,351.0,290615,0,E*73
$GPGGA,123054,4327.0013,N,08559.1322,W,1,04,0.9,511.149600000001,M,0.0,M,,*51
$GPRMC,123057,A,4327.0376,N,08559.1412,W,065.0,348.0,290615,0,E*7A
$GPGGA,123057,4327.0376,N,08559.1412,W,1,04,0.9,506.272800000001,M,0.0,M,,*55
$GPRMC,123059,A,4327.0908,N,08559.1527,W,064.0,350.0,290615,0,E*78
$GPGGA,123059,4327.0908,N,08559.1527,W,1,04,0.9,494.690400000001,M,0.0,M,,*51
$GPRMC,123103,A,4327.1432,N,08559.1623,W,064.0,353.0,290615,0,E*77
$GPGGA,123103,4327.1432,N,08559.1623,W,1,04,0.9,483.717600000001,M,0.0,M,,*57
$GPRMC,123105,A,4327.1788,N,08559.1708,W,064.0,351.0,290615,0,E*79
$GPGGA,123105,4327.1788,N,08559.1708,W,1,04,0.9,473.354400000001,M,0.0,M,,*55
$GPRMC,123106,A,4327.2144,N,08559.1828,W,066.0,348.0,290615,0,E*78
$GPGGA,123106,4327.2144,N,08559.1828,W,1,04,0.9,462.991200000001,M,0.0,M,,*5B
$GPRMC,123110,A,4327.2671,N,08559.2014,W,066.0,347.0,290615,0,E*75
$GPGGA,123110,4327.2671,N,08559.2014,W,1,04,0.9,452.323200000001,M,0.0,M,,*59
$GPRMC,123112,A,4327.3198,N,08559.2276,W,066.0,341.0,290615,0,E*76
$GPGGA,123112,4327.3198,N,08559.2276,W,1,04,0.9,450.494400000001,M,0.0,M,,*53
$GPRMC,123114,A,4327.3349,N,08559.2410,W,066.0,337.0,290615,0,E*79
$GPGGA,123114,4327.3349,N,08559.2410,W,1,04,0.9,448.3608,M,0.0,M,,*55
$GPRMC,123115,A,4327.3490,N,08559.2539,W,065.0,331.0,290615,0,E*74
$GPGGA,123115,4327.3490,N,08559.2539,W,1,04,0.9,448.3608,M,0.0,M,,*5D
$GPRMC,123116,A,4327.3633,N,08559.2695,W,064.0,328.0,290615,0,E*70
$GPGGA,123116,4327.3633,N,08559.2695,W,1,04,0.9,447.7512,M,0.0,M,,*53
$GPRMC,123117,A,4327.3760,N,08559.2869,W,065.0,321.0,290615,0,E*73
$GPGGA,123117,4327.3760,N,08559.2869,W,1,04,0.9,445.6176,M,0.0,M,,*5D
$GPRMC,123118,A,4327.3889,N,08559.3057,W,065.0,315.0,290615,0,E*77
$GPGGA,123118,4327.3889,N,08559.3057,W,1,04,0.9,442.2648,M,0.0,M,,*57
$GPRMC,123120,A,4327.4098,N,08559.3441,W,064.0,310.0,290615,0,E*74
$GPGGA,123120,4327.4098,N,08559.3441,W,1,04,0.9,441.96,M,0.0,M,,*54
$GPRMC,123121,A,4327.4193,N,08559.3629,W,062.0,307.0,290615,0,E*73
$GPGGA,123121,4327.4193,N,08559.3629,W,1,04,0.9,440.1312,M,0.0,M,,*5C
$GPRMC,123123,A,4327.4255,N,08559.4188,W,064.0,300.0,290615,0,E*72
$GPGGA,123123,4327.4255,N,08559.4188,W,1,04,0.9,439.2168,M,0.0,M,,*5E
$GPRMC,123123,A,4327.4271,N,08559.4432,W,067.0,285.0,290615,0,E*7F
$GPGGA,123123,4327.4271,N,08559.4432,W,1,04,0.9,438.6072,M,0.0,M,,*53
$GPRMC,123125,A,4327.4289,N,08559.4670,W,065.0,282.0,290615,0,E*7F
$GPGGA,123125,4327.4289,N,08559.4670,W,1,04,0.9,436.7784,M,0.0,M,,*57
$GPRMC,123127,A,4327.4331,N,08559.5121,W,063.0,279.0,290615,0,E*7F
$GPGGA,123127,4327.4331,N,08559.5121,W,1,04,0.9,434.34,M,0.0,M,,*5C
$GPRMC,123129,A,4327.4372,N,08559.5821,W,061.0,275.0,290615,0,E*71
$GPGGA,123129,4327.4372,N,08559.5821,W,1,04,0.9,431.5968,M,0.0,M,,*5C
$GPRMC,123133,A,4327.4412,N,08559.6544,W,063.0,276.0,290615,0,E*77
$GPGGA,123133,4327.4412,N,08559.6544,W,1,04,0.9,420.3192,M,0.0,M,,*50
$GPRMC,123134,A,4327.4407,N,08559.7020,W,062.0,271.0,290615,0,E*74
$GPGGA,123134,4327.4407,N,08559.7020,W,1,04,0.9,411.1752,M,0.0,M,,*5F
$GPRMC,123136,A,4327.4327,N,08559.7238,W,064.0,268.0,290615,0,E*76
$GPGGA,123136,4327.4327,N,08559.7238,W,1,04,0.9,407.5176,M,0.0,M,,*50
$GPRMC,123137,A,4327.4261,N,08559.7480,W,063.0,252.0,290615,0,E*7F
$GPGGA,123137,4327.4261,N,08559.7480,W,1,04,0.9,398.6784,M,0.0,M,,*5E
$GPRMC,123138,A,4327.4109,N,08559.7823,W,061.0,247.0,290615,0,E*7E
$GPGGA,123138,4327.4109,N,08559.7823,W,1,04,0.9,383.7432,M,0.0,M,,*5C
$GPRMC,123140,A,4327.4003,N,08559.7993,W,057.0,242.0,290615,0,E*70
$GPGGA,123140,4327.4003,N,08559.7993,W,1,04,0.9,373.38,M,0.0,M,,*54
$GPRMC,123140,A,4327.3776,N,08559.7988,W,057.0,238.0,290615,0,E*75
$GPGGA,123140,4327.3776,N,08559.7988,W,1,04,0.9,364.236,M,0.0,M,,*66
$GPRMC,123142,A,4327.3632,N,08559.8080,W,058.0,207.0,290615,0,E*7B
$GPGGA,123142,4327.3632,N,08559.8080,W,1,04,0.9,369.4176,M,0.0,M,,*55
$GPRMC,123143,A,4327.3474,N,08559.8133,W,057.0,203.0,290615,0,E*78
$GPGGA,123143,4327.3474,N,08559.8133,W,1,04,0.9,365.4552,M,0.0,M,,*53
$GPRMC,123143,A,4327.3313,N,08559.8161,W,056.0,195.0,290615,0,E*74
$GPGGA,123143,4327.3313,N,08559.8161,W,1,04,0.9,361.7976,M,0.0,M,,*5F
$GPRMC,123145,A,4327.3157,N,08559.8153,W,056.0,190.0,290615,0,E*74
$GPGGA,123145,4327.3157,N,08559.8153,W,1,04,0.9,358.14,M,0.0,M,,*5A
$GPRMC,123146,A,4327.3000,N,08559.8138,W,056.0,181.0,290615,0,E*79
$GPGGA,123146,4327.3000,N,08559.8138,W,1,04,0.9,353.2632,M,0.0,M,,*5C
$GPRMC,123147,A,4327.2841,N,08559.8120,W,056.0,178.0,290615,0,E*7B
$GPGGA,123147,4327.2841,N,08559.8120,W,1,04,0.9,349.6056,M,0.0,M,,*53
$GPRMC,123151,A,4327.2218,N,08559.8034,W,055.0,175.0,290615,0,E*70
$GPGGA,123151,4327.2218,N,08559.8034,W,1,04,0.9,339.2424,M,0.0,M,,*54
