$GPRMC,112349,A,3706.0778,N,07633.2010,W,054.0,226.0,140315,0,E*7B
$GPGGA,112349,3706.0778,N,07633.2010,W,1,04,0.9,685.800000000001,M,0.0,M,,*5B
$GPRMC,112353,A,3706.0377,N,07633.2618,W,054.0,225.0,140315,0,E*76
$GPGGA,112353,3706.0377,N,07633.2618,W,1,04,0.9,697.992000000001,M,0.0,M,,*5C
$GPRMC,112357,A,3705.9950,N,07633.3144,W,049.0,224.0,140315,0,E*75
$GPGGA,112357,3705.9950,N,07633.3144,W,1,04,0.9,699.820800000001,M,0.0,M,,*5C
$GPRMC,112358,A,3705.9854,N,07633.3252,W,053.0,223.0,140315,0,E*77
$GPGGA,112358,3705.9854,N,07633.3252,W,1,04,0.9,701.954400000001,M,0.0,M,,*5C
$GPRMC,112401,A,3705.9498,N,07633.3695,W,055.0,223.0,140315,0,E*79
$GPGGA,112401,3705.9498,N,07633.3695,W,1,04,0.9,712.927200000001,M,0.0,M,,*54
$GPRMC,112406,A,3705.9012,N,07633.4282,W,049.0,223.0,140315,0,E*70
$GPGGA,112406,3705.9012,N,07633.4282,W,1,04,0.9,724.814400000001,M,0.0,M,,*52
$GPRMC,112409,A,3705.8682,N,07633.4682,W,054.0,223.0,140315,0,E*79
$GPGGA,112409,3705.8682,N,07633.4682,W,1,04,0.9,731.824800000001,M,0.0,M,,*5C
$GPRMC,112414,A,3705.8112,N,07633.5342,W,055.0,222.0,140315,0,E*73
$GPGGA,112414,3705.8112,N,07633.5342,W,1,04,0.9,743.712000000001,M,0.0,M,,*51
$GPRMC,112419,A,3705.7533,N,07633.5966,W,057.0,221.0,140315,0,E*7B
$GPGGA,112419,3705.7533,N,07633.5966,W,1,04,0.9,755.904000000001,M,0.0,M,,*56
$GPRMC,112425,A,3705.6777,N,07633.6756,W,057.0,218.0,140315,0,E*73
$GPGGA,112425,3705.6777,N,07633.6756,W,1,04,0.9,765.962400000001,M,0.0,M,,*53
$GPRMC,112431,A,3705.5972,N,07633.7529,W,058.0,216.0,140315,0,E*74
$GPGGA,112431,3705.5972,N,07633.7529,W,1,04,0.9,780.897600000001,M,0.0,M,,*57
$GPRMC,112436,A,3705.5293,N,07633.8193,W,061.0,217.0,140315,0,E*76
$GPGGA,112436,3705.5293,N,07633.8193,W,1,04,0.9,791.870400000001,M,0.0,M,,*55
$GPRMC,112442,A,3705.6545,N,07634.3163,W,057.0,205.0,140315,0,E*7F
$GPGGA,112442,3705.6545,N,07634.3163,W,1,04,0.9,797.966400000001,M,0.0,M,,*5A
$GPRMC,112444,A,3705.6545,N,07634.3163,W,059.0,205.0,140315,0,E*77
$GPGGA,112444,3705.6545,N,07634.3163,W,1,04,0.9,36.576,M,0.0,M,,*58
$GPRMC,112449,A,3705.4846,N,07634.2275,W,063.0,203.0,140315,0,E*7C
$GPGGA,112449,3705.4846,N,07634.2275,W,1,04,0.9,36.576,M,0.0,M,,*5C
$GPRMC,112450,A,3705.4524,N,07634.2133,W,062.0,207.0,140315,0,E*79
$GPGGA,112450,3705.4524,N,07634.2133,W,1,04,0.9,102.108,M,0.0,M,,*67
$GPRMC,112451,A,3705.4215,N,07634.2030,W,062.0,207.0,140315,0,E*7F
$GPGGA,112451,3705.4215,N,07634.2030,W,1,04,0.9,196.596,M,0.0,M,,*6F
$GPRMC,112452,A,3705.3919,N,07634.1940,W,062.0,207.0,140315,0,E*71
$GPGGA,112452,3705.3919,N,07634.1940,W,1,04,0.9,272.796,M,0.0,M,,*6A
$GPRMC,112453,A,3705.3649,N,07634.1889,W,062.0,208.0,140315,0,E*71
$GPGGA,112453,3705.3649,N,07634.1889,W,1,04,0.9,338.328,M,0.0,M,,*6B
$GPRMC,112454,A,3705.3391,N,07634.1863,W,062.0,208.0,140315,0,E*72
$GPGGA,112454,3705.3391,N,07634.1863,W,1,04,0.9,396.24,M,0.0,M,,*53
$GPRMC,112455,A,3705.3121,N,07634.1837,W,062.0,208.0,140315,0,E*7B
$GPGGA,112455,3705.3121,N,07634.1837,W,1,04,0.9,448.056,M,0.0,M,,*6B
$GPRMC,112456,A,3705.2915,N,07634.1889,W,062.0,210.0,140315,0,E*7A
$GPGGA,112456,3705.2915,N,07634.1889,W,1,04,0.9,496.824000000001,M,0.0,M,,*5C
$GPRMC,112457,A,3705.2722,N,07634.1953,W,063.0,208.0,140315,0,E*7F
$GPGGA,112457,3705.2722,N,07634.1953,W,1,04,0.9,545.592000000001,M,0.0,M,,*5E
$GPRMC,112458,A,3705.2542,N,07634.2030,W,063.0,208.0,140315,0,E*7B
$GPGGA,112458,3705.2542,N,07634.2030,W,1,04,0.9,583.692000000001,M,0.0,M,,*53
$GPRMC,112459,A,3705.2361,N,07634.2108,W,063.0,208.0,140315,0,E*77
$GPGGA,112459,3705.2361,N,07634.2108,W,1,04,0.9,594.360000000001,M,0.0,M,,*51
$GPRMC,112500,A,3705.2181,N,07634.2185,W,063.0,208.0,140315,0,E*73
$GPGGA,112500,3705.2181,N,07634.2185,W,1,04,0.9,606.552000000001,M,0.0,M,,*5A
$GPRMC,112501,A,3705.2001,N,07634.2249,W,063.0,207.0,140315,0,E*77
$GPGGA,112501,3705.2001,N,07634.2249,W,1,04,0.9,638.556000000001,M,0.0,M,,*58
$GPRMC,112502,A,3705.1846,N,07634.2352,W,063.0,207.0,140315,0,E*77
$GPGGA,112502,3705.1846,N,07634.2352,W,1,04,0.9,649.224000000001,M,0.0,M,,*5C
$GPRMC,112503,A,3705.1679,N,07634.2455,W,063.0,207.0,140315,0,E*74
$GPGGA,112503,3705.1679,N,07634.2455,W,1,04,0.9,659.892000000001,M,0.0,M,,*59
$GPRMC,112506,A,3705.1357,N,07634.2635,W,063.0,207.0,140315,0,E*7C
$GPGGA,112506,3705.1357,N,07634.2635,W,1,04,0.9,678.180000000001,M,0.0,M,,*58
$GPRMC,112508,A,3705.1022,N,07634.2829,W,064.0,207.0,140315,0,E*77
$GPGGA,112508,3705.1022,N,07634.2829,W,1,04,0.9,696.468000000001,M,0.0,M,,*57
$GPRMC,112510,A,3705.0675,N,07634.2996,W,064.0,207.0,140315,0,E*7E
$GPGGA,112510,3705.0675,N,07634.2996,W,1,04,0.9,714.756000000001,M,0.0,M,,*5B
$GPRMC,112512,A,3705.0327,N,07634.3150,W,064.0,205.0,140315,0,E*7F
$GPGGA,112512,3705.0327,N,07634.3150,W,1,04,0.9,734.568000000001,M,0.0,M,,*55
$GPRMC,112513,A,3705.0134,N,07634.3202,W,064.0,205.0,140315,0,E*7A
$GPGGA,112513,3705.0134,N,07634.3202,W,1,04,0.9,745.236000000001,M,0.0,M,,*5A
$GPRMC,112514,A,3704.9954,N,07634.3266,W,065.0,205.0,140315,0,E*78
$GPGGA,112514,3704.9954,N,07634.3266,W,1,04,0.9,755.904000000001,M,0.0,M,,*52
$GPRMC,112515,A,3704.9761,N,07634.3331,W,065.0,205.0,140315,0,E*72
$GPGGA,112515,3704.9761,N,07634.3331,W,1,04,0.9,769.620000000001,M,0.0,M,,*5E
$GPRMC,112516,A,3704.9568,N,07634.3395,W,066.0,205.0,140315,0,E*77
$GPGGA,112516,3704.9568,N,07634.3395,W,1,04,0.9,783.336000000001,M,0.0,M,,*5E
$GPRMC,112517,A,3704.9387,N,07634.3459,W,066.0,205.0,140315,0,E*76
$GPGGA,112517,3704.9387,N,07634.3459,W,1,04,0.9,798.576000000001,M,0.0,M,,*57
$GPRMC,112518,A,3704.9207,N,07634.3549,W,066.0,205.0,140315,0,E*70
$GPGGA,112518,3704.9207,N,07634.3549,W,1,04,0.9,813.816000000001,M,0.0,M,,*56
$GPRMC,112519,A,3704.9014,N,07634.3627,W,066.0,205.0,140315,0,E*7A
$GPGGA,112519,3704.9014,N,07634.3627,W,1,04,0.9,830.580000000001,M,0.0,M,,*5F
$GPRMC,112520,A,3704.8834,N,07634.3704,W,066.0,205.0,140315,0,E*7B
$GPGGA,112520,3704.8834,N,07634.3704,W,1,04,0.9,845.820000000001,M,0.0,M,,*5B
$GPRMC,112521,A,3704.8653,N,07634.3794,W,066.0,205.0,140315,0,E*7C
$GPGGA,112521,3704.8653,N,07634.3794,W,1,04,0.9,883.920000000001,M,0.0,M,,*57
$GPRMC,112521,A,3704.8486,N,07634.3884,W,066.0,205.0,140315,0,E*78
$GPGGA,112521,3704.8486,N,07634.3884,W,1,04,0.9,894.588000000001,M,0.0,M,,*5B
$GPRMC,112523,A,3704.8126,N,07634.4065,W,066.0,207.0,140315,0,E*77
$GPGGA,112523,3704.8126,N,07634.4065,W,1,04,0.9,914.400000000001,M,0.0,M,,*5E
$GPRMC,112524,A,3704.7958,N,07634.4167,W,066.0,207.0,140315,0,E*7D
$GPGGA,112524,3704.7958,N,07634.4167,W,1,04,0.9,925.068000000001,M,0.0,M,,*5C
$GPRMC,112525,A,3704.7791,N,07634.4258,W,066.0,207.0,140315,0,E*78
$GPGGA,112525,3704.7791,N,07634.4258,W,1,04,0.9,935.736000000001,M,0.0,M,,*54
$GPRMC,112526,A,3704.7623,N,07634.4361,W,066.0,207.0,140315,0,E*78
$GPGGA,112526,3704.7623,N,07634.4361,W,1,04,0.9,946.404000000001,M,0.0,M,,*52
$GPRMC,112528,A,3704.7276,N,07634.4554,W,065.0,207.0,140315,0,E*71
$GPGGA,112528,3704.7276,N,07634.4554,W,1,04,0.9,964.692000000001,M,0.0,M,,*55
$GPRMC,112530,A,3704.6941,N,07634.4747,W,065.0,207.0,140315,0,E*76
$GPGGA,112530,3704.6941,N,07634.4747,W,1,04,0.9,982.980000000001,M,0.0,M,,*56
$GPRMC,112532,A,3704.6619,N,07634.4940,W,065.0,207.0,140315,0,E*7F
$GPGGA,112532,3704.6619,N,07634.4940,W,1,04,0.9,999.744000000001,M,0.0,M,,*53
$GPRMC,112534,A,3704.6284,N,07634.5133,W,065.0,207.0,140315,0,E*74
$GPGGA,112534,3704.6284,N,07634.5133,W,1,04,0.9,1013.46,M,0.0,M,,*66
$GPRMC,112536,A,3704.5950,N,07634.5339,W,065.0,207.0,140315,0,E*7F
$GPGGA,112536,3704.5950,N,07634.5339,W,1,04,0.9,1025.652,M,0.0,M,,*5B
$GPRMC,112539,A,3704.5461,N,07634.5648,W,066.0,207.0,140315,0,E*7F
$GPGGA,112539,3704.5461,N,07634.5648,W,1,04,0.9,1039.368,M,0.0,M,,*59
$GPRMC,112542,A,3704.4958,N,07634.5996,W,067.0,208.0,140315,0,E*77
$GPGGA,112542,3704.4958,N,07634.5996,W,1,04,0.9,1051.56,M,0.0,M,,*6F
$GPRMC,112546,A,3704.4289,N,07634.6446,W,068.0,208.0,140315,0,E*78
$GPGGA,112546,3704.4289,N,07634.6446,W,1,04,0.9,1063.752,M,0.0,M,,*5D
$GPRMC,112550,A,3704.3619,N,07634.6897,W,068.0,208.0,140315,0,E*75
$GPGGA,112550,3704.3619,N,07634.6897,W,1,04,0.9,1075.944,M,0.0,M,,*5E
$GPRMC,112553,A,3704.3105,N,07634.7219,W,068.0,207.0,140315,0,E*7E
$GPGGA,112553,3704.3105,N,07634.7219,W,1,04,0.9,1086.612,M,0.0,M,,*5A
$GPRMC,112556,A,3704.2602,N,07634.7541,W,068.0,207.0,140315,0,E*70
$GPGGA,112556,3704.2602,N,07634.7541,W,1,04,0.9,1097.28,M,0.0,M,,*6B
$GPRMC,112559,A,3704.2100,N,07634.7863,W,067.0,207.0,140315,0,E*78
$GPGGA,112559,3704.2100,N,07634.7863,W,1,04,0.9,1107.948,M,0.0,M,,*5B
$GPRMC,112603,A,3704.1431,N,07634.8313,W,068.0,207.0,140315,0,E*7C
$GPGGA,112603,3704.1431,N,07634.8313,W,1,04,0.9,1120.14,M,0.0,M,,*65
$GPRMC,112607,A,3704.0735,N,07634.8777,W,069.0,207.0,140315,0,E*79
$GPGGA,112607,3704.0735,N,07634.8777,W,1,04,0.9,1130.808,M,0.0,M,,*55
$GPRMC,112613,A,3703.9693,N,07634.9485,W,071.0,208.0,140315,0,E*76
$GPGGA,112613,3703.9693,N,07634.9485,W,1,04,0.9,1141.476,M,0.0,M,,*5F
$GPRMC,112618,A,3703.8817,N,07635.0077,W,071.0,207.0,140315,0,E*70
$GPGGA,112618,3703.8817,N,07635.0077,W,1,04,0.9,1152.144,M,0.0,M,,*50
$GPRMC,112622,A,3703.8109,N,07635.0540,W,071.0,208.0,140315,0,E*71
$GPGGA,112622,3703.8109,N,07635.0540,W,1,04,0.9,1162.812,M,0.0,M,,*57
$GPRMC,112626,A,3703.7414,N,07635.1004,W,070.0,208.0,140315,0,E*76
$GPGGA,112626,3703.7414,N,07635.1004,W,1,04,0.9,1175.004,M,0.0,M,,*58
$GPRMC,112630,A,3703.6719,N,07635.1468,W,071.0,207.0,140315,0,E*7E
$GPGGA,112630,3703.6719,N,07635.1468,W,1,04,0.9,1187.196,M,0.0,M,,*59
$GPRMC,112635,A,3703.5830,N,07635.2086,W,072.0,208.0,140315,0,E*77
$GPGGA,112635,3703.5830,N,07635.2086,W,1,04,0.9,1199.388,M,0.0,M,,*5E
$GPRMC,112641,A,3703.4749,N,07635.2832,W,074.0,208.0,140315,0,E*75
$GPGGA,112641,3703.4749,N,07635.2832,W,1,04,0.9,1210.056,M,0.0,M,,*58
$GPRMC,112646,A,3703.3860,N,07635.3450,W,073.0,208.0,140315,0,E*7F
$GPGGA,112646,3703.3860,N,07635.3450,W,1,04,0.9,1222.248,M,0.0,M,,*59
$GPRMC,112650,A,3703.3165,N,07635.3940,W,072.0,208.0,140315,0,E*79
$GPGGA,112650,3703.3165,N,07635.3940,W,1,04,0.9,1234.44,M,0.0,M,,*67
$GPRMC,112653,A,3703.2637,N,07635.4300,W,072.0,208.0,140315,0,E*72
$GPGGA,112653,3703.2637,N,07635.4300,W,1,04,0.9,1245.108,M,0.0,M,,*53
$GPRMC,112657,A,3703.1929,N,07635.4789,W,073.0,208.0,140315,0,E*71
$GPGGA,112657,3703.1929,N,07635.4789,W,1,04,0.9,1255.776,M,0.0,M,,*5F
$GPRMC,112702,A,3703.1028,N,07635.5446,W,074.0,211.0,140315,0,E*76
$GPGGA,112702,3703.1028,N,07635.5446,W,1,04,0.9,1264.92,M,0.0,M,,*68
$GPRMC,112708,A,3702.9959,N,07635.6283,W,075.0,211.0,140315,0,E*77
$GPGGA,112708,3702.9959,N,07635.6283,W,1,04,0.9,1275.588,M,0.0,M,,*56
$GPRMC,112713,A,3702.9084,N,07635.6978,W,074.0,211.0,140315,0,E*7A
$GPGGA,112713,3702.9084,N,07635.6978,W,1,04,0.9,1286.256,M,0.0,M,,*52
$GPRMC,112717,A,3702.8389,N,07635.7505,W,073.0,211.0,140315,0,E*71
$GPGGA,112717,3702.8389,N,07635.7505,W,1,04,0.9,1298.448,M,0.0,M,,*58
$GPRMC,112721,A,3702.7706,N,07635.8059,W,073.0,211.0,140315,0,E*7B
$GPGGA,112721,3702.7706,N,07635.8059,W,1,04,0.9,1310.64,M,0.0,M,,*69
$GPRMC,112726,A,3702.6831,N,07635.8741,W,074.0,211.0,140315,0,E*7F
$GPGGA,112726,3702.6831,N,07635.8741,W,1,04,0.9,1322.832,M,0.0,M,,*50
$GPRMC,112733,A,3702.5595,N,07635.9733,W,075.0,212.0,140315,0,E*7D
$GPGGA,112733,3702.5595,N,07635.9733,W,1,04,0.9,1335.024,M,0.0,M,,*59
$GPRMC,112738,A,3702.4732,N,07636.0454,W,074.0,214.0,140315,0,E*77
$GPGGA,112738,3702.4732,N,07636.0454,W,1,04,0.9,1345.692,M,0.0,M,,*58
$GPRMC,112742,A,3702.4050,N,07636.1021,W,073.0,214.0,140315,0,E*79
$GPGGA,112742,3702.4050,N,07636.1021,W,1,04,0.9,1356.36,M,0.0,M,,*6B
$GPRMC,112745,A,3702.3548,N,07636.1432,W,072.0,212.0,140315,0,E*74
$GPGGA,112745,3702.3548,N,07636.1432,W,1,04,0.9,1367.028,M,0.0,M,,*5C
$GPRMC,112749,A,3702.2891,N,07636.1999,W,072.0,214.0,140315,0,E*7A
$GPGGA,112749,3702.2891,N,07636.1999,W,1,04,0.9,1379.22,M,0.0,M,,*61
$GPRMC,112753,A,3702.2235,N,07636.2604,W,073.0,215.0,140315,0,E*7D
$GPGGA,112753,3702.2235,N,07636.2604,W,1,04,0.9,1389.888,M,0.0,M,,*51
$GPRMC,112759,A,3702.1243,N,07636.3531,W,074.0,217.0,140315,0,E*74
$GPGGA,112759,3702.1243,N,07636.3531,W,1,04,0.9,1400.556,M,0.0,M,,*55
$GPRMC,112804,A,3702.0445,N,07636.4329,W,074.0,218.0,140315,0,E*75
$GPGGA,112804,3702.0445,N,07636.4329,W,1,04,0.9,1411.224,M,0.0,M,,*59
$GPRMC,112809,A,3701.9647,N,07636.5114,W,073.0,218.0,140315,0,E*78
$GPGGA,112809,3701.9647,N,07636.5114,W,1,04,0.9,1423.416,M,0.0,M,,*55
$GPRMC,112813,A,3701.9016,N,07636.5745,W,072.0,218.0,140315,0,E*72
$GPGGA,112813,3701.9016,N,07636.5745,W,1,04,0.9,1435.608,M,0.0,M,,*54
$GPRMC,112817,A,3701.8398,N,07636.6376,W,072.0,218.0,140315,0,E*75
$GPGGA,112817,3701.8398,N,07636.6376,W,1,04,0.9,1446.276,M,0.0,M,,*5A
$GPRMC,112821,A,3701.7780,N,07636.7046,W,072.0,219.0,140315,0,E*72
$GPGGA,112821,3701.7780,N,07636.7046,W,1,04,0.9,1456.944,M,0.0,M,,*57
$GPRMC,112827,A,3701.6879,N,07636.8076,W,073.0,222.0,140315,0,E*79
$GPGGA,112827,3701.6879,N,07636.8076,W,1,04,0.9,1467.612,M,0.0,M,,*5B
$GPRMC,112832,A,3701.6132,N,07636.8951,W,073.0,224.0,140315,0,E*71
$GPGGA,112832,3701.6132,N,07636.8951,W,1,04,0.9,1478.28,M,0.0,M,,*64
$GPRMC,112837,A,3701.5411,N,07636.9827,W,073.0,224.0,140315,0,E*72
$GPGGA,112837,3701.5411,N,07636.9827,W,1,04,0.9,1490.472,M,0.0,M,,*5A
$GPRMC,112841,A,3701.4845,N,07637.0535,W,072.0,224.0,140315,0,E*78
$GPGGA,112841,3701.4845,N,07637.0535,W,1,04,0.9,1502.664,M,0.0,M,,*5E
$GPRMC,112845,A,3701.4278,N,07637.1243,W,071.0,225.0,140315,0,E*7D
$GPGGA,112845,3701.4278,N,07637.1243,W,1,04,0.9,1514.856,M,0.0,M,,*51
$GPRMC,112849,A,3701.3737,N,07637.1951,W,071.0,225.0,140315,0,E*70
$GPGGA,112849,3701.3737,N,07637.1951,W,1,04,0.9,1525.524,M,0.0,M,,*56
$GPRMC,112853,A,3701.3197,N,07637.2685,W,071.0,226.0,140315,0,E*71
$GPGGA,112853,3701.3197,N,07637.2685,W,1,04,0.9,1536.192,M,0.0,M,,*5F
$GPRMC,112858,A,3701.2540,N,07637.3625,W,072.0,228.0,140315,0,E*73
$GPGGA,112858,3701.2540,N,07637.3625,W,1,04,0.9,1546.86,M,0.0,M,,*63
$GPRMC,112903,A,3701.1896,N,07637.4577,W,071.0,229.0,140315,0,E*78
$GPGGA,112903,3701.1896,N,07637.4577,W,1,04,0.9,1559.052,M,0.0,M,,*5D
$GPRMC,112907,A,3701.1394,N,07637.5324,W,070.0,229.0,140315,0,E*75
$GPGGA,112907,3701.1394,N,07637.5324,W,1,04,0.9,1571.244,M,0.0,M,,*5E
$GPRMC,112911,A,3701.0892,N,07637.6071,W,069.0,229.0,140315,0,E*76
$GPGGA,112911,3701.0892,N,07637.6071,W,1,04,0.9,1584.96,M,0.0,M,,*62
$GPRMC,112915,A,3701.0416,N,07637.6830,W,070.0,231.0,140315,0,E*7E
$GPGGA,112915,3701.0416,N,07637.6830,W,1,04,0.9,1595.628,M,0.0,M,,*58
$GPRMC,112920,A,3700.9824,N,07637.7835,W,071.0,232.0,140315,0,E*7B
$GPGGA,112920,3700.9824,N,07637.7835,W,1,04,0.9,1606.296,M,0.0,M,,*57
$GPRMC,112925,A,3700.9257,N,07637.8865,W,072.0,235.0,140315,0,E*7E
$GPGGA,112925,3700.9257,N,07637.8865,W,1,04,0.9,1615.44,M,0.0,M,,*69
$GPRMC,112931,A,3700.8575,N,07638.0101,W,072.0,235.0,140315,0,E*71
$GPGGA,112931,3700.8575,N,07638.0101,W,1,04,0.9,1627.632,M,0.0,M,,*50
$GPRMC,112935,A,3700.8124,N,07638.0925,W,071.0,235.0,140315,0,E*78
$GPGGA,112935,3700.8124,N,07638.0925,W,1,04,0.9,1638.3,M,0.0,M,,*50
$GPRMC,112939,A,3700.7686,N,07638.1736,W,071.0,235.0,140315,0,E*79
$GPGGA,112939,3700.7686,N,07638.1736,W,1,04,0.9,1648.968,M,0.0,M,,*52
$GPRMC,112943,A,3700.7262,N,07638.2573,W,071.0,236.0,140315,0,E*79
$GPGGA,112943,3700.7262,N,07638.2573,W,1,04,0.9,1659.636,M,0.0,M,,*55
$GPRMC,112948,A,3700.6721,N,07638.3641,W,072.0,238.0,140315,0,E*7F
$GPGGA,112948,3700.6721,N,07638.3641,W,1,04,0.9,1670.304,M,0.0,M,,*51
$GPRMC,112953,A,3700.6193,N,07638.4723,W,072.0,238.0,140315,0,E*78
$GPGGA,112953,3700.6193,N,07638.4723,W,1,04,0.9,1680.972,M,0.0,M,,*52
$GPRMC,112957,A,3700.5781,N,07638.5572,W,072.0,239.0,140315,0,E*7C
$GPGGA,112957,3700.5781,N,07638.5572,W,1,04,0.9,1691.64,M,0.0,M,,*69
$GPRMC,113001,A,3700.5382,N,07638.6422,W,071.0,239.0,140315,0,E*74
$GPGGA,113001,3700.5382,N,07638.6422,W,1,04,0.9,1702.308,M,0.0,M,,*50
$GPRMC,113005,A,3700.4983,N,07638.7272,W,070.0,239.0,140315,0,E*79
$GPGGA,113005,3700.4983,N,07638.7272,W,1,04,0.9,1714.5,M,0.0,M,,*55
$GPRMC,113009,A,3700.4597,N,07638.8096,W,069.0,239.0,140315,0,E*73
$GPGGA,113009,3700.4597,N,07638.8096,W,1,04,0.9,1726.692,M,0.0,M,,*5E
$GPRMC,113013,A,3700.4223,N,07638.8920,W,069.0,239.0,140315,0,E*74
$GPGGA,113013,3700.4223,N,07638.8920,W,1,04,0.9,1738.884,M,0.0,M,,*5F
$GPRMC,113018,A,3700.3747,N,07638.9988,W,070.0,241.0,140315,0,E*7B
$GPGGA,113018,3700.3747,N,07638.9988,W,1,04,0.9,1749.552,M,0.0,M,,*57
$GPRMC,113023,A,3700.3296,N,07639.1070,W,070.0,242.0,140315,0,E*7E
$GPGGA,113023,3700.3296,N,07639.1070,W,1,04,0.9,1760.22,M,0.0,M,,*68
$GPRMC,113028,A,3700.2845,N,07639.2164,W,070.0,242.0,140315,0,E*77
$GPGGA,113028,3700.2845,N,07639.2164,W,1,04,0.9,1770.888,M,0.0,M,,*58
$GPRMC,113032,A,3700.2485,N,07639.3014,W,070.0,242.0,140315,0,E*7B
$GPGGA,113032,3700.2485,N,07639.3014,W,1,04,0.9,1781.556,M,0.0,M,,*54
$GPRMC,113036,A,3700.2137,N,07639.3876,W,069.0,242.0,140315,0,E*77
$GPGGA,113036,3700.2137,N,07639.3876,W,1,04,0.9,1792.224,M,0.0,M,,*50
$GPRMC,113041,A,3700.1687,N,07639.4932,W,069.0,242.0,140315,0,E*7E
$GPGGA,113041,3700.1687,N,07639.4932,W,1,04,0.9,1804.416,M,0.0,M,,*5E
$GPRMC,113047,A,3700.1159,N,07639.6232,W,070.0,242.0,140315,0,E*7D
$GPGGA,113047,3700.1159,N,07639.6232,W,1,04,0.9,1816.608,M,0.0,M,,*5B
$GPRMC,113054,A,3700.0541,N,07639.7777,W,071.0,243.0,140315,0,E*76
$GPGGA,113054,3700.0541,N,07639.7777,W,1,04,0.9,1827.276,M,0.0,M,,*5F
$GPRMC,113059,A,3700.0103,N,07639.8885,W,071.0,243.0,140315,0,E*74
$GPGGA,113059,3700.0103,N,07639.8885,W,1,04,0.9,1837.944,M,0.0,M,,*56
$GPRMC,113104,A,3659.9666,N,07639.9966,W,070.0,243.0,140315,0,E*71
$GPGGA,113104,3659.9666,N,07639.9966,W,1,04,0.9,1850.136,M,0.0,M,,*5E
$GPRMC,113109,A,3659.9228,N,07640.1048,W,069.0,243.0,140315,0,E*79
$GPGGA,113109,3659.9228,N,07640.1048,W,1,04,0.9,1862.328,M,0.0,M,,*52
$GPRMC,113113,A,3659.8880,N,07640.1897,W,068.0,242.0,140315,0,E*71
$GPGGA,113113,3659.8880,N,07640.1897,W,1,04,0.9,1872.996,M,0.0,M,,*54
$GPRMC,113118,A,3659.8455,N,07640.2979,W,069.0,243.0,140315,0,E*7C
$GPGGA,113118,3659.8455,N,07640.2979,W,1,04,0.9,1883.664,M,0.0,M,,*55
$GPRMC,113125,A,3659.7850,N,07640.4524,W,071.0,243.0,140315,0,E*7F
$GPGGA,113125,3659.7850,N,07640.4524,W,1,04,0.9,1894.332,M,0.0,M,,*5F
$GPRMC,113131,A,3659.7310,N,07640.5863,W,071.0,243.0,140315,0,E*7A
$GPGGA,113131,3659.7310,N,07640.5863,W,1,04,0.9,1905,M,0.0,M,,*4F
$GPRMC,113136,A,3659.6846,N,07640.6944,W,071.0,242.0,140315,0,E*72
$GPGGA,113136,3659.6846,N,07640.6944,W,1,04,0.9,1915.668,M,0.0,M,,*51
$GPRMC,113140,A,3659.6460,N,07640.7794,W,070.0,241.0,140315,0,E*7B
$GPGGA,113140,3659.6460,N,07640.7794,W,1,04,0.9,1926.336,M,0.0,M,,*54
$GPRMC,113144,A,3659.6060,N,07640.8643,W,070.0,239.0,140315,0,E*70
$GPGGA,113144,3659.6060,N,07640.8643,W,1,04,0.9,1938.528,M,0.0,M,,*56
$GPRMC,113148,A,3659.5662,N,07640.9506,W,071.0,239.0,140315,0,E*79
$GPGGA,113148,3659.5662,N,07640.9506,W,1,04,0.9,1949.196,M,0.0,M,,*59
$GPRMC,113153,A,3659.5159,N,07641.0575,W,071.0,239.0,140315,0,E*70
$GPGGA,113153,3659.5159,N,07641.0575,W,1,04,0.9,1959.864,M,0.0,M,,*55
$GPRMC,113159,A,3659.4541,N,07641.1862,W,072.0,239.0,140315,0,E*7F
$GPGGA,113159,3659.4541,N,07641.1862,W,1,04,0.9,1970.532,M,0.0,M,,*5C
$GPRMC,113205,A,3659.3923,N,07641.3150,W,072.0,238.0,140315,0,E*71
$GPGGA,113205,3659.3923,N,07641.3150,W,1,04,0.9,1981.2,M,0.0,M,,*5B
$GPRMC,113212,A,3659.3151,N,07641.4643,W,073.0,236.0,140315,0,E*77
$GPGGA,113212,3659.3151,N,07641.4643,W,1,04,0.9,1991.868,M,0.0,M,,*57
$GPRMC,113218,A,3659.2481,N,07641.5930,W,074.0,236.0,140315,0,E*79
$GPGGA,113218,3659.2481,N,07641.5930,W,1,04,0.9,2002.536,M,0.0,M,,*58
$GPRMC,113223,A,3659.1902,N,07641.6986,W,073.0,235.0,140315,0,E*7E
$GPGGA,113223,3659.1902,N,07641.6986,W,1,04,0.9,2014.728,M,0.0,M,,*51
$GPRMC,113228,A,3659.1439,N,07641.7798,W,072.0,235.0,140315,0,E*71
$GPGGA,113228,3659.1439,N,07641.7798,W,1,04,0.9,2025.396,M,0.0,M,,*5C
$GPRMC,113231,A,3659.0975,N,07641.8608,W,071.0,233.0,140315,0,E*7F
$GPGGA,113231,3659.0975,N,07641.8608,W,1,04,0.9,2037.588,M,0.0,M,,*5D
$GPRMC,113235,A,3659.0512,N,07641.9394,W,071.0,233.0,140315,0,E*77
$GPGGA,113235,3659.0512,N,07641.9394,W,1,04,0.9,2048.256,M,0.0,M,,*59
$GPRMC,113239,A,3659.0048,N,07642.0192,W,070.0,233.0,140315,0,E*7E
$GPGGA,113239,3659.0048,N,07642.0192,W,1,04,0.9,2058.924,M,0.0,M,,*5E
$GPRMC,113243,A,3658.9572,N,07642.0965,W,070.0,232.0,140315,0,E*76
$GPGGA,113243,3658.9572,N,07642.0965,W,1,04,0.9,2069.592,M,0.0,M,,*54
$GPRMC,113247,A,3658.9095,N,07642.1737,W,070.0,232.0,140315,0,E*76
$GPGGA,113247,3658.9095,N,07642.1737,W,1,04,0.9,2080.26,M,0.0,M,,*69
$GPRMC,113251,A,3658.8593,N,07642.2484,W,070.0,231.0,140315,0,E*78
$GPGGA,113251,3658.8593,N,07642.2484,W,1,04,0.9,2090.928,M,0.0,M,,*52
$GPRMC,113255,A,3658.8104,N,07642.3217,W,069.0,229.0,140315,0,E*7A
$GPGGA,113255,3658.8104,N,07642.3217,W,1,04,0.9,2101.596,M,0.0,M,,*51
$GPRMC,113259,A,3658.7589,N,07642.3939,W,069.0,228.0,140315,0,E*7E
$GPGGA,113259,3658.7589,N,07642.3939,W,1,04,0.9,2113.788,M,0.0,M,,*5A
$GPRMC,113304,A,3658.6945,N,07642.4853,W,070.0,228.0,140315,0,E*78
$GPGGA,113304,3658.6945,N,07642.4853,W,1,04,0.9,2125.98,M,0.0,M,,*67
$GPRMC,113309,A,3658.6289,N,07642.5767,W,070.0,228.0,140315,0,E*77
$GPGGA,113309,3658.6289,N,07642.5767,W,1,04,0.9,2136.648,M,0.0,M,,*51
$GPRMC,113314,A,3658.5606,N,07642.6681,W,071.0,226.0,140315,0,E*7E
$GPGGA,113314,3658.5606,N,07642.6681,W,1,04,0.9,2148.84,M,0.0,M,,*68
$GPRMC,113319,A,3658.4911,N,07642.7582,W,072.0,226.0,140315,0,E*79
$GPGGA,113319,3658.4911,N,07642.7582,W,1,04,0.9,2159.508,M,0.0,M,,*5D
$GPRMC,113324,A,3658.4190,N,07642.8483,W,073.0,225.0,140315,0,E*7B
$GPGGA,113324,3658.4190,N,07642.8483,W,1,04,0.9,2171.7,M,0.0,M,,*5D
$GPRMC,113329,A,3658.3431,N,07642.9372,W,074.0,224.0,140315,0,E*71
$GPGGA,113329,3658.3431,N,07642.9372,W,1,04,0.9,2182.368,M,0.0,M,,*57
$GPRMC,113334,A,3658.2671,N,07643.0247,W,074.0,222.0,140315,0,E*73
$GPGGA,113334,3658.2671,N,07643.0247,W,1,04,0.9,2193.036,M,0.0,M,,*5B
$GPRMC,113340,A,3658.1731,N,07643.1290,W,075.0,221.0,140315,0,E*7F
$GPGGA,113340,3658.1731,N,07643.1290,W,1,04,0.9,2205.228,M,0.0,M,,*54
$GPRMC,113346,A,3658.0779,N,07643.2333,W,076.0,221.0,140315,0,E*7C
$GPGGA,113346,3658.0779,N,07643.2333,W,1,04,0.9,2217.42,M,0.0,M,,*69
$GPRMC,113352,A,3657.9787,N,07643.3401,W,078.0,221.0,140315,0,E*77
$GPGGA,113352,3657.9787,N,07643.3401,W,1,04,0.9,2228.088,M,0.0,M,,*56
$GPRMC,113358,A,3657.8783,N,07643.4457,W,079.0,219.0,140315,0,E*76
$GPGGA,113358,3657.8783,N,07643.4457,W,1,04,0.9,2238.756,M,0.0,M,,*58
$GPRMC,113403,A,3657.7920,N,07643.5333,W,079.0,218.0,140315,0,E*72
$GPGGA,113403,3657.7920,N,07643.5333,W,1,04,0.9,2249.424,M,0.0,M,,*5D
$GPRMC,113409,A,3657.6852,N,07643.6388,W,080.0,218.0,140315,0,E*78
$GPGGA,113409,3657.6852,N,07643.6388,W,1,04,0.9,2261.616,M,0.0,M,,*58
$GPRMC,113415,A,3657.5770,N,07643.7418,W,082.0,217.0,140315,0,E*7B
$GPGGA,113415,3657.5770,N,07643.7418,W,1,04,0.9,2273.808,M,0.0,M,,*54
$GPRMC,113421,A,3657.4663,N,07643.8448,W,083.0,217.0,140315,0,E*75
$GPGGA,113421,3657.4663,N,07643.8448,W,1,04,0.9,2284.476,M,0.0,M,,*56
$GPRMC,113427,A,3657.3530,N,07643.9491,W,084.0,215.0,140315,0,E*71
$GPGGA,113427,3657.3530,N,07643.9491,W,1,04,0.9,2295.144,M,0.0,M,,*53
$GPRMC,113433,A,3657.2384,N,07644.0534,W,085.0,215.0,140315,0,E*7D
$GPGGA,113433,3657.2384,N,07644.0534,W,1,04,0.9,2305.812,M,0.0,M,,*5C
$GPRMC,113438,A,3657.1406,N,07644.1422,W,086.0,215.0,140315,0,E*7C
$GPGGA,113438,3657.1406,N,07644.1422,W,1,04,0.9,2316.48,M,0.0,M,,*6B
$GPRMC,113444,A,3657.0221,N,07644.2465,W,087.0,215.0,140315,0,E*74
$GPGGA,113444,3657.0221,N,07644.2465,W,1,04,0.9,2327.148,M,0.0,M,,*51
$GPRMC,113450,A,3656.9024,N,07644.3508,W,087.0,214.0,140315,0,E*74
$GPGGA,113450,3656.9024,N,07644.3508,W,1,04,0.9,2337.816,M,0.0,M,,*53
$GPRMC,113456,A,3656.7827,N,07644.4564,W,088.0,214.0,140315,0,E*75
$GPGGA,113456,3656.7827,N,07644.4564,W,1,04,0.9,2348.484,M,0.0,M,,*52
$GPRMC,113503,A,3656.6411,N,07644.5800,W,088.0,215.0,140315,0,E*73
$GPGGA,113503,3656.6411,N,07644.5800,W,1,04,0.9,2359.152,M,0.0,M,,*5B
$GPRMC,113510,A,3656.4994,N,07644.7049,W,089.0,214.0,140315,0,E*74
$GPGGA,113510,3656.4994,N,07644.7049,W,1,04,0.9,2369.82,M,0.0,M,,*63
$GPRMC,113516,A,3656.3758,N,07644.8104,W,090.0,214.0,140315,0,E*74
$GPGGA,113516,3656.3758,N,07644.8104,W,1,04,0.9,2380.488,M,0.0,M,,*52
$GPRMC,113521,A,3656.2728,N,07644.8993,W,090.0,214.0,140315,0,E*70
$GPGGA,113521,3656.2728,N,07644.8993,W,1,04,0.9,2391.156,M,0.0,M,,*50
$GPRMC,113526,A,3656.1711,N,07644.9868,W,089.0,214.0,140315,0,E*72
$GPGGA,113526,3656.1711,N,07644.9868,W,1,04,0.9,2401.824,M,0.0,M,,*58
$GPRMC,113531,A,3656.0694,N,07645.0757,W,089.0,214.0,140315,0,E*72
$GPGGA,113531,3656.0694,N,07645.0757,W,1,04,0.9,2412.492,M,0.0,M,,*5B
$GPRMC,113536,A,3655.9690,N,07645.1632,W,088.0,214.0,140315,0,E*79
$GPGGA,113536,3655.9690,N,07645.1632,W,1,04,0.9,2423.16,M,0.0,M,,*6B
$GPRMC,113541,A,3655.8686,N,07645.2507,W,088.0,214.0,140315,0,E*79
$GPGGA,113541,3655.8686,N,07645.2507,W,1,04,0.9,2433.828,M,0.0,M,,*5F
$GPRMC,113547,A,3655.7476,N,07645.3576,W,088.0,214.0,140315,0,E*7A
$GPGGA,113547,3655.7476,N,07645.3576,W,1,04,0.9,2444.496,M,0.0,M,,*55
$GPRMC,113552,A,3655.6458,N,07645.4451,W,088.0,214.0,140315,0,E*70
$GPGGA,113552,3655.6458,N,07645.4451,W,1,04,0.9,2455.164,M,0.0,M,,*57
$GPRMC,113557,A,3655.5467,N,07645.5314,W,087.0,214.0,140315,0,E*72
$GPGGA,113557,3655.5467,N,07645.5314,W,1,04,0.9,2465.832,M,0.0,M,,*53
$GPRMC,113602,A,3655.4463,N,07645.6190,W,087.0,214.0,140315,0,E*79
$GPGGA,113602,3655.4463,N,07645.6190,W,1,04,0.9,2476.5,M,0.0,M,,*56
$GPRMC,113607,A,3655.3484,N,07645.7052,W,087.0,215.0,140315,0,E*7D
$GPGGA,113607,3655.3484,N,07645.7052,W,1,04,0.9,2487.168,M,0.0,M,,*57
$GPRMC,113612,A,3655.2519,N,07645.7928,W,086.0,215.0,140315,0,E*78
$GPGGA,113612,3655.2519,N,07645.7928,W,1,04,0.9,2497.836,M,0.0,M,,*50
$GPRMC,113619,A,3655.1360,N,07645.9009,W,086.0,217.0,140315,0,E*7E
$GPGGA,113619,3655.1360,N,07645.9009,W,1,04,0.9,2510.028,M,0.0,M,,*5D
$GPRMC,113622,A,3655.0575,N,07645.9781,W,095.0,217.0,140315,0,E*70
$GPGGA,113622,3655.0575,N,07645.9781,W,1,04,0.9,2513.076,M,0.0,M,,*59
$GPRMC,113639,A,3654.7008,N,07646.3322,W,111.0,218.0,140315,0,E*75
$GPGGA,113639,3654.7008,N,07646.3322,W,1,04,0.9,2508.504,M,0.0,M,,*54
$GPRMC,113640,A,3654.6790,N,07646.3541,W,099.0,218.0,140315,0,E*7E
$GPGGA,113640,3654.6790,N,07646.3541,W,1,04,0.9,2506.98,M,0.0,M,,*60
$GPRMC,113641,A,3654.6571,N,07646.3773,W,111.0,218.0,140315,0,E*70
$GPGGA,113641,3654.6571,N,07646.3773,W,1,04,0.9,2506.98,M,0.0,M,,*6F
$GPRMC,113642,A,3654.6352,N,07646.3991,W,100.0,219.0,140315,0,E*77
$GPGGA,113642,3654.6352,N,07646.3991,W,1,04,0.9,2505.456,M,0.0,M,,*5C
$GPRMC,113643,A,3654.6133,N,07646.4210,W,111.0,219.0,140315,0,E*76
$GPGGA,113643,3654.6133,N,07646.4210,W,1,04,0.9,2505.456,M,0.0,M,,*5D
$GPRMC,113644,A,3654.5914,N,07646.4442,W,101.0,219.0,140315,0,E*7F
$GPGGA,113644,3654.5914,N,07646.4442,W,1,04,0.9,2503.932,M,0.0,M,,*5C
$GPRMC,113655,A,3654.3545,N,07646.6953,W,102.0,219.0,140315,0,E*7D
$GPGGA,113655,3654.3545,N,07646.6953,W,1,04,0.9,2506.98,M,0.0,M,,*61
$GPRMC,113656,A,3654.3326,N,07646.7197,W,111.0,221.0,140315,0,E*75
$GPGGA,113656,3654.3326,N,07646.7197,W,1,04,0.9,2506.98,M,0.0,M,,*60
$GPRMC,113657,A,3654.3107,N,07646.7442,W,103.0,221.0,140315,0,E*7B
$GPGGA,113657,3654.3107,N,07646.7442,W,1,04,0.9,2505.456,M,0.0,M,,*58
$GPRMC,113659,A,3654.2682,N,07646.7918,W,111.0,221.0,140315,0,E*7F
$GPGGA,113659,3654.2682,N,07646.7918,W,1,04,0.9,2505.456,M,0.0,M,,*5F
$GPRMC,113701,A,3654.2232,N,07646.8408,W,105.0,221.0,140315,0,E*7A
$GPGGA,113701,3654.2232,N,07646.8408,W,1,04,0.9,2502.408,M,0.0,M,,*53
$GPRMC,113702,A,3654.2013,N,07646.8652,W,111.0,221.0,140315,0,E*70
$GPGGA,113702,3654.2013,N,07646.8652,W,1,04,0.9,2502.408,M,0.0,M,,*5C
$GPRMC,113703,A,3654.1794,N,07646.8897,W,105.0,221.0,140315,0,E*78
$GPGGA,113703,3654.1794,N,07646.8897,W,1,04,0.9,2500.884,M,0.0,M,,*5B
$GPRMC,113709,A,3654.0494,N,07647.0339,W,104.0,221.0,140315,0,E*77
$GPGGA,113709,3654.0494,N,07647.0339,W,1,04,0.9,2503.932,M,0.0,M,,*5A
$GPRMC,113713,A,3653.9605,N,07647.1317,W,111.0,221.0,140315,0,E*71
$GPGGA,113713,3653.9605,N,07647.1317,W,1,04,0.9,2506.98,M,0.0,M,,*64
$GPRMC,113718,A,3653.8511,N,07647.2579,W,111.0,222.0,140315,0,E*73
$GPGGA,113718,3653.8511,N,07647.2579,W,1,04,0.9,2503.932,M,0.0,M,,*59
$GPRMC,113722,A,3653.7636,N,07647.3609,W,108.0,224.0,140315,0,E*78
$GPGGA,113722,3653.7636,N,07647.3609,W,1,04,0.9,2500.884,M,0.0,M,,*53
$GPRMC,113742,A,3653.3348,N,07647.8772,W,108.0,224.0,140315,0,E*70
$GPGGA,113742,3653.3348,N,07647.8772,W,1,04,0.9,2502.408,M,0.0,M,,*51
$GPRMC,113743,A,3653.3130,N,07647.9029,W,108.0,224.0,140315,0,E*74
$GPGGA,113743,3653.3130,N,07647.9029,W,1,04,0.9,2502.408,M,0.0,M,,*55
$GPRMC,113801,A,3652.9396,N,07648.3754,W,106.0,225.0,140315,0,E*7F
$GPGGA,113801,3652.9396,N,07648.3754,W,1,04,0.9,2503.932,M,0.0,M,,*54
$GPRMC,113803,A,3652.8984,N,07648.4282,W,106.0,225.0,140315,0,E*7C
$GPGGA,113803,3652.8984,N,07648.4282,W,1,04,0.9,2502.408,M,0.0,M,,*52
$GPRMC,113819,A,3652.5753,N,07648.8492,W,105.0,226.0,140315,0,E*75
$GPGGA,113819,3652.5753,N,07648.8492,W,1,04,0.9,2503.932,M,0.0,M,,*5E
$GPRMC,113821,A,3652.5353,N,07648.9045,W,105.0,228.0,140315,0,E*7B
$GPGGA,113821,3652.5353,N,07648.9045,W,1,04,0.9,2502.408,M,0.0,M,,*5B
$GPRMC,113823,A,3652.4967,N,07648.9599,W,111.0,228.0,140315,0,E*74
$GPGGA,113823,3652.4967,N,07648.9599,W,1,04,0.9,2502.408,M,0.0,M,,*51
$GPRMC,113824,A,3652.4787,N,07648.9869,W,105.0,228.0,140315,0,E*74
$GPGGA,113824,3652.4787,N,07648.9869,W,1,04,0.9,2500.884,M,0.0,M,,*5E
$GPRMC,113835,A,3652.2701,N,07649.2856,W,103.0,228.0,140315,0,E*7C
$GPGGA,113835,3652.2701,N,07649.2856,W,1,04,0.9,2503.932,M,0.0,M,,*5F
$GPRMC,113839,A,3652.1929,N,07649.3951,W,111.0,228.0,140315,0,E*73
$GPGGA,113839,3652.1929,N,07649.3951,W,1,04,0.9,2505.456,M,0.0,M,,*5A
$GPRMC,113840,A,3652.1736,N,07649.4221,W,104.0,228.0,140315,0,E*72
$GPGGA,113840,3652.1736,N,07649.4221,W,1,04,0.9,2503.932,M,0.0,M,,*56
$GPRMC,113842,A,3652.1349,N,07649.4775,W,111.0,228.0,140315,0,E*7C
$GPGGA,113842,3652.1349,N,07649.4775,W,1,04,0.9,2503.932,M,0.0,M,,*5C
$GPRMC,113843,A,3652.1156,N,07649.5045,W,105.0,228.0,140315,0,E*71
$GPGGA,113843,3652.1156,N,07649.5045,W,1,04,0.9,2502.408,M,0.0,M,,*51
$GPRMC,113845,A,3652.0770,N,07649.5586,W,111.0,228.0,140315,0,E*7B
$GPGGA,113845,3652.0770,N,07649.5586,W,1,04,0.9,2502.408,M,0.0,M,,*5E
$GPRMC,113846,A,3652.0564,N,07649.5869,W,105.0,228.0,140315,0,E*76
$GPGGA,113846,3652.0564,N,07649.5869,W,1,04,0.9,2500.884,M,0.0,M,,*5C
$GPRMC,113904,A,3651.7397,N,07650.0555,W,104.0,229.0,140315,0,E*70
$GPGGA,113904,3651.7397,N,07650.0555,W,1,04,0.9,2503.932,M,0.0,M,,*55
$GPRMC,113905,A,3651.7204,N,07650.0839,W,111.0,229.0,140315,0,E*79
$GPGGA,113905,3651.7204,N,07650.0839,W,1,04,0.9,2505.456,M,0.0,M,,*51
$GPRMC,113906,A,3651.7023,N,07650.1109,W,104.0,229.0,140315,0,E*72
$GPGGA,113906,3651.7023,N,07650.1109,W,1,04,0.9,2503.932,M,0.0,M,,*57
$GPRMC,113924,A,3651.3496,N,07650.6413,W,104.0,229.0,140315,0,E*75
$GPGGA,113924,3651.3496,N,07650.6413,W,1,04,0.9,2505.456,M,0.0,M,,*59
$GPRMC,113925,A,3651.3303,N,07650.6696,W,111.0,229.0,140315,0,E*74
$GPGGA,113925,3651.3303,N,07650.6696,W,1,04,0.9,2505.456,M,0.0,M,,*5C
$GPRMC,113926,A,3651.3123,N,07650.6967,W,104.0,229.0,140315,0,E*72
$GPGGA,113926,3651.3123,N,07650.6967,W,1,04,0.9,2503.932,M,0.0,M,,*57
$GPRMC,113930,A,3651.2376,N,07650.8087,W,111.0,231.0,140315,0,E*72
$GPGGA,113930,3651.2376,N,07650.8087,W,1,04,0.9,2503.932,M,0.0,M,,*5A
$GPRMC,113931,A,3651.2195,N,07650.8370,W,104.0,231.0,140315,0,E*73
$GPGGA,113931,3651.2195,N,07650.8370,W,1,04,0.9,2502.408,M,0.0,M,,*5A
$GPRMC,113947,A,3650.9247,N,07651.2863,W,104.0,231.0,140315,0,E*76
$GPGGA,113947,3650.9247,N,07651.2863,W,1,04,0.9,2505.456,M,0.0,M,,*53
$GPRMC,113948,A,3650.9067,N,07651.3147,W,111.0,231.0,140315,0,E*73
$GPGGA,113948,3650.9067,N,07651.3147,W,1,04,0.9,2505.456,M,0.0,M,,*52
$GPRMC,113949,A,3650.8887,N,07651.3443,W,105.0,231.0,140315,0,E*71
$GPGGA,113949,3650.8887,N,07651.3443,W,1,04,0.9,2503.932,M,0.0,M,,*5C
$GPRMC,114006,A,3650.5720,N,07651.8245,W,106.0,229.0,140315,0,E*7A
$GPGGA,114006,3650.5720,N,07651.8245,W,1,04,0.9,2503.932,M,0.0,M,,*5D
$GPRMC,114007,A,3650.5539,N,07651.8528,W,111.0,229.0,140315,0,E*7B
$GPGGA,114007,3650.5539,N,07651.8528,W,1,04,0.9,2503.932,M,0.0,M,,*5A
$GPRMC,114014,A,3650.4200,N,07652.0485,W,105.0,229.0,140315,0,E*7D
$GPGGA,114014,3650.4200,N,07652.0485,W,1,04,0.9,2503.932,M,0.0,M,,*59
$GPRMC,114034,A,3650.0364,N,07652.6034,W,105.0,229.0,140315,0,E*70
$GPGGA,114034,3650.0364,N,07652.6034,W,1,04,0.9,2505.456,M,0.0,M,,*5D
$GPRMC,114035,A,3650.0183,N,07652.6305,W,105.0,229.0,140315,0,E*7B
$GPGGA,114035,3650.0183,N,07652.6305,W,1,04,0.9,2505.456,M,0.0,M,,*56
$GPRMC,114044,A,3649.8445,N,07652.8764,W,105.0,228.0,140315,0,E*7E
$GPGGA,114044,3649.8445,N,07652.8764,W,1,04,0.9,2508.504,M,0.0,M,,*59
$GPRMC,114045,A,3649.8239,N,07652.9034,W,111.0,228.0,140315,0,E*74
$GPGGA,114045,3649.8239,N,07652.9034,W,1,04,0.9,2508.504,M,0.0,M,,*56
$GPRMC,114056,A,3649.6076,N,07653.2047,W,105.0,228.0,140315,0,E*7A
$GPGGA,114056,3649.6076,N,07653.2047,W,1,04,0.9,2505.456,M,0.0,M,,*56
$GPRMC,114103,A,3649.4699,N,07653.3939,W,106.0,226.0,140315,0,E*72
$GPGGA,114103,3649.4699,N,07653.3939,W,1,04,0.9,2508.504,M,0.0,M,,*58
$GPRMC,114104,A,3649.4493,N,07653.4222,W,111.0,226.0,140315,0,E*7D
$GPGGA,114104,3649.4493,N,07653.4222,W,1,04,0.9,2508.504,M,0.0,M,,*51
$GPRMC,114110,A,3649.3296,N,07653.5858,W,111.0,226.0,140315,0,E*7A
$GPGGA,114110,3649.3296,N,07653.5858,W,1,04,0.9,2505.456,M,0.0,M,,*5D
$GPRMC,114117,A,3649.1892,N,07653.7737,W,105.0,226.0,140315,0,E*70
$GPGGA,114117,3649.1892,N,07653.7737,W,1,04,0.9,2505.456,M,0.0,M,,*52
$GPRMC,114125,A,3649.0270,N,07653.9861,W,106.0,226.0,140315,0,E*77
$GPGGA,114125,3649.0270,N,07653.9861,W,1,04,0.9,2508.504,M,0.0,M,,*5D
$GPRMC,114126,A,3649.0064,N,07654.0132,W,111.0,226.0,140315,0,E*74
$GPGGA,114126,3649.0064,N,07654.0132,W,1,04,0.9,2508.504,M,0.0,M,,*58
$GPRMC,114142,A,3648.6755,N,07654.4355,W,105.0,225.0,140315,0,E*75
$GPGGA,114142,3648.6755,N,07654.4355,W,1,04,0.9,2506.98,M,0.0,M,,*61
$GPRMC,114148,A,3648.5481,N,07654.5887,W,106.0,224.0,140315,0,E*71
$GPGGA,114148,3648.5481,N,07654.5887,W,1,04,0.9,2508.504,M,0.0,M,,*59
$GPRMC,114149,A,3648.5275,N,07654.6144,W,111.0,224.0,140315,0,E*7E
$GPGGA,114149,3648.5275,N,07654.6144,W,1,04,0.9,2508.504,M,0.0,M,,*50
$GPRMC,114156,A,3648.3768,N,07654.7947,W,111.0,224.0,140315,0,E*75
$GPGGA,114156,3648.3768,N,07654.7947,W,1,04,0.9,2505.456,M,0.0,M,,*50
$GPRMC,114204,A,3648.2069,N,07654.9994,W,105.0,224.0,140315,0,E*73
$GPGGA,114204,3648.2069,N,07654.9994,W,1,04,0.9,2506.98,M,0.0,M,,*66
$GPRMC,114210,A,3648.0794,N,07655.1526,W,106.0,224.0,140315,0,E*7E
$GPGGA,114210,3648.0794,N,07655.1526,W,1,04,0.9,2508.504,M,0.0,M,,*56
$GPRMC,114211,A,3648.0576,N,07655.1783,W,111.0,224.0,140315,0,E*7A
$GPGGA,114211,3648.0576,N,07655.1783,W,1,04,0.9,2508.504,M,0.0,M,,*54
$GPRMC,114225,A,3647.7511,N,07655.5298,W,106.0,221.0,140315,0,E*7C
$GPGGA,114225,3647.7511,N,07655.5298,W,1,04,0.9,2508.504,M,0.0,M,,*51
$GPRMC,114244,A,3647.3250,N,07656.0049,W,107.0,221.0,140315,0,E*74
$GPGGA,114244,3647.3250,N,07656.0049,W,1,04,0.9,2508.504,M,0.0,M,,*58
$GPRMC,114245,A,3647.3031,N,07656.0306,W,107.0,221.0,140315,0,E*78
$GPGGA,114245,3647.3031,N,07656.0306,W,1,04,0.9,2508.504,M,0.0,M,,*54
$GPRMC,114305,A,3646.8512,N,07656.5263,W,108.0,221.0,140315,0,E*7B
$GPGGA,114305,3646.8512,N,07656.5263,W,1,04,0.9,2506.98,M,0.0,M,,*66
$GPRMC,114306,A,3646.8293,N,07656.5508,W,111.0,221.0,140315,0,E*74
$GPGGA,114306,3646.8293,N,07656.5508,W,1,04,0.9,2506.98,M,0.0,M,,*61
$GPRMC,114321,A,3646.4907,N,07656.9138,W,105.0,221.0,140315,0,E*75
$GPGGA,114321,3646.4907,N,07656.9138,W,1,04,0.9,2506.98,M,0.0,M,,*65
$GPRMC,114328,A,3646.3349,N,07657.0799,W,106.0,219.0,140315,0,E*76
$GPGGA,114328,3646.3349,N,07657.0799,W,1,04,0.9,2508.504,M,0.0,M,,*50
$GPRMC,114329,A,3646.3130,N,07657.1044,W,111.0,219.0,140315,0,E*7B
$GPGGA,114329,3646.3130,N,07657.1044,W,1,04,0.9,2508.504,M,0.0,M,,*5B
$GPRMC,114334,A,3646.1997,N,07657.2241,W,111.0,219.0,140315,0,E*74
$GPGGA,114334,3646.1997,N,07657.2241,W,1,04,0.9,2505.456,M,0.0,M,,*5F
$GPRMC,114340,A,3646.0645,N,07657.3657,W,105.0,219.0,140315,0,E*71
$GPGGA,114340,3646.0645,N,07657.3657,W,1,04,0.9,2505.456,M,0.0,M,,*5F
$GPRMC,114357,A,3645.7054,N,07657.7443,W,107.0,219.0,140315,0,E*74
$GPGGA,114357,3645.7054,N,07657.7443,W,1,04,0.9,2508.504,M,0.0,M,,*53
$GPRMC,114358,A,3645.6822,N,07657.7674,W,111.0,219.0,140315,0,E*72
$GPGGA,114358,3645.6822,N,07657.7674,W,1,04,0.9,2508.504,M,0.0,M,,*52
$GPRMC,114408,A,3645.4298,N,07658.0236,W,105.0,218.0,140315,0,E*77
$GPGGA,114408,3645.4298,N,07658.0236,W,1,04,0.9,2506.98,M,0.0,M,,*6D
$GPRMC,114417,A,3645.2226,N,07658.2335,W,106.0,218.0,140315,0,E*79
$GPGGA,114417,3645.2226,N,07658.2335,W,1,04,0.9,2508.504,M,0.0,M,,*5E
$GPRMC,114418,A,3645.1994,N,07658.2567,W,111.0,218.0,140315,0,E*70
$GPGGA,114418,3645.1994,N,07658.2567,W,1,04,0.9,2508.504,M,0.0,M,,*51
$GPRMC,114433,A,3644.8569,N,07658.6056,W,105.0,219.0,140315,0,E*78
$GPGGA,114433,3644.8569,N,07658.6056,W,1,04,0.9,2506.98,M,0.0,M,,*63
$GPRMC,114452,A,3644.4282,N,07659.0471,W,105.0,219.0,140315,0,E*77
$GPGGA,114452,3644.4282,N,07659.0471,W,1,04,0.9,2508.504,M,0.0,M,,*52
$GPRMC,114453,A,3644.4050,N,07659.0703,W,105.0,219.0,140315,0,E*7D
$GPGGA,114453,3644.4050,N,07659.0703,W,1,04,0.9,2508.504,M,0.0,M,,*58
$GPRMC,114502,A,3644.2068,N,07659.2789,W,103.0,219.0,140315,0,E*73
$GPGGA,114502,3644.2068,N,07659.2789,W,1,04,0.9,2508.504,M,0.0,M,,*50
$GPRMC,114503,A,3644.1849,N,07659.3021,W,111.0,219.0,140315,0,E*7D
$GPGGA,114503,3644.1849,N,07659.3021,W,1,04,0.9,2508.504,M,0.0,M,,*5D
$GPRMC,114504,A,3644.1630,N,07659.3253,W,104.0,221.0,140315,0,E*72
$GPGGA,114504,3644.1630,N,07659.3253,W,1,04,0.9,2506.98,M,0.0,M,,*63
$GPRMC,114508,A,3644.0754,N,07659.4205,W,111.0,221.0,140315,0,E*7C
$GPGGA,114508,3644.0754,N,07659.4205,W,1,04,0.9,2506.98,M,0.0,M,,*69
$GPRMC,114509,A,3644.0535,N,07659.4437,W,103.0,221.0,140315,0,E*7C
$GPGGA,114509,3644.0535,N,07659.4437,W,1,04,0.9,2505.456,M,0.0,M,,*5F
$GPRMC,114523,A,3643.7445,N,07659.7656,W,104.0,219.0,140315,0,E*78
$GPGGA,114523,3643.7445,N,07659.7656,W,1,04,0.9,2506.98,M,0.0,M,,*62
$GPRMC,114524,A,3643.7214,N,07659.7874,W,104.0,218.0,140315,0,E*72
$GPGGA,114524,3643.7214,N,07659.7874,W,1,04,0.9,2506.98,M,0.0,M,,*69
$GPRMC,114533,A,3643.5193,N,07659.9870,W,103.0,218.0,140315,0,E*77
$GPGGA,114533,3643.5193,N,07659.9870,W,1,04,0.9,2510.028,M,0.0,M,,*57
$GPRMC,114535,A,3643.4742,N,07700.0321,W,111.0,218.0,140315,0,E*72
$GPGGA,114535,3643.4742,N,07700.0321,W,1,04,0.9,2511.552,M,0.0,M,,*58
$GPRMC,114536,A,3643.4510,N,07700.0540,W,103.0,218.0,140315,0,E*76
$GPGGA,114536,3643.4510,N,07700.0540,W,1,04,0.9,2510.028,M,0.0,M,,*56
$GPRMC,114538,A,3643.4059,N,07700.0990,W,111.0,218.0,140315,0,E*72
$GPGGA,114538,3643.4059,N,07700.0990,W,1,04,0.9,2510.028,M,0.0,M,,*51
$GPRMC,114539,A,3643.3828,N,07700.1222,W,104.0,218.0,140315,0,E*7D
$GPGGA,114539,3643.3828,N,07700.1222,W,1,04,0.9,2508.504,M,0.0,M,,*58
$GPRMC,114540,A,3643.3596,N,07700.1441,W,111.0,218.0,140315,0,E*7C
$GPGGA,114540,3643.3596,N,07700.1441,W,1,04,0.9,2508.504,M,0.0,M,,*5D
$GPRMC,114541,A,3643.3364,N,07700.1672,W,105.0,218.0,140315,0,E*71
$GPGGA,114541,3643.3364,N,07700.1672,W,1,04,0.9,2506.98,M,0.0,M,,*6B
$GPRMC,114542,A,3643.3145,N,07700.1904,W,111.0,218.0,140315,0,E*78
$GPGGA,114542,3643.3145,N,07700.1904,W,1,04,0.9,2506.98,M,0.0,M,,*67
$GPRMC,114543,A,3643.2914,N,07700.2123,W,105.0,218.0,140315,0,E*7F
$GPGGA,114543,3643.2914,N,07700.2123,W,1,04,0.9,2505.456,M,0.0,M,,*50
$GPRMC,114553,A,3643.0622,N,07700.4337,W,104.0,217.0,140315,0,E*79
$GPGGA,114553,3643.0622,N,07700.4337,W,1,04,0.9,2508.504,M,0.0,M,,*53
$GPRMC,114554,A,3643.0390,N,07700.4569,W,111.0,217.0,140315,0,E*7B
$GPGGA,114554,3643.0390,N,07700.4569,W,1,04,0.9,2508.504,M,0.0,M,,*55
$GPRMC,114555,A,3643.0158,N,07700.4788,W,105.0,217.0,140315,0,E*74
$GPGGA,114555,3643.0158,N,07700.4788,W,1,04,0.9,2506.98,M,0.0,M,,*61
$GPRMC,114556,A,3642.9927,N,07700.5007,W,111.0,217.0,140315,0,E*7B
$GPGGA,114556,3642.9927,N,07700.5007,W,1,04,0.9,2506.98,M,0.0,M,,*6B
$GPRMC,114557,A,3642.9695,N,07700.5239,W,105.0,218.0,140315,0,E*79
$GPGGA,114557,3642.9695,N,07700.5239,W,1,04,0.9,2505.456,M,0.0,M,,*56
$GPRMC,114616,A,3642.5472,N,07700.9642,W,104.0,219.0,140315,0,E*7C
$GPGGA,114616,3642.5472,N,07700.9642,W,1,04,0.9,2508.504,M,0.0,M,,*58
$GPRMC,114617,A,3642.5240,N,07700.9874,W,104.0,219.0,140315,0,E*71
$GPGGA,114617,3642.5240,N,07700.9874,W,1,04,0.9,2508.504,M,0.0,M,,*55
$GPRMC,114623,A,3642.3876,N,07701.1212,W,104.0,218.0,140315,0,E*7D
$GPGGA,114623,3642.3876,N,07701.1212,W,1,04,0.9,2510.028,M,0.0,M,,*5A
$GPRMC,114624,A,3642.3644,N,07701.1432,W,104.0,217.0,140315,0,E*7E
$GPGGA,114624,3642.3644,N,07701.1432,W,1,04,0.9,2510.028,M,0.0,M,,*56
$GPRMC,114628,A,3642.2704,N,07701.2294,W,111.0,215.0,140315,0,E*79
$GPGGA,114628,3642.2704,N,07701.2294,W,1,04,0.9,2510.028,M,0.0,M,,*57
$GPRMC,114629,A,3642.2472,N,07701.2513,W,105.0,215.0,140315,0,E*77
$GPGGA,114629,3642.2472,N,07701.2513,W,1,04,0.9,2508.504,M,0.0,M,,*5E
$GPRMC,114630,A,3642.2228,N,07701.2732,W,111.0,215.0,140315,0,E*72
$GPGGA,114630,3642.2228,N,07701.2732,W,1,04,0.9,2508.504,M,0.0,M,,*5E
$GPRMC,114638,A,3642.0309,N,07701.4418,W,105.0,214.0,140315,0,E*73
$GPGGA,114638,3642.0309,N,07701.4418,W,1,04,0.9,2505.456,M,0.0,M,,*50
$GPRMC,114643,A,3641.9099,N,07701.5435,W,104.0,214.0,140315,0,E*70
$GPGGA,114643,3641.9099,N,07701.5435,W,1,04,0.9,2508.504,M,0.0,M,,*59
$GPRMC,114649,A,3641.7644,N,07701.6646,W,111.0,214.0,140315,0,E*73
$GPGGA,114649,3641.7644,N,07701.6646,W,1,04,0.9,2510.028,M,0.0,M,,*5C
$GPRMC,114650,A,3641.7413,N,07701.6865,W,105.0,214.0,140315,0,E*71
$GPGGA,114650,3641.7413,N,07701.6865,W,1,04,0.9,2508.504,M,0.0,M,,*59
$GPRMC,114651,A,3641.7168,N,07701.7071,W,111.0,214.0,140315,0,E*70
$GPGGA,114651,3641.7168,N,07701.7071,W,1,04,0.9,2508.504,M,0.0,M,,*5D
$GPRMC,114652,A,3641.6924,N,07701.7277,W,105.0,214.0,140315,0,E*73
$GPGGA,114652,3641.6924,N,07701.7277,W,1,04,0.9,2506.98,M,0.0,M,,*65
$GPRMC,114653,A,3641.6679,N,07701.7483,W,111.0,214.0,140315,0,E*7D
$GPGGA,114653,3641.6679,N,07701.7483,W,1,04,0.9,2506.98,M,0.0,M,,*6E
$GPRMC,114655,A,3641.6202,N,07701.7895,W,105.0,214.0,140315,0,E*7D
$GPGGA,114655,3641.6202,N,07701.7895,W,1,04,0.9,2505.456,M,0.0,M,,*5E
$GPRMC,114705,A,3641.3834,N,07701.9941,W,103.0,214.0,140315,0,E*73
$GPGGA,114705,3641.3834,N,07701.9941,W,1,04,0.9,2508.504,M,0.0,M,,*5D
$GPRMC,114708,A,3641.3125,N,07702.0547,W,111.0,214.0,140315,0,E*74
$GPGGA,114708,3641.3125,N,07702.0547,W,1,04,0.9,2510.028,M,0.0,M,,*5B
$GPRMC,114709,A,3641.2881,N,07702.0753,W,104.0,214.0,140315,0,E*70
$GPGGA,114709,3641.2881,N,07702.0753,W,1,04,0.9,2508.504,M,0.0,M,,*59
$GPRMC,114711,A,3641.2392,N,07702.1165,W,111.0,214.0,140315,0,E*76
$GPGGA,114711,3641.2392,N,07702.1165,W,1,04,0.9,2508.504,M,0.0,M,,*5B
$GPRMC,114712,A,3641.2160,N,07702.1371,W,105.0,214.0,140315,0,E*78
$GPGGA,114712,3641.2160,N,07702.1371,W,1,04,0.9,2506.98,M,0.0,M,,*6E
$GPRMC,114714,A,3641.1671,N,07702.1770,W,111.0,214.0,140315,0,E*7A
$GPGGA,114714,3641.1671,N,07702.1770,W,1,04,0.9,2506.98,M,0.0,M,,*69
$GPRMC,114715,A,3641.1439,N,07702.1976,W,104.0,214.0,140315,0,E*79
$GPGGA,114715,3641.1439,N,07702.1976,W,1,04,0.9,2505.456,M,0.0,M,,*5B
$GPRMC,114722,A,3640.9778,N,07702.3366,W,102.0,214.0,140315,0,E*7D
$GPGGA,114722,3640.9778,N,07702.3366,W,1,04,0.9,2508.504,M,0.0,M,,*52
$GPRMC,114731,A,3640.7667,N,07702.5194,W,111.0,215.0,140315,0,E*74
$GPGGA,114731,3640.7667,N,07702.5194,W,1,04,0.9,2510.028,M,0.0,M,,*5A
$GPRMC,114732,A,3640.7435,N,07702.5400,W,103.0,215.0,140315,0,E*79
$GPGGA,114732,3640.7435,N,07702.5400,W,1,04,0.9,2508.504,M,0.0,M,,*56
$GPRMC,114733,A,3640.7190,N,07702.5606,W,111.0,215.0,140315,0,E*75
$GPGGA,114733,3640.7190,N,07702.5606,W,1,04,0.9,2508.504,M,0.0,M,,*59
$GPRMC,114734,A,3640.6958,N,07702.5825,W,103.0,215.0,140315,0,E*73
$GPGGA,114734,3640.6958,N,07702.5825,W,1,04,0.9,2506.98,M,0.0,M,,*62
$GPRMC,114752,A,3640.2774,N,07702.9507,W,103.0,215.0,140315,0,E*76
$GPGGA,114752,3640.2774,N,07702.9507,W,1,04,0.9,2510.028,M,0.0,M,,*5B
$GPRMC,114753,A,3640.2542,N,07702.9726,W,111.0,215.0,140315,0,E*72
$GPGGA,114753,3640.2542,N,07702.9726,W,1,04,0.9,2510.028,M,0.0,M,,*5C
$GPRMC,114754,A,3640.2311,N,07702.9932,W,103.0,215.0,140315,0,E*7D
$GPGGA,114754,3640.2311,N,07702.9932,W,1,04,0.9,2508.504,M,0.0,M,,*52
$GPRMC,114812,A,3639.8139,N,07703.3692,W,103.0,215.0,140315,0,E*72
$GPGGA,114812,3639.8139,N,07703.3692,W,1,04,0.9,2510.028,M,0.0,M,,*5F
$GPRMC,114813,A,3639.7908,N,07703.3898,W,111.0,215.0,140315,0,E*71
$GPGGA,114813,3639.7908,N,07703.3898,W,1,04,0.9,2510.028,M,0.0,M,,*5F
$GPRMC,114814,A,3639.7689,N,07703.4104,W,103.0,215.0,140315,0,E*78
$GPGGA,114814,3639.7689,N,07703.4104,W,1,04,0.9,2508.504,M,0.0,M,,*57
$GPRMC,114833,A,3639.3324,N,07703.8172,W,103.0,217.0,140315,0,E*74
$GPGGA,114833,3639.3324,N,07703.8172,W,1,04,0.9,2510.028,M,0.0,M,,*5B
$GPRMC,114834,A,3639.3093,N,07703.8391,W,111.0,217.0,140315,0,E*70
$GPGGA,114834,3639.3093,N,07703.8391,W,1,04,0.9,2510.028,M,0.0,M,,*5C
$GPRMC,114835,A,3639.2861,N,07703.8610,W,103.0,217.0,140315,0,E*7A
$GPGGA,114835,3639.2861,N,07703.8610,W,1,04,0.9,2508.504,M,0.0,M,,*57
$GPRMC,114838,A,3639.2178,N,07703.9254,W,111.0,217.0,140315,0,E*70
$GPGGA,114838,3639.2178,N,07703.9254,W,1,04,0.9,2508.504,M,0.0,M,,*5E
$GPRMC,114839,A,3639.1947,N,07703.9472,W,103.0,217.0,140315,0,E*77
$GPGGA,114839,3639.1947,N,07703.9472,W,1,04,0.9,2506.98,M,0.0,M,,*64
$GPRMC,114842,A,3639.1252,N,07704.0129,W,111.0,217.0,140315,0,E*72
$GPGGA,114842,3639.1252,N,07704.0129,W,1,04,0.9,2506.98,M,0.0,M,,*62
$GPRMC,114843,A,3639.1033,N,07704.0348,W,104.0,217.0,140315,0,E*77
$GPGGA,114843,3639.1033,N,07704.0348,W,1,04,0.9,2505.456,M,0.0,M,,*56
$GPRMC,114859,A,3638.7402,N,07704.3811,W,102.0,218.0,140315,0,E*70
$GPGGA,114859,3638.7402,N,07704.3811,W,1,04,0.9,2508.504,M,0.0,M,,*53
$GPRMC,114900,A,3638.7170,N,07704.4030,W,111.0,218.0,140315,0,E*73
$GPGGA,114900,3638.7170,N,07704.4030,W,1,04,0.9,2508.504,M,0.0,M,,*52
$GPRMC,114901,A,3638.6951,N,07704.4249,W,102.0,218.0,140315,0,E*76
$GPGGA,114901,3638.6951,N,07704.4249,W,1,04,0.9,2506.98,M,0.0,M,,*6B
$GPRMC,114921,A,3638.2523,N,07704.8652,W,102.0,218.0,140315,0,E*7B
$GPGGA,114921,3638.2523,N,07704.8652,W,1,04,0.9,2508.504,M,0.0,M,,*58
$GPRMC,114922,A,3638.2303,N,07704.8871,W,102.0,218.0,140315,0,E*73
$GPGGA,114922,3638.2303,N,07704.8871,W,1,04,0.9,2508.504,M,0.0,M,,*50
$GPRMC,114930,A,3638.0540,N,07705.0660,W,102.0,218.0,140315,0,E*74
$GPGGA,114930,3638.0540,N,07705.0660,W,1,04,0.9,2511.552,M,0.0,M,,*5C
$GPRMC,114931,A,3638.0321,N,07705.0879,W,111.0,219.0,140315,0,E*71
$GPGGA,114931,3638.0321,N,07705.0879,W,1,04,0.9,2511.552,M,0.0,M,,*5A
$GPRMC,114932,A,3638.0102,N,07705.1111,W,103.0,219.0,140315,0,E*74
$GPGGA,114932,3638.0102,N,07705.1111,W,1,04,0.9,2510.028,M,0.0,M,,*55
$GPRMC,114943,A,3637.7720,N,07705.3609,W,101.0,219.0,140315,0,E*72
$GPGGA,114943,3637.7720,N,07705.3609,W,1,04,0.9,2511.552,M,0.0,M,,*58
$GPRMC,114945,A,3637.7295,N,07705.4059,W,111.0,221.0,140315,0,E*71
$GPGGA,114945,3637.7295,N,07705.4059,W,1,04,0.9,2511.552,M,0.0,M,,*51
$GPRMC,114946,A,3637.7089,N,07705.4291,W,100.0,221.0,140315,0,E*7B
$GPGGA,114946,3637.7089,N,07705.4291,W,1,04,0.9,2510.028,M,0.0,M,,*52
$GPRMC,114948,A,3637.6652,N,07705.4754,W,111.0,221.0,140315,0,E*78
$GPGGA,114948,3637.6652,N,07705.4754,W,1,04,0.9,2510.028,M,0.0,M,,*51
$GPRMC,114949,A,3637.6446,N,07705.4986,W,101.0,221.0,140315,0,E*7E
$GPGGA,114949,3637.6446,N,07705.4986,W,1,04,0.9,2508.504,M,0.0,M,,*54
$GPRMC,114950,A,3637.6227,N,07705.5205,W,111.0,221.0,140315,0,E*77
$GPGGA,114950,3637.6227,N,07705.5205,W,1,04,0.9,2508.504,M,0.0,M,,*5C
$GPRMC,114951,A,3637.6021,N,07705.5437,W,101.0,221.0,140315,0,E*74
$GPGGA,114951,3637.6021,N,07705.5437,W,1,04,0.9,2506.98,M,0.0,M,,*60
$GPRMC,114952,A,3637.5802,N,07705.5669,W,111.0,219.0,140315,0,E*7E
$GPGGA,114952,3637.5802,N,07705.5669,W,1,04,0.9,2506.98,M,0.0,M,,*60
$GPRMC,114953,A,3637.5596,N,07705.5887,W,101.0,219.0,140315,0,E*70
$GPGGA,114953,3637.5596,N,07705.5887,W,1,04,0.9,2505.456,M,0.0,M,,*5A
$GPRMC,115001,A,3637.3909,N,07705.7651,W,099.0,219.0,140315,0,E*74
$GPGGA,115001,3637.3909,N,07705.7651,W,1,04,0.9,2508.504,M,0.0,M,,*55
$GPRMC,115014,A,3637.1180,N,07706.0471,W,098.0,219.0,140315,0,E*7E
$GPGGA,115014,3637.1180,N,07706.0471,W,1,04,0.9,2510.028,M,0.0,M,,*5C
$GPRMC,115016,A,3637.0755,N,07706.0909,W,111.0,219.0,140315,0,E*71
$GPGGA,115016,3637.0755,N,07706.0909,W,1,04,0.9,2510.028,M,0.0,M,,*53
$GPRMC,115017,A,3637.0549,N,07706.1127,W,098.0,219.0,140315,0,E*7A
$GPGGA,115017,3637.0549,N,07706.1127,W,1,04,0.9,2508.504,M,0.0,M,,*5A
$GPRMC,115019,A,3637.0124,N,07706.1578,W,111.0,219.0,140315,0,E*75
$GPGGA,115019,3637.0124,N,07706.1578,W,1,04,0.9,2508.504,M,0.0,M,,*55
$GPRMC,115020,A,3636.9918,N,07706.1797,W,099.0,219.0,140315,0,E*72
$GPGGA,115020,3636.9918,N,07706.1797,W,1,04,0.9,2506.98,M,0.0,M,,*6D
$GPRMC,115036,A,3636.6609,N,07706.5338,W,097.0,219.0,140315,0,E*7E
$GPGGA,115036,3636.6609,N,07706.5338,W,1,04,0.9,2510.028,M,0.0,M,,*53
$GPRMC,115039,A,3636.5992,N,07706.6007,W,111.0,221.0,140315,0,E*77
$GPGGA,115039,3636.5992,N,07706.6007,W,1,04,0.9,2511.552,M,0.0,M,,*57
$GPRMC,115040,A,3636.5786,N,07706.6226,W,097.0,221.0,140315,0,E*7C
$GPGGA,115040,3636.5786,N,07706.6226,W,1,04,0.9,2510.028,M,0.0,M,,*5A
$GPRMC,115044,A,3636.4987,N,07706.7101,W,111.0,221.0,140315,0,E*7E
$GPGGA,115044,3636.4987,N,07706.7101,W,1,04,0.9,2510.028,M,0.0,M,,*57
$GPRMC,115045,A,3636.4781,N,07706.7320,W,096.0,221.0,140315,0,E*78
$GPGGA,115045,3636.4781,N,07706.7320,W,1,04,0.9,2508.504,M,0.0,M,,*5D
$GPRMC,115104,A,3636.0970,N,07707.1440,W,095.0,219.0,140315,0,E*76
$GPGGA,115104,3636.0970,N,07707.1440,W,1,04,0.9,2510.028,M,0.0,M,,*59
$GPRMC,115105,A,3636.0764,N,07707.1659,W,096.0,219.0,140315,0,E*75
$GPGGA,115105,3636.0764,N,07707.1659,W,1,04,0.9,2510.028,M,0.0,M,,*59
$GPRMC,115124,A,3635.6838,N,07707.5688,W,096.0,219.0,140315,0,E*7D
$GPGGA,115124,3635.6838,N,07707.5688,W,1,04,0.9,2513.076,M,0.0,M,,*59
$GPRMC,115125,A,3635.6632,N,07707.5894,W,096.0,219.0,140315,0,E*7B
$GPGGA,115125,3635.6632,N,07707.5894,W,1,04,0.9,2513.076,M,0.0,M,,*5F
$GPRMC,115134,A,3635.4778,N,07707.7826,W,096.0,219.0,140315,0,E*7D
$GPGGA,115134,3635.4778,N,07707.7826,W,1,04,0.9,2513.076,M,0.0,M,,*59
$GPRMC,115135,A,3635.4572,N,07707.8045,W,111.0,219.0,140315,0,E*78
$GPGGA,115135,3635.4572,N,07707.8045,W,1,04,0.9,2513.076,M,0.0,M,,*52
$GPRMC,115136,A,3635.4366,N,07707.8264,W,097.0,219.0,140315,0,E*76
$GPGGA,115136,3635.4366,N,07707.8264,W,1,04,0.9,2511.552,M,0.0,M,,*52
$GPRMC,115139,A,3635.3735,N,07707.8907,W,111.0,219.0,140315,0,E*7D
$GPGGA,115139,3635.3735,N,07707.8907,W,1,04,0.9,2511.552,M,0.0,M,,*56
$GPRMC,115140,A,3635.3529,N,07707.9126,W,097.0,219.0,140315,0,E*79
$GPGGA,115140,3635.3529,N,07707.9126,W,1,04,0.9,2510.028,M,0.0,M,,*54
$GPRMC,115154,A,3635.0606,N,07708.2139,W,097.0,219.0,140315,0,E*7B
$GPGGA,115154,3635.0606,N,07708.2139,W,1,04,0.9,2513.076,M,0.0,M,,*5E
$GPRMC,115155,A,3635.0400,N,07708.2357,W,111.0,219.0,140315,0,E*7B
$GPGGA,115155,3635.0400,N,07708.2357,W,1,04,0.9,2513.076,M,0.0,M,,*51
$GPRMC,115156,A,3635.0182,N,07708.2577,W,098.0,219.0,140315,0,E*73
$GPGGA,115156,3635.0182,N,07708.2577,W,1,04,0.9,2511.552,M,0.0,M,,*58
$GPRMC,115158,A,3634.9756,N,07708.3014,W,111.0,219.0,140315,0,E*7B
$GPGGA,115158,3634.9756,N,07708.3014,W,1,04,0.9,2511.552,M,0.0,M,,*50
$GPRMC,115159,A,3634.9538,N,07708.3233,W,099.0,219.0,140315,0,E*76
$GPGGA,115159,3634.9538,N,07708.3233,W,1,04,0.9,2510.028,M,0.0,M,,*55
$GPRMC,115201,A,3634.9113,N,07708.3671,W,111.0,219.0,140315,0,E*76
$GPGGA,115201,3634.9113,N,07708.3671,W,1,04,0.9,2510.028,M,0.0,M,,*54
$GPRMC,115202,A,3634.8894,N,07708.3890,W,100.0,219.0,140315,0,E*73
$GPGGA,115202,3634.8894,N,07708.3890,W,1,04,0.9,2508.504,M,0.0,M,,*53
$GPRMC,115203,A,3634.8675,N,07708.4109,W,111.0,218.0,140315,0,E*7C
$GPGGA,115203,3634.8675,N,07708.4109,W,1,04,0.9,2508.504,M,0.0,M,,*5D
$GPRMC,115204,A,3634.8469,N,07708.4327,W,100.0,218.0,140315,0,E*7A
$GPGGA,115204,3634.8469,N,07708.4327,W,1,04,0.9,2506.98,M,0.0,M,,*65
$GPRMC,115211,A,3634.6989,N,07708.5847,W,098.0,219.0,140315,0,E*7E
$GPGGA,115211,3634.6989,N,07708.5847,W,1,04,0.9,2510.028,M,0.0,M,,*5C
$GPRMC,115219,A,3634.5302,N,07708.7598,W,111.0,219.0,140315,0,E*71
$GPGGA,115219,3634.5302,N,07708.7598,W,1,04,0.9,2513.076,M,0.0,M,,*5B
$GPRMC,115220,A,3634.5096,N,07708.7816,W,099.0,219.0,140315,0,E*7F
$GPGGA,115220,3634.5096,N,07708.7816,W,1,04,0.9,2511.552,M,0.0,M,,*55
$GPRMC,115221,A,3634.4877,N,07708.8035,W,111.0,219.0,140315,0,E*7F
$GPGGA,115221,3634.4877,N,07708.8035,W,1,04,0.9,2511.552,M,0.0,M,,*54
$GPRMC,115222,A,3634.4671,N,07708.8267,W,099.0,219.0,140315,0,E*70
$GPGGA,115222,3634.4671,N,07708.8267,W,1,04,0.9,2510.028,M,0.0,M,,*53
$GPRMC,115223,A,3634.4452,N,07708.8486,W,111.0,219.0,140315,0,E*7A
$GPGGA,115223,3634.4452,N,07708.8486,W,1,04,0.9,2510.028,M,0.0,M,,*58
$GPRMC,115224,A,3634.4246,N,07708.8705,W,099.0,219.0,140315,0,E*77
$GPGGA,115224,3634.4246,N,07708.8705,W,1,04,0.9,2508.504,M,0.0,M,,*56
$GPRMC,115241,A,3634.0693,N,07709.2438,W,099.0,219.0,140315,0,E*7A
$GPGGA,115241,3634.0693,N,07709.2438,W,1,04,0.9,2511.552,M,0.0,M,,*50
$GPRMC,115242,A,3634.0487,N,07709.2657,W,111.0,219.0,140315,0,E*74
$GPGGA,115242,3634.0487,N,07709.2657,W,1,04,0.9,2511.552,M,0.0,M,,*5F
$GPRMC,115243,A,3634.0268,N,07709.2876,W,099.0,219.0,140315,0,E*7E
$GPGGA,115243,3634.0268,N,07709.2876,W,1,04,0.9,2510.028,M,0.0,M,,*5D
$GPRMC,115300,A,3633.6920,N,07709.6417,W,099.0,221.0,140315,0,E*7A
$GPGGA,115300,3633.6920,N,07709.6417,W,1,04,0.9,2511.552,M,0.0,M,,*5B
$GPRMC,115301,A,3633.6702,N,07709.6635,W,111.0,221.0,140315,0,E*76
$GPGGA,115301,3633.6702,N,07709.6635,W,1,04,0.9,2511.552,M,0.0,M,,*56
$GPRMC,115302,A,3633.6496,N,07709.6867,W,099.0,221.0,140315,0,E*73
$GPGGA,115302,3633.6496,N,07709.6867,W,1,04,0.9,2510.028,M,0.0,M,,*5B
$GPRMC,115317,A,3633.3341,N,07710.0163,W,099.0,219.0,140315,0,E*77
$GPGGA,115317,3633.3341,N,07710.0163,W,1,04,0.9,2511.552,M,0.0,M,,*5D
$GPRMC,115318,A,3633.3135,N,07710.0382,W,111.0,219.0,140315,0,E*75
$GPGGA,115318,3633.3135,N,07710.0382,W,1,04,0.9,2511.552,M,0.0,M,,*5E
$GPRMC,115319,A,3633.2929,N,07710.0601,W,098.0,219.0,140315,0,E*7E
$GPGGA,115319,3633.2929,N,07710.0601,W,1,04,0.9,2510.028,M,0.0,M,,*5C
$GPRMC,115328,A,3633.1011,N,07710.2532,W,098.0,218.0,140315,0,E*7D
$GPGGA,115328,3633.1011,N,07710.2532,W,1,04,0.9,2511.552,M,0.0,M,,*57
$GPRMC,115329,A,3633.0805,N,07710.2751,W,111.0,218.0,140315,0,E*77
$GPGGA,115329,3633.0805,N,07710.2751,W,1,04,0.9,2511.552,M,0.0,M,,*5D
$GPRMC,115330,A,3633.0586,N,07710.2970,W,099.0,218.0,140315,0,E*75
$GPGGA,115330,3633.0586,N,07710.2970,W,1,04,0.9,2510.028,M,0.0,M,,*57
$GPRMC,115349,A,3632.6338,N,07710.7309,W,098.0,219.0,140315,0,E*7E
$GPGGA,115349,3632.6338,N,07710.7309,W,1,04,0.9,2511.552,M,0.0,M,,*55
$GPRMC,115350,A,3632.6132,N,07710.7527,W,098.0,219.0,140315,0,E*74
$GPGGA,115350,3632.6132,N,07710.7527,W,1,04,0.9,2511.552,M,0.0,M,,*5F
$GPRMC,115353,A,3632.5501,N,07710.8184,W,111.0,219.0,140315,0,E*72
$GPGGA,115353,3632.5501,N,07710.8184,W,1,04,0.9,2511.552,M,0.0,M,,*59
$GPRMC,115354,A,3632.5295,N,07710.8403,W,098.0,219.0,140315,0,E*75
$GPGGA,115354,3632.5295,N,07710.8403,W,1,04,0.9,2510.028,M,0.0,M,,*57
$GPRMC,115357,A,3632.4651,N,07710.9073,W,111.0,219.0,140315,0,E*79
$GPGGA,115357,3632.4651,N,07710.9073,W,1,04,0.9,2510.028,M,0.0,M,,*5B
$GPRMC,115358,A,3632.4445,N,07710.9291,W,099.0,219.0,140315,0,E*7E
$GPGGA,115358,3632.4445,N,07710.9291,W,1,04,0.9,2508.504,M,0.0,M,,*5F
$GPRMC,115400,A,3632.4020,N,07710.9729,W,111.0,219.0,140315,0,E*74
$GPGGA,115400,3632.4020,N,07710.9729,W,1,04,0.9,2508.504,M,0.0,M,,*54
$GPRMC,115401,A,3632.3801,N,07710.9961,W,100.0,219.0,140315,0,E*7B
$GPGGA,115401,3632.3801,N,07710.9961,W,1,04,0.9,2506.98,M,0.0,M,,*65
$GPRMC,115408,A,3632.2321,N,07711.1480,W,098.0,219.0,140315,0,E*71
$GPGGA,115408,3632.2321,N,07711.1480,W,1,04,0.9,2510.028,M,0.0,M,,*53
$GPRMC,115415,A,3632.0815,N,07711.2948,W,111.0,218.0,140315,0,E*78
$GPGGA,115415,3632.0815,N,07711.2948,W,1,04,0.9,2514.6,M,0.0,M,,*53
$GPRMC,115417,A,3632.0377,N,07711.3385,W,099.0,218.0,140315,0,E*7E
$GPGGA,115417,3632.0377,N,07711.3385,W,1,04,0.9,2513.076,M,0.0,M,,*54
$GPRMC,115419,A,3631.9939,N,07711.3810,W,111.0,218.0,140315,0,E*7C
$GPGGA,115419,3631.9939,N,07711.3810,W,1,04,0.9,2511.552,M,0.0,M,,*56
$GPRMC,115420,A,3631.9720,N,07711.4029,W,100.0,218.0,140315,0,E*75
$GPGGA,115420,3631.9720,N,07711.4029,W,1,04,0.9,2510.028,M,0.0,M,,*56
$GPRMC,115421,A,3631.9501,N,07711.4248,W,111.0,218.0,140315,0,E*70
$GPGGA,115421,3631.9501,N,07711.4248,W,1,04,0.9,2510.028,M,0.0,M,,*53
$GPRMC,115422,A,3631.9283,N,07711.4454,W,100.0,218.0,140315,0,E*75
$GPGGA,115422,3631.9283,N,07711.4454,W,1,04,0.9,2508.504,M,0.0,M,,*54
$GPRMC,115436,A,3631.6193,N,07711.7364,W,100.0,217.0,140315,0,E*75
$GPGGA,115436,3631.6193,N,07711.7364,W,1,04,0.9,2511.552,M,0.0,M,,*50
$GPRMC,115437,A,3631.5961,N,07711.7570,W,100.0,215.0,140315,0,E*73
$GPGGA,115437,3631.5961,N,07711.7570,W,1,04,0.9,2511.552,M,0.0,M,,*54
$GPRMC,115439,A,3631.5510,N,07711.7982,W,111.0,215.0,140315,0,E*76
$GPGGA,115439,3631.5510,N,07711.7982,W,1,04,0.9,2511.552,M,0.0,M,,*51
$GPRMC,115440,A,3631.5278,N,07711.8188,W,100.0,215.0,140315,0,E*7C
$GPGGA,115440,3631.5278,N,07711.8188,W,1,04,0.9,2510.028,M,0.0,M,,*52
$GPRMC,115500,A,3631.0759,N,07712.2205,W,099.0,215.0,140315,0,E*74
$GPGGA,115500,3631.0759,N,07712.2205,W,1,04,0.9,2513.076,M,0.0,M,,*53
$GPRMC,115501,A,3631.0540,N,07712.2411,W,111.0,215.0,140315,0,E*7D
$GPGGA,115501,3631.0540,N,07712.2411,W,1,04,0.9,2513.076,M,0.0,M,,*5B
$GPRMC,115502,A,3631.0309,N,07712.2604,W,099.0,215.0,140315,0,E*72
$GPGGA,115502,3631.0309,N,07712.2604,W,1,04,0.9,2511.552,M,0.0,M,,*54
$GPRMC,115518,A,3630.6678,N,07712.5745,W,099.0,214.0,140315,0,E*7F
$GPGGA,115518,3630.6678,N,07712.5745,W,1,04,0.9,2513.076,M,0.0,M,,*59
$GPRMC,115519,A,3630.6447,N,07712.5938,W,099.0,212.0,140315,0,E*72
$GPGGA,115519,3630.6447,N,07712.5938,W,1,04,0.9,2513.076,M,0.0,M,,*52
$GPRMC,115528,A,3630.4348,N,07712.7638,W,099.0,212.0,140315,0,E*77
$GPGGA,115528,3630.4348,N,07712.7638,W,1,04,0.9,2513.076,M,0.0,M,,*57
$GPRMC,115529,A,3630.4116,N,07712.7818,W,111.0,212.0,140315,0,E*72
$GPGGA,115529,3630.4116,N,07712.7818,W,1,04,0.9,2513.076,M,0.0,M,,*53
$GPRMC,115530,A,3630.3884,N,07712.8011,W,100.0,212.0,140315,0,E*71
$GPGGA,115530,3630.3884,N,07712.8011,W,1,04,0.9,2511.552,M,0.0,M,,*51
$GPRMC,115532,A,3630.3408,N,07712.8397,W,111.0,212.0,140315,0,E*76
$GPGGA,115532,3630.3408,N,07712.8397,W,1,04,0.9,2511.552,M,0.0,M,,*56
$GPRMC,115534,A,3630.2945,N,07712.8784,W,101.0,212.0,140315,0,E*72
$GPGGA,115534,3630.2945,N,07712.8784,W,1,04,0.9,2508.504,M,0.0,M,,*58
$GPRMC,115535,A,3630.2700,N,07712.8976,W,111.0,212.0,140315,0,E*7E
$GPGGA,115535,3630.2700,N,07712.8976,W,1,04,0.9,2508.504,M,0.0,M,,*55
$GPRMC,115537,A,3630.2224,N,07712.9363,W,102.0,212.0,140315,0,E*72
$GPGGA,115537,3630.2224,N,07712.9363,W,1,04,0.9,2505.456,M,0.0,M,,*50
$GPRMC,115538,A,3630.1992,N,07712.9569,W,111.0,212.0,140315,0,E*76
$GPGGA,115538,3630.1992,N,07712.9569,W,1,04,0.9,2505.456,M,0.0,M,,*56
$GPRMC,115540,A,3630.1516,N,07712.9955,W,102.0,212.0,140315,0,E*78
$GPGGA,115540,3630.1516,N,07712.9955,W,1,04,0.9,2502.408,M,0.0,M,,*56
$GPRMC,115541,A,3630.1271,N,07713.0148,W,111.0,212.0,140315,0,E*71
$GPGGA,115541,3630.1271,N,07713.0148,W,1,04,0.9,2502.408,M,0.0,M,,*5D
$GPRMC,115542,A,3630.1039,N,07713.0341,W,102.0,212.0,140315,0,E*75
$GPGGA,115542,3630.1039,N,07713.0341,W,1,04,0.9,2500.884,M,0.0,M,,*51
$GPRMC,115555,A,3629.7936,N,07713.2813,W,101.0,212.0,140315,0,E*76
$GPGGA,115555,3629.7936,N,07713.2813,W,1,04,0.9,2500.884,M,0.0,M,,*51
$GPRMC,115556,A,3629.7692,N,07713.2993,W,111.0,212.0,140315,0,E*7C
$GPGGA,115556,3629.7692,N,07713.2993,W,1,04,0.9,2500.884,M,0.0,M,,*5A
$GPRMC,115557,A,3629.7447,N,07713.3187,W,102.0,212.0,140315,0,E*79
$GPGGA,115557,3629.7447,N,07713.3187,W,1,04,0.9,2499.36,M,0.0,M,,*6D
$GPRMC,115609,A,3629.4589,N,07713.5414,W,101.0,211.0,140315,0,E*78
$GPGGA,115609,3629.4589,N,07713.5414,W,1,04,0.9,2499.36,M,0.0,M,,*6C
$GPRMC,115610,A,3629.4344,N,07713.5594,W,111.0,211.0,140315,0,E*7F
$GPGGA,115610,3629.4344,N,07713.5594,W,1,04,0.9,2499.36,M,0.0,M,,*6A
$GPRMC,115611,A,3629.4113,N,07713.5787,W,101.0,211.0,140315,0,E*7F
$GPGGA,115611,3629.4113,N,07713.5787,W,1,04,0.9,2497.836,M,0.0,M,,*5D
$GPRMC,115614,A,3629.3392,N,07713.6341,W,111.0,211.0,140315,0,E*7A
$GPGGA,115614,3629.3392,N,07713.6341,W,1,04,0.9,2497.836,M,0.0,M,,*59
