$GPRMC,233046,A,3930.4071,N,08351.7397,W,000.0,000.0,030515,0,E*76
$GPGGA,233046,3930.4071,N,08351.7397,W,1,04,0.9,313.944,M,0.0,M,,*6B
$GPRMC,233105,A,3930.4071,N,08351.7397,W,000.0,000.0,030515,0,E*70
$GPGGA,233105,3930.4071,N,08351.7397,W,1,04,0.9,316.992,M,0.0,M,,*63
$GPRMC,233106,A,3930.4071,N,08351.7397,W,000.0,000.0,030515,0,E*73
$GPGGA,233106,3930.4071,N,08351.7397,W,1,04,0.9,316.992,M,0.0,M,,*60
$GPRMC,233125,A,3930.4073,N,08351.7397,W,000.0,000.0,030515,0,E*70
$GPGGA,233125,3930.4073,N,08351.7397,W,1,04,0.9,316.992,M,0.0,M,,*63
$GPRMC,233126,A,3930.4070,N,08351.7397,W,000.0,000.0,030515,0,E*70
$GPGGA,233126,3930.4070,N,08351.7397,W,1,04,0.9,316.992,M,0.0,M,,*63
$GPRMC,233145,A,3930.4078,N,08351.7399,W,000.0,000.0,030515,0,E*73
$GPGGA,233145,3930.4078,N,08351.7399,W,1,04,0.9,316.992,M,0.0,M,,*60
$GPRMC,233146,A,3930.4078,N,08351.7400,W,000.0,000.0,030515,0,E*77
$GPGGA,233146,3930.4078,N,08351.7400,W,1,04,0.9,316.992,M,0.0,M,,*64
$GPRMC,233206,A,3930.4078,N,08351.7390,W,000.0,000.0,030515,0,E*7E
$GPGGA,233206,3930.4078,N,08351.7390,W,1,04,0.9,315.7728,M,0.0,M,,*56
$GPRMC,233207,A,3930.4078,N,08351.7390,W,000.0,000.0,030515,0,E*7F
$GPGGA,233207,3930.4078,N,08351.7390,W,1,04,0.9,315.7728,M,0.0,M,,*57
$GPRMC,233226,A,3930.4077,N,08351.7389,W,000.0,000.0,030515,0,E*7B
$GPGGA,233226,3930.4077,N,08351.7389,W,1,04,0.9,315.7728,M,0.0,M,,*53
$GPRMC,233227,A,3930.4077,N,08351.7389,W,000.0,000.0,030515,0,E*7A
$GPGGA,233227,3930.4077,N,08351.7389,W,1,04,0.9,315.7728,M,0.0,M,,*52
$GPRMC,233247,A,3930.4086,N,08351.7397,W,000.0,000.0,030515,0,E*7D
$GPGGA,233247,3930.4086,N,08351.7397,W,1,04,0.9,315.7728,M,0.0,M,,*55
$GPRMC,233248,A,3930.4083,N,08351.7396,W,000.0,000.0,030515,0,E*76
$GPGGA,233248,3930.4083,N,08351.7396,W,1,04,0.9,315.7728,M,0.0,M,,*5E
$GPRMC,233307,A,3930.4048,N,08351.7394,W,000.0,000.0,030515,0,E*79
$GPGGA,233307,3930.4048,N,08351.7394,W,1,04,0.9,315.7728,M,0.0,M,,*51
$GPRMC,233308,A,3930.4047,N,08351.7394,W,000.0,000.0,030515,0,E*79
$GPGGA,233308,3930.4047,N,08351.7394,W,1,04,0.9,315.7728,M,0.0,M,,*51
$GPRMC,233328,A,3930.4064,N,08351.7389,W,000.0,000.0,030515,0,E*76
$GPGGA,233328,3930.4064,N,08351.7389,W,1,04,0.9,315.7728,M,0.0,M,,*5E
$GPRMC,233329,A,3930.4065,N,08351.7390,W,000.0,000.0,030515,0,E*7E
$GPGGA,233329,3930.4065,N,08351.7390,W,1,04,0.9,315.7728,M,0.0,M,,*56
$GPRMC,233348,A,3930.4084,N,08351.7402,W,000.0,000.0,030515,0,E*7A
$GPGGA,233348,3930.4084,N,08351.7402,W,1,04,0.9,314.8584,M,0.0,M,,*58
$GPRMC,233349,A,3930.4085,N,08351.7402,W,000.0,000.0,030515,0,E*7A
$GPGGA,233349,3930.4085,N,08351.7402,W,1,04,0.9,314.8584,M,0.0,M,,*58
$GPRMC,233408,A,3930.4062,N,08351.7404,W,000.0,000.0,030515,0,E*77
$GPGGA,233408,3930.4062,N,08351.7404,W,1,04,0.9,314.8584,M,0.0,M,,*55
$GPRMC,233409,A,3930.4060,N,08351.7404,W,000.0,000.0,030515,0,E*74
$GPGGA,233409,3930.4060,N,08351.7404,W,1,04,0.9,314.8584,M,0.0,M,,*56
$GPRMC,233429,A,3930.4052,N,08351.7397,W,000.0,000.0,030515,0,E*7A
$GPGGA,233429,3930.4052,N,08351.7397,W,1,04,0.9,314.8584,M,0.0,M,,*58
$GPRMC,233430,A,3930.4052,N,08351.7396,W,000.0,000.0,030515,0,E*73
$GPGGA,233430,3930.4052,N,08351.7396,W,1,04,0.9,314.8584,M,0.0,M,,*51
$GPRMC,233449,A,3930.4056,N,08351.7394,W,000.0,000.0,030515,0,E*7B
$GPGGA,233449,3930.4056,N,08351.7394,W,1,04,0.9,314.8584,M,0.0,M,,*59
$GPRMC,233450,A,3930.4057,N,08351.7393,W,000.0,000.0,030515,0,E*75
$GPGGA,233450,3930.4057,N,08351.7393,W,1,04,0.9,314.8584,M,0.0,M,,*57
$GPRMC,233509,A,3930.4073,N,08351.7394,W,000.0,000.0,030515,0,E*79
$GPGGA,233509,3930.4073,N,08351.7394,W,1,04,0.9,313.944,M,0.0,M,,*64
$GPRMC,233510,A,3930.4073,N,08351.7394,W,000.0,000.0,030515,0,E*71
$GPGGA,233510,3930.4073,N,08351.7394,W,1,04,0.9,313.944,M,0.0,M,,*6C
$GPRMC,233530,A,3930.4086,N,08351.7400,W,000.0,000.0,030515,0,E*73
$GPGGA,233530,3930.4086,N,08351.7400,W,1,04,0.9,313.944,M,0.0,M,,*6E
$GPRMC,233531,A,3930.4087,N,08351.7400,W,000.0,000.0,030515,0,E*73
$GPGGA,233531,3930.4087,N,08351.7400,W,1,04,0.9,313.944,M,0.0,M,,*6E
$GPRMC,233551,A,3930.4102,N,08351.7416,W,000.0,000.0,030515,0,E*7E
$GPGGA,233551,3930.4102,N,08351.7416,W,1,04,0.9,313.944,M,0.0,M,,*63
$GPRMC,233552,A,3930.4101,N,08351.7417,W,000.0,000.0,030515,0,E*7F
$GPGGA,233552,3930.4101,N,08351.7417,W,1,04,0.9,313.944,M,0.0,M,,*62
$GPRMC,233612,A,3930.4065,N,08351.7424,W,000.0,000.0,030515,0,E*7B
$GPGGA,233612,3930.4065,N,08351.7424,W,1,04,0.9,313.944,M,0.0,M,,*66
$GPRMC,233613,A,3930.4064,N,08351.7423,W,000.0,000.0,030515,0,E*7C
$GPGGA,233613,3930.4064,N,08351.7423,W,1,04,0.9,313.944,M,0.0,M,,*61
$GPRMC,233632,A,3930.4065,N,08351.7424,W,000.0,000.0,030515,0,E*79
$GPGGA,233632,3930.4065,N,08351.7424,W,1,04,0.9,312.7248,M,0.0,M,,*55
$GPRMC,233633,A,3930.4063,N,08351.7424,W,000.0,000.0,030515,0,E*7E
$GPGGA,233633,3930.4063,N,08351.7424,W,1,04,0.9,312.7248,M,0.0,M,,*52
$GPRMC,233653,A,3930.4047,N,08351.7419,W,000.0,000.0,030515,0,E*70
$GPGGA,233653,3930.4047,N,08351.7419,W,1,04,0.9,311.8104,M,0.0,M,,*5B
$GPRMC,233654,A,3930.4046,N,08351.7418,W,000.0,000.0,030515,0,E*77
$GPGGA,233654,3930.4046,N,08351.7418,W,1,04,0.9,311.8104,M,0.0,M,,*5C
$GPRMC,233713,A,3930.4052,N,08351.7405,W,000.0,000.0,030515,0,E*7C
$GPGGA,233713,3930.4052,N,08351.7405,W,1,04,0.9,311.8104,M,0.0,M,,*57
$GPRMC,233714,A,3930.4052,N,08351.7405,W,000.0,000.0,030515,0,E*7B
$GPGGA,233714,3930.4052,N,08351.7405,W,1,04,0.9,311.8104,M,0.0,M,,*50
$GPRMC,233733,A,3930.4039,N,08351.7390,W,000.0,000.0,030515,0,E*78
$GPGGA,233733,3930.4039,N,08351.7390,W,1,04,0.9,310.896,M,0.0,M,,*68
$GPRMC,233734,A,3930.4040,N,08351.7388,W,000.0,000.0,030515,0,E*78
$GPGGA,233734,3930.4040,N,08351.7388,W,1,04,0.9,310.896,M,0.0,M,,*68
$GPRMC,233754,A,3930.4060,N,08351.7378,W,000.0,000.0,030515,0,E*73
$GPGGA,233754,3930.4060,N,08351.7378,W,1,04,0.9,310.896,M,0.0,M,,*63
$GPRMC,233755,A,3930.4060,N,08351.7378,W,000.0,000.0,030515,0,E*72
$GPGGA,233755,3930.4060,N,08351.7378,W,1,04,0.9,310.896,M,0.0,M,,*62
$GPRMC,233815,A,3930.4070,N,08351.7370,W,000.0,000.0,030515,0,E*70
$GPGGA,233815,3930.4070,N,08351.7370,W,1,04,0.9,309.9816,M,0.0,M,,*59
$GPRMC,233816,A,3930.4071,N,08351.7369,W,000.0,000.0,030515,0,E*7A
$GPGGA,233816,3930.4071,N,08351.7369,W,1,04,0.9,309.9816,M,0.0,M,,*53
$GPRMC,233836,A,3930.4078,N,08351.7365,W,000.0,000.0,030515,0,E*7D
$GPGGA,233836,3930.4078,N,08351.7365,W,1,04,0.9,309.9816,M,0.0,M,,*54
$GPRMC,233837,A,3930.4077,N,08351.7365,W,000.0,000.0,030515,0,E*73
$GPGGA,233837,3930.4077,N,08351.7365,W,1,04,0.9,309.9816,M,0.0,M,,*5A
$GPRMC,233857,A,3930.4051,N,08351.7372,W,000.0,000.0,030515,0,E*77
$GPGGA,233857,3930.4051,N,08351.7372,W,1,04,0.9,310.896,M,0.0,M,,*67
$GPRMC,233858,A,3930.4050,N,08351.7373,W,000.0,000.0,030515,0,E*78
$GPGGA,233858,3930.4050,N,08351.7373,W,1,04,0.9,310.896,M,0.0,M,,*68
$GPRMC,233917,A,3930.4055,N,08351.7391,W,000.0,000.0,030515,0,E*7B
$GPGGA,233917,3930.4055,N,08351.7391,W,1,04,0.9,310.896,M,0.0,M,,*6B
$GPRMC,233918,A,3930.4053,N,08351.7392,W,000.0,000.0,030515,0,E*71
$GPGGA,233918,3930.4053,N,08351.7392,W,1,04,0.9,310.896,M,0.0,M,,*61
$GPRMC,233938,A,3930.4043,N,08351.7400,W,000.0,000.0,030515,0,E*7E
$GPGGA,233938,3930.4043,N,08351.7400,W,1,04,0.9,311.8104,M,0.0,M,,*55
$GPRMC,233939,A,3930.4043,N,08351.7401,W,000.0,000.0,030515,0,E*7E
$GPGGA,233939,3930.4043,N,08351.7401,W,1,04,0.9,311.8104,M,0.0,M,,*55
$GPRMC,233958,A,3930.4076,N,08351.7413,W,000.0,000.0,030515,0,E*7C
$GPGGA,233958,3930.4076,N,08351.7413,W,1,04,0.9,311.8104,M,0.0,M,,*57
$GPRMC,233959,A,3930.4078,N,08351.7413,W,000.0,000.0,030515,0,E*73
$GPGGA,233959,3930.4078,N,08351.7413,W,1,04,0.9,311.8104,M,0.0,M,,*58
$GPRMC,234018,A,3930.4086,N,08351.7406,W,000.0,000.0,030515,0,E*7D
$GPGGA,234018,3930.4086,N,08351.7406,W,1,04,0.9,311.8104,M,0.0,M,,*56
$GPRMC,234019,A,3930.4087,N,08351.7406,W,000.0,000.0,030515,0,E*7D
$GPGGA,234019,3930.4087,N,08351.7406,W,1,04,0.9,311.8104,M,0.0,M,,*56
$GPRMC,234038,A,3930.4090,N,08351.7403,W,000.0,000.0,030515,0,E*7D
$GPGGA,234038,3930.4090,N,08351.7403,W,1,04,0.9,311.8104,M,0.0,M,,*56
$GPRMC,234039,A,3930.4087,N,08351.7401,W,000.0,000.0,030515,0,E*78
$GPGGA,234039,3930.4087,N,08351.7401,W,1,04,0.9,312.7248,M,0.0,M,,*54
$GPRMC,234059,A,3930.4064,N,08351.7378,W,000.0,000.0,030515,0,E*7A
$GPGGA,234059,3930.4064,N,08351.7378,W,1,04,0.9,312.7248,M,0.0,M,,*56
$GPRMC,234100,A,3930.4065,N,08351.7377,W,000.0,000.0,030515,0,E*79
$GPGGA,234100,3930.4065,N,08351.7377,W,1,04,0.9,312.7248,M,0.0,M,,*55
$GPRMC,234120,A,3930.4048,N,08351.7401,W,000.0,000.0,030515,0,E*72
$GPGGA,234120,3930.4048,N,08351.7401,W,1,04,0.9,312.7248,M,0.0,M,,*5E
$GPRMC,234121,A,3930.4048,N,08351.7402,W,000.0,000.0,030515,0,E*70
$GPGGA,234121,3930.4048,N,08351.7402,W,1,04,0.9,312.7248,M,0.0,M,,*5C
$GPRMC,234140,A,3930.4047,N,08351.7420,W,000.0,000.0,030515,0,E*78
$GPGGA,234140,3930.4047,N,08351.7420,W,1,04,0.9,312.7248,M,0.0,M,,*54
$GPRMC,234141,A,3930.4047,N,08351.7420,W,000.0,000.0,030515,0,E*79
$GPGGA,234141,3930.4047,N,08351.7420,W,1,04,0.9,312.7248,M,0.0,M,,*55
$GPRMC,234200,A,3930.4051,N,08351.7415,W,000.0,000.0,030515,0,E*7E
$GPGGA,234200,3930.4051,N,08351.7415,W,1,04,0.9,311.8104,M,0.0,M,,*55
$GPRMC,234201,A,3930.4052,N,08351.7415,W,000.0,000.0,030515,0,E*7C
$GPGGA,234201,3930.4052,N,08351.7415,W,1,04,0.9,311.8104,M,0.0,M,,*57
$GPRMC,234221,A,3930.4062,N,08351.7413,W,000.0,000.0,030515,0,E*7B
$GPGGA,234221,3930.4062,N,08351.7413,W,1,04,0.9,311.8104,M,0.0,M,,*50
$GPRMC,234222,A,3930.4062,N,08351.7414,W,000.0,000.0,030515,0,E*7F
$GPGGA,234222,3930.4062,N,08351.7414,W,1,04,0.9,311.8104,M,0.0,M,,*54
$GPRMC,234242,A,3930.4066,N,08351.7408,W,000.0,000.0,030515,0,E*70
$GPGGA,234242,3930.4066,N,08351.7408,W,1,04,0.9,311.8104,M,0.0,M,,*5B
$GPRMC,234243,A,3930.4065,N,08351.7408,W,000.0,000.0,030515,0,E*72
$GPGGA,234243,3930.4065,N,08351.7408,W,1,04,0.9,311.8104,M,0.0,M,,*59
$GPRMC,234303,A,3930.4048,N,08351.7403,W,000.0,000.0,030515,0,E*73
$GPGGA,234303,3930.4048,N,08351.7403,W,1,04,0.9,310.896,M,0.0,M,,*63
$GPRMC,234304,A,3930.4050,N,08351.7403,W,000.0,000.0,030515,0,E*7D
$GPGGA,234304,3930.4050,N,08351.7403,W,1,04,0.9,310.896,M,0.0,M,,*6D
$GPRMC,234323,A,3930.4067,N,08351.7398,W,000.0,000.0,030515,0,E*79
$GPGGA,234323,3930.4067,N,08351.7398,W,1,04,0.9,310.896,M,0.0,M,,*69
$GPRMC,234324,A,3930.4067,N,08351.7398,W,000.0,000.0,030515,0,E*7E
$GPGGA,234324,3930.4067,N,08351.7398,W,1,04,0.9,310.896,M,0.0,M,,*6E
$GPRMC,234344,A,3930.4085,N,08351.7395,W,000.0,000.0,030515,0,E*79
$GPGGA,234344,3930.4085,N,08351.7395,W,1,04,0.9,310.896,M,0.0,M,,*69
$GPRMC,234345,A,3930.4086,N,08351.7394,W,000.0,000.0,030515,0,E*7A
$GPGGA,234345,3930.4086,N,08351.7394,W,1,04,0.9,310.896,M,0.0,M,,*6A
$GPRMC,234404,A,3930.4097,N,08351.7398,W,000.0,000.0,030515,0,E*74
$GPGGA,234404,3930.4097,N,08351.7398,W,1,04,0.9,309.9816,M,0.0,M,,*5D
$GPRMC,234405,A,3930.4097,N,08351.7399,W,000.0,000.0,030515,0,E*74
$GPGGA,234405,3930.4097,N,08351.7399,W,1,04,0.9,309.9816,M,0.0,M,,*5D
$GPRMC,234424,A,3930.4094,N,08351.7401,W,000.0,000.0,030515,0,E*72
$GPGGA,234424,3930.4094,N,08351.7401,W,1,04,0.9,309.9816,M,0.0,M,,*5B
$GPRMC,234425,A,3930.4091,N,08351.7401,W,000.0,000.0,030515,0,E*76
$GPGGA,234425,3930.4091,N,08351.7401,W,1,04,0.9,309.9816,M,0.0,M,,*5F
$GPRMC,234445,A,3930.4045,N,08351.7403,W,000.0,000.0,030515,0,E*7B
$GPGGA,234445,3930.4045,N,08351.7403,W,1,04,0.9,309.9816,M,0.0,M,,*52
$GPRMC,234446,A,3930.4043,N,08351.7403,W,000.0,000.0,030515,0,E*7E
$GPGGA,234446,3930.4043,N,08351.7403,W,1,04,0.9,309.9816,M,0.0,M,,*57
$GPRMC,234506,A,3930.4066,N,08351.7396,W,000.0,000.0,030515,0,E*77
$GPGGA,234506,3930.4066,N,08351.7396,W,1,04,0.9,309.9816,M,0.0,M,,*5E
$GPRMC,234507,A,3930.4067,N,08351.7396,W,000.0,000.0,030515,0,E*77
$GPGGA,234507,3930.4067,N,08351.7396,W,1,04,0.9,309.9816,M,0.0,M,,*5E
$GPRMC,234527,A,3930.4082,N,08351.7395,W,000.0,000.0,030515,0,E*7D
$GPGGA,234527,3930.4082,N,08351.7395,W,1,04,0.9,309.9816,M,0.0,M,,*54
$GPRMC,234528,A,3930.4084,N,08351.7395,W,000.0,000.0,030515,0,E*74
$GPGGA,234528,3930.4084,N,08351.7395,W,1,04,0.9,309.9816,M,0.0,M,,*5D
$GPRMC,234548,A,3930.4073,N,08351.7395,W,000.0,000.0,030515,0,E*7A
$GPGGA,234548,3930.4073,N,08351.7395,W,1,04,0.9,309.9816,M,0.0,M,,*53
$GPRMC,234549,A,3930.4075,N,08351.7395,W,000.0,000.0,030515,0,E*7D
$GPGGA,234549,3930.4075,N,08351.7395,W,1,04,0.9,309.9816,M,0.0,M,,*54
$GPRMC,234609,A,3930.4097,N,08351.7398,W,000.0,000.0,030515,0,E*7B
$GPGGA,234609,3930.4097,N,08351.7398,W,1,04,0.9,309.9816,M,0.0,M,,*52
$GPRMC,234610,A,3930.4098,N,08351.7397,W,000.0,000.0,030515,0,E*73
$GPGGA,234610,3930.4098,N,08351.7397,W,1,04,0.9,309.9816,M,0.0,M,,*5A
$GPRMC,234630,A,3930.4097,N,08351.7402,W,000.0,000.0,030515,0,E*75
$GPGGA,234630,3930.4097,N,08351.7402,W,1,04,0.9,309.9816,M,0.0,M,,*5C
$GPRMC,234631,A,3930.4098,N,08351.7403,W,000.0,000.0,030515,0,E*7A
$GPGGA,234631,3930.4098,N,08351.7403,W,1,04,0.9,309.9816,M,0.0,M,,*53
$GPRMC,234650,A,3930.4073,N,08351.7404,W,000.0,000.0,030515,0,E*7F
$GPGGA,234650,3930.4073,N,08351.7404,W,1,04,0.9,309.9816,M,0.0,M,,*56
$GPRMC,234651,A,3930.4071,N,08351.7404,W,000.0,000.0,030515,0,E*7C
$GPGGA,234651,3930.4071,N,08351.7404,W,1,04,0.9,309.9816,M,0.0,M,,*55
$GPRMC,234711,A,3930.4066,N,08351.7400,W,000.0,000.0,030515,0,E*7B
$GPGGA,234711,3930.4066,N,08351.7400,W,1,04,0.9,309.9816,M,0.0,M,,*52
$GPRMC,234712,A,3930.4065,N,08351.7400,W,000.0,000.0,030515,0,E*7B
$GPGGA,234712,3930.4065,N,08351.7400,W,1,04,0.9,309.9816,M,0.0,M,,*52
$GPRMC,234732,A,3930.4077,N,08351.7409,W,000.0,000.0,030515,0,E*73
$GPGGA,234732,3930.4077,N,08351.7409,W,1,04,0.9,309.9816,M,0.0,M,,*5A
$GPRMC,234733,A,3930.4080,N,08351.7409,W,000.0,000.0,030515,0,E*7A
$GPGGA,234733,3930.4080,N,08351.7409,W,1,04,0.9,309.9816,M,0.0,M,,*53
$GPRMC,234753,A,3930.4084,N,08351.7409,W,000.0,000.0,030515,0,E*78
$GPGGA,234753,3930.4084,N,08351.7409,W,1,04,0.9,308.7624,M,0.0,M,,*51
$GPRMC,234754,A,3930.4084,N,08351.7408,W,000.0,000.0,030515,0,E*7E
$GPGGA,234754,3930.4084,N,08351.7408,W,1,04,0.9,308.7624,M,0.0,M,,*57
$GPRMC,234813,A,3930.4096,N,08351.7413,W,000.0,000.0,030515,0,E*7B
$GPGGA,234813,3930.4096,N,08351.7413,W,1,04,0.9,308.7624,M,0.0,M,,*52
$GPRMC,234814,A,3930.4096,N,08351.7415,W,000.0,000.0,030515,0,E*7A
$GPGGA,234814,3930.4096,N,08351.7415,W,1,04,0.9,308.7624,M,0.0,M,,*53
$GPRMC,234833,A,3930.4082,N,08351.7415,W,000.0,000.0,030515,0,E*7A
$GPGGA,234833,3930.4082,N,08351.7415,W,1,04,0.9,307.848,M,0.0,M,,*6F
$GPRMC,234834,A,3930.4083,N,08351.7414,W,000.0,000.0,030515,0,E*7D
$GPGGA,234834,3930.4083,N,08351.7414,W,1,04,0.9,307.848,M,0.0,M,,*68
$GPRMC,234854,A,3930.4085,N,08351.7398,W,000.0,000.0,030515,0,E*7E
$GPGGA,234854,3930.4085,N,08351.7398,W,1,04,0.9,307.848,M,0.0,M,,*6B
$GPRMC,234855,A,3930.4087,N,08351.7397,W,000.0,000.0,030515,0,E*72
$GPGGA,234855,3930.4087,N,08351.7397,W,1,04,0.9,307.848,M,0.0,M,,*67
$GPRMC,234914,A,3930.4091,N,08351.7389,W,000.0,000.0,030515,0,E*7E
$GPGGA,234914,3930.4091,N,08351.7389,W,1,04,0.9,307.848,M,0.0,M,,*6B
$GPRMC,234915,A,3930.4092,N,08351.7389,W,000.0,000.0,030515,0,E*7C
$GPGGA,234915,3930.4092,N,08351.7389,W,1,04,0.9,307.848,M,0.0,M,,*69
$GPRMC,234934,A,3930.4089,N,08351.7382,W,000.0,000.0,030515,0,E*7E
$GPGGA,234934,3930.4089,N,08351.7382,W,1,04,0.9,308.7624,M,0.0,M,,*57
$GPRMC,234935,A,3930.4088,N,08351.7382,W,000.0,000.0,030515,0,E*7E
$GPGGA,234935,3930.4088,N,08351.7382,W,1,04,0.9,308.7624,M,0.0,M,,*57
$GPRMC,234954,A,3930.4095,N,08351.7392,W,000.0,000.0,030515,0,E*74
$GPGGA,234954,3930.4095,N,08351.7392,W,1,04,0.9,308.7624,M,0.0,M,,*5D
$GPRMC,234955,A,3930.4096,N,08351.7393,W,000.0,000.0,030515,0,E*77
$GPGGA,234955,3930.4096,N,08351.7393,W,1,04,0.9,308.7624,M,0.0,M,,*5E
$GPRMC,235014,A,3930.4076,N,08351.7406,W,000.0,000.0,030515,0,E*7F
$GPGGA,235014,3930.4076,N,08351.7406,W,1,04,0.9,308.7624,M,0.0,M,,*56
$GPRMC,235015,A,3930.4074,N,08351.7407,W,000.0,000.0,030515,0,E*7D
$GPGGA,235015,3930.4074,N,08351.7407,W,1,04,0.9,308.7624,M,0.0,M,,*54
$GPRMC,235034,A,3930.4070,N,08351.7413,W,000.0,000.0,030515,0,E*7F
$GPGGA,235034,3930.4070,N,08351.7413,W,1,04,0.9,308.7624,M,0.0,M,,*56
$GPRMC,235035,A,3930.4072,N,08351.7412,W,000.0,000.0,030515,0,E*7D
$GPGGA,235035,3930.4072,N,08351.7412,W,1,04,0.9,308.7624,M,0.0,M,,*54
$GPRMC,235054,A,3930.4069,N,08351.7403,W,000.0,000.0,030515,0,E*70
$GPGGA,235054,3930.4069,N,08351.7403,W,1,04,0.9,308.7624,M,0.0,M,,*59
$GPRMC,235056,A,3930.4067,N,08351.7403,W,000.0,000.0,030515,0,E*7C
$GPGGA,235056,3930.4067,N,08351.7403,W,1,04,0.9,308.7624,M,0.0,M,,*55
$GPRMC,235114,A,3930.4074,N,08351.7385,W,000.0,000.0,030515,0,E*70
$GPGGA,235114,3930.4074,N,08351.7385,W,1,04,0.9,309.9816,M,0.0,M,,*59
$GPRMC,235116,A,3930.4075,N,08351.7383,W,000.0,000.0,030515,0,E*75
$GPGGA,235116,3930.4075,N,08351.7383,W,1,04,0.9,309.9816,M,0.0,M,,*5C
$GPRMC,235135,A,3930.4071,N,08351.7387,W,000.0,000.0,030515,0,E*74
$GPGGA,235135,3930.4071,N,08351.7387,W,1,04,0.9,309.9816,M,0.0,M,,*5D
$GPRMC,235136,A,3930.4071,N,08351.7389,W,000.0,000.0,030515,0,E*79
$GPGGA,235136,3930.4071,N,08351.7389,W,1,04,0.9,309.9816,M,0.0,M,,*50
$GPRMC,235155,A,3930.4081,N,08351.7395,W,000.0,000.0,030515,0,E*7E
$GPGGA,235155,3930.4081,N,08351.7395,W,1,04,0.9,309.9816,M,0.0,M,,*57
$GPRMC,235156,A,3930.4080,N,08351.7396,W,000.0,000.0,030515,0,E*7F
$GPGGA,235156,3930.4080,N,08351.7396,W,1,04,0.9,309.9816,M,0.0,M,,*56
$GPRMC,235215,A,3930.4063,N,08351.7400,W,000.0,000.0,030515,0,E*7E
$GPGGA,235215,3930.4063,N,08351.7400,W,1,04,0.9,310.896,M,0.0,M,,*6E
$GPRMC,235216,A,3930.4064,N,08351.7401,W,000.0,000.0,030515,0,E*7B
$GPGGA,235216,3930.4064,N,08351.7401,W,1,04,0.9,310.896,M,0.0,M,,*6B
$GPRMC,235236,A,3930.4062,N,08351.7409,W,000.0,000.0,030515,0,E*77
$GPGGA,235236,3930.4062,N,08351.7409,W,1,04,0.9,310.896,M,0.0,M,,*67
$GPRMC,235237,A,3930.4063,N,08351.7408,W,000.0,000.0,030515,0,E*76
$GPGGA,235237,3930.4063,N,08351.7408,W,1,04,0.9,310.896,M,0.0,M,,*66
$GPRMC,235256,A,3930.4056,N,08351.7407,W,000.0,000.0,030515,0,E*78
$GPGGA,235256,3930.4056,N,08351.7407,W,1,04,0.9,310.896,M,0.0,M,,*68
$GPRMC,235257,A,3930.4056,N,08351.7407,W,000.0,000.0,030515,0,E*79
$GPGGA,235257,3930.4056,N,08351.7407,W,1,04,0.9,311.8104,M,0.0,M,,*52
$GPRMC,235317,A,3930.4063,N,08351.7398,W,000.0,000.0,030515,0,E*7B
$GPGGA,235317,3930.4063,N,08351.7398,W,1,04,0.9,311.8104,M,0.0,M,,*50
$GPRMC,235318,A,3930.4064,N,08351.7398,W,000.0,000.0,030515,0,E*73
$GPGGA,235318,3930.4064,N,08351.7398,W,1,04,0.9,311.8104,M,0.0,M,,*58
$GPRMC,235338,A,3930.4082,N,08351.7391,W,000.0,000.0,030515,0,E*70
$GPGGA,235338,3930.4082,N,08351.7391,W,1,04,0.9,310.896,M,0.0,M,,*60
$GPRMC,235339,A,3930.4083,N,08351.7391,W,000.0,000.0,030515,0,E*70
$GPGGA,235339,3930.4083,N,08351.7391,W,1,04,0.9,310.896,M,0.0,M,,*60
$GPRMC,235358,A,3930.4081,N,08351.7398,W,000.0,000.0,030515,0,E*7C
$GPGGA,235358,3930.4081,N,08351.7398,W,1,04,0.9,310.896,M,0.0,M,,*6C
$GPRMC,235359,A,3930.4081,N,08351.7399,W,000.0,000.0,030515,0,E*7C
$GPGGA,235359,3930.4081,N,08351.7399,W,1,04,0.9,310.896,M,0.0,M,,*6C
$GPRMC,235419,A,3930.4089,N,08351.7399,W,000.0,000.0,030515,0,E*77
$GPGGA,235419,3930.4089,N,08351.7399,W,1,04,0.9,309.9816,M,0.0,M,,*5E
$GPRMC,235420,A,3930.4088,N,08351.7399,W,000.0,000.0,030515,0,E*7C
$GPGGA,235420,3930.4088,N,08351.7399,W,1,04,0.9,309.9816,M,0.0,M,,*55
$GPRMC,235439,A,3930.4094,N,08351.7393,W,000.0,000.0,030515,0,E*73
$GPGGA,235439,3930.4094,N,08351.7393,W,1,04,0.9,308.7624,M,0.0,M,,*5A
$GPRMC,235440,A,3930.4093,N,08351.7394,W,000.0,000.0,030515,0,E*7D
$GPGGA,235440,3930.4093,N,08351.7394,W,1,04,0.9,308.7624,M,0.0,M,,*54
$GPRMC,235500,A,3930.4086,N,08351.7389,W,000.0,000.0,030515,0,E*70
$GPGGA,235500,3930.4086,N,08351.7389,W,1,04,0.9,308.7624,M,0.0,M,,*59
$GPRMC,235501,A,3930.4086,N,08351.7389,W,000.0,000.0,030515,0,E*71
$GPGGA,235501,3930.4086,N,08351.7389,W,1,04,0.9,308.7624,M,0.0,M,,*58
$GPRMC,235521,A,3930.4087,N,08351.7385,W,000.0,000.0,030515,0,E*7E
$GPGGA,235521,3930.4087,N,08351.7385,W,1,04,0.9,307.848,M,0.0,M,,*6B
$GPRMC,235522,A,3930.4086,N,08351.7385,W,000.0,000.0,030515,0,E*7C
$GPGGA,235522,3930.4086,N,08351.7385,W,1,04,0.9,307.848,M,0.0,M,,*69
$GPRMC,235542,A,3930.4073,N,08351.7388,W,000.0,000.0,030515,0,E*7D
$GPGGA,235542,3930.4073,N,08351.7388,W,1,04,0.9,307.848,M,0.0,M,,*68
$GPRMC,235543,A,3930.4074,N,08351.7388,W,000.0,000.0,030515,0,E*7B
$GPGGA,235543,3930.4074,N,08351.7388,W,1,04,0.9,307.848,M,0.0,M,,*6E
$GPRMC,235603,A,3930.4064,N,08351.7380,W,000.0,000.0,030515,0,E*75
$GPGGA,235603,3930.4064,N,08351.7380,W,1,04,0.9,308.7624,M,0.0,M,,*5C
$GPRMC,235604,A,3930.4063,N,08351.7380,W,000.0,000.0,030515,0,E*75
$GPGGA,235604,3930.4063,N,08351.7380,W,1,04,0.9,308.7624,M,0.0,M,,*5C
$GPRMC,235624,A,3930.4073,N,08351.7371,W,000.0,000.0,030515,0,E*78
$GPGGA,235624,3930.4073,N,08351.7371,W,1,04,0.9,308.7624,M,0.0,M,,*51
$GPRMC,235625,A,3930.4075,N,08351.7371,W,000.0,000.0,030515,0,E*7F
$GPGGA,235625,3930.4075,N,08351.7371,W,1,04,0.9,308.7624,M,0.0,M,,*56
$GPRMC,235644,A,3930.4084,N,08351.7371,W,000.0,000.0,030515,0,E*76
$GPGGA,235644,3930.4084,N,08351.7371,W,1,04,0.9,308.7624,M,0.0,M,,*5F
$GPRMC,235645,A,3930.4083,N,08351.7372,W,000.0,000.0,030515,0,E*73
$GPGGA,235645,3930.4083,N,08351.7372,W,1,04,0.9,308.7624,M,0.0,M,,*5A
$GPRMC,235705,A,3930.4069,N,08351.7376,W,000.0,000.0,030515,0,E*76
$GPGGA,235705,3930.4069,N,08351.7376,W,1,04,0.9,308.7624,M,0.0,M,,*5F
$GPRMC,235706,A,3930.4068,N,08351.7377,W,000.0,000.0,030515,0,E*75
$GPGGA,235706,3930.4068,N,08351.7377,W,1,04,0.9,308.7624,M,0.0,M,,*5C
$GPRMC,235726,A,3930.4082,N,08351.7390,W,000.0,000.0,030515,0,E*7A
$GPGGA,235726,3930.4082,N,08351.7390,W,1,04,0.9,308.7624,M,0.0,M,,*53
$GPRMC,235727,A,3930.4083,N,08351.7390,W,000.0,000.0,030515,0,E*7A
$GPGGA,235727,3930.4083,N,08351.7390,W,1,04,0.9,308.7624,M,0.0,M,,*53
$GPRMC,235746,A,3930.4074,N,08351.7394,W,000.0,000.0,030515,0,E*71
$GPGGA,235746,3930.4074,N,08351.7394,W,1,04,0.9,309.9816,M,0.0,M,,*58
$GPRMC,235747,A,3930.4079,N,08351.7392,W,000.0,000.0,030515,0,E*7B
$GPGGA,235747,3930.4079,N,08351.7392,W,1,04,0.9,309.9816,M,0.0,M,,*52
$GPRMC,235807,A,3930.4087,N,08351.7382,W,000.0,000.0,030515,0,E*70
$GPGGA,235807,3930.4087,N,08351.7382,W,1,04,0.9,310.896,M,0.0,M,,*60
$GPRMC,235808,A,3930.4087,N,08351.7382,W,000.0,000.0,030515,0,E*7F
$GPGGA,235808,3930.4087,N,08351.7382,W,1,04,0.9,310.896,M,0.0,M,,*6F
$GPRMC,235827,A,3930.4072,N,08351.7390,W,000.0,000.0,030515,0,E*7B
$GPGGA,235827,3930.4072,N,08351.7390,W,1,04,0.9,311.8104,M,0.0,M,,*50
$GPRMC,235828,A,3930.4072,N,08351.7390,W,000.0,000.0,030515,0,E*74
$GPGGA,235828,3930.4072,N,08351.7390,W,1,04,0.9,311.8104,M,0.0,M,,*5F
$GPRMC,235847,A,3930.4091,N,08351.7389,W,000.0,000.0,030515,0,E*78
$GPGGA,235847,3930.4091,N,08351.7389,W,1,04,0.9,311.8104,M,0.0,M,,*53
$GPRMC,235848,A,3930.4089,N,08351.7389,W,000.0,000.0,030515,0,E*7E
$GPGGA,235848,3930.4089,N,08351.7389,W,1,04,0.9,311.8104,M,0.0,M,,*55
$GPRMC,235907,A,3930.4082,N,08351.7393,W,000.0,000.0,030515,0,E*74
$GPGGA,235907,3930.4082,N,08351.7393,W,1,04,0.9,311.8104,M,0.0,M,,*5F
$GPRMC,235908,A,3930.4081,N,08351.7394,W,000.0,000.0,030515,0,E*7F
$GPGGA,235908,3930.4081,N,08351.7394,W,1,04,0.9,311.8104,M,0.0,M,,*54
$GPRMC,235928,A,3930.4085,N,08351.7402,W,000.0,000.0,030515,0,E*71
$GPGGA,235928,3930.4085,N,08351.7402,W,1,04,0.9,311.8104,M,0.0,M,,*5A
$GPRMC,235929,A,3930.4086,N,08351.7402,W,000.0,000.0,030515,0,E*73
$GPGGA,235929,3930.4086,N,08351.7402,W,1,04,0.9,311.8104,M,0.0,M,,*58
$GPRMC,235949,A,3930.4071,N,08351.7399,W,000.0,000.0,030515,0,E*78
$GPGGA,235949,3930.4071,N,08351.7399,W,1,04,0.9,312.7248,M,0.0,M,,*54
$GPRMC,235950,A,3930.4070,N,08351.7399,W,000.0,000.0,030515,0,E*71
$GPGGA,235950,3930.4070,N,08351.7399,W,1,04,0.9,312.7248,M,0.0,M,,*5D
$GPRMC,000010,A,3930.4047,N,08351.7405,W,000.0,000.0,040515,0,E*79
$GPGGA,000010,3930.4047,N,08351.7405,W,1,04,0.9,312.7248,M,0.0,M,,*52
$GPRMC,000011,A,3930.4049,N,08351.7405,W,000.0,000.0,040515,0,E*76
$GPGGA,000011,3930.4049,N,08351.7405,W,1,04,0.9,312.7248,M,0.0,M,,*5D
$GPRMC,000030,A,3930.4059,N,08351.7404,W,000.0,000.0,040515,0,E*75
$GPGGA,000030,3930.4059,N,08351.7404,W,1,04,0.9,313.944,M,0.0,M,,*6F
$GPRMC,000031,A,3930.4059,N,08351.7404,W,000.0,000.0,040515,0,E*74
$GPGGA,000031,3930.4059,N,08351.7404,W,1,04,0.9,313.944,M,0.0,M,,*6E
$GPRMC,000051,A,3930.4051,N,08351.7410,W,000.0,000.0,040515,0,E*7F
$GPGGA,000051,3930.4051,N,08351.7410,W,1,04,0.9,313.944,M,0.0,M,,*65
$GPRMC,000052,A,3930.4050,N,08351.7411,W,000.0,000.0,040515,0,E*7C
$GPGGA,000052,3930.4050,N,08351.7411,W,1,04,0.9,313.944,M,0.0,M,,*66
$GPRMC,000111,A,3930.4063,N,08351.7405,W,000.0,000.0,040515,0,E*7F
$GPGGA,000111,3930.4063,N,08351.7405,W,1,04,0.9,313.944,M,0.0,M,,*65
$GPRMC,000113,A,3930.4063,N,08351.7405,W,000.0,000.0,040515,0,E*7D
$GPGGA,000113,3930.4063,N,08351.7405,W,1,04,0.9,313.944,M,0.0,M,,*67
$GPRMC,000132,A,3930.4094,N,08351.7396,W,000.0,000.0,040515,0,E*7B
$GPGGA,000132,3930.4094,N,08351.7396,W,1,04,0.9,312.7248,M,0.0,M,,*50
$GPRMC,000133,A,3930.4094,N,08351.7395,W,000.0,000.0,040515,0,E*79
$GPGGA,000133,3930.4094,N,08351.7395,W,1,04,0.9,312.7248,M,0.0,M,,*52
$GPRMC,000152,A,3930.4084,N,08351.7400,W,000.0,000.0,040515,0,E*74
$GPGGA,000152,3930.4084,N,08351.7400,W,1,04,0.9,311.8104,M,0.0,M,,*58
$GPRMC,000153,A,3930.4082,N,08351.7401,W,000.0,000.0,040515,0,E*72
$GPGGA,000153,3930.4082,N,08351.7401,W,1,04,0.9,311.8104,M,0.0,M,,*5E
$GPRMC,000213,A,3930.4080,N,08351.7411,W,000.0,000.0,040515,0,E*76
$GPGGA,000213,3930.4080,N,08351.7411,W,1,04,0.9,311.8104,M,0.0,M,,*5A
$GPRMC,000214,A,3930.4079,N,08351.7411,W,000.0,000.0,040515,0,E*77
$GPGGA,000214,3930.4079,N,08351.7411,W,1,04,0.9,311.8104,M,0.0,M,,*5B
$GPRMC,000234,A,3930.4082,N,08351.7408,W,000.0,000.0,040515,0,E*79
$GPGGA,000234,3930.4082,N,08351.7408,W,1,04,0.9,311.8104,M,0.0,M,,*55
$GPRMC,000235,A,3930.4081,N,08351.7408,W,000.0,000.0,040515,0,E*7B
$GPGGA,000235,3930.4081,N,08351.7408,W,1,04,0.9,311.8104,M,0.0,M,,*57
$GPRMC,000254,A,3930.4067,N,08351.7406,W,000.0,000.0,040515,0,E*7A
$GPGGA,000254,3930.4067,N,08351.7406,W,1,04,0.9,311.8104,M,0.0,M,,*56
$GPRMC,000255,A,3930.4067,N,08351.7406,W,000.0,000.0,040515,0,E*7B
$GPGGA,000255,3930.4067,N,08351.7406,W,1,04,0.9,311.8104,M,0.0,M,,*57
$GPRMC,000314,A,3930.4068,N,08351.7413,W,000.0,000.0,040515,0,E*74
$GPGGA,000314,3930.4068,N,08351.7413,W,1,04,0.9,311.8104,M,0.0,M,,*58
$GPRMC,000315,A,3930.4069,N,08351.7413,W,000.0,000.0,040515,0,E*74
$GPGGA,000315,3930.4069,N,08351.7413,W,1,04,0.9,311.8104,M,0.0,M,,*58
$GPRMC,000335,A,3930.4078,N,08351.7428,W,000.0,000.0,040515,0,E*7E
$GPGGA,000335,3930.4078,N,08351.7428,W,1,04,0.9,310.896,M,0.0,M,,*69
$GPRMC,000336,A,3930.4078,N,08351.7428,W,000.0,000.0,040515,0,E*7D
$GPGGA,000336,3930.4078,N,08351.7428,W,1,04,0.9,310.896,M,0.0,M,,*6A
$GPRMC,000356,A,3930.4092,N,08351.7424,W,000.0,000.0,040515,0,E*73
$GPGGA,000356,3930.4092,N,08351.7424,W,1,04,0.9,310.896,M,0.0,M,,*64
$GPRMC,000357,A,3930.4091,N,08351.7424,W,000.0,000.0,040515,0,E*71
$GPGGA,000357,3930.4091,N,08351.7424,W,1,04,0.9,310.896,M,0.0,M,,*66
$GPRMC,000417,A,3930.4088,N,08351.7425,W,000.0,000.0,040515,0,E*7B
$GPGGA,000417,3930.4088,N,08351.7425,W,1,04,0.9,309.9816,M,0.0,M,,*55
$GPRMC,000418,A,3930.4089,N,08351.7424,W,000.0,000.0,040515,0,E*74
$GPGGA,000418,3930.4089,N,08351.7424,W,1,04,0.9,309.9816,M,0.0,M,,*5A
$GPRMC,000438,A,3930.4096,N,08351.7420,W,000.0,000.0,040515,0,E*7C
$GPGGA,000438,3930.4096,N,08351.7420,W,1,04,0.9,309.9816,M,0.0,M,,*52
$GPRMC,000439,A,3930.4097,N,08351.7421,W,000.0,000.0,040515,0,E*7D
$GPGGA,000439,3930.4097,N,08351.7421,W,1,04,0.9,309.9816,M,0.0,M,,*53
$GPRMC,000458,A,3930.4097,N,08351.7414,W,000.0,000.0,040515,0,E*7C
$GPGGA,000458,3930.4097,N,08351.7414,W,1,04,0.9,309.9816,M,0.0,M,,*52
$GPRMC,000459,A,3930.4096,N,08351.7414,W,000.0,000.0,040515,0,E*7C
$GPGGA,000459,3930.4096,N,08351.7414,W,1,04,0.9,309.9816,M,0.0,M,,*52
$GPRMC,000519,A,3930.4088,N,08351.7401,W,000.0,000.0,040515,0,E*72
$GPGGA,000519,3930.4088,N,08351.7401,W,1,04,0.9,309.9816,M,0.0,M,,*5C
$GPRMC,000520,A,3930.4089,N,08351.7400,W,000.0,000.0,040515,0,E*78
$GPGGA,000520,3930.4089,N,08351.7400,W,1,04,0.9,309.9816,M,0.0,M,,*56
$GPRMC,000540,A,3930.4087,N,08351.7401,W,000.0,000.0,040515,0,E*71
$GPGGA,000540,3930.4087,N,08351.7401,W,1,04,0.9,310.896,M,0.0,M,,*66
$GPRMC,000541,A,3930.4088,N,08351.7401,W,000.0,000.0,040515,0,E*7F
$GPGGA,000541,3930.4088,N,08351.7401,W,1,04,0.9,310.896,M,0.0,M,,*68
$GPRMC,000600,A,3930.4080,N,08351.7406,W,000.0,000.0,040515,0,E*76
$GPGGA,000600,3930.4080,N,08351.7406,W,1,04,0.9,310.896,M,0.0,M,,*61
$GPRMC,000601,A,3930.4080,N,08351.7405,W,000.0,000.0,040515,0,E*74
$GPGGA,000601,3930.4080,N,08351.7405,W,1,04,0.9,310.896,M,0.0,M,,*63
$GPRMC,000621,A,3930.4084,N,08351.7402,W,000.0,000.0,040515,0,E*75
$GPGGA,000621,3930.4084,N,08351.7402,W,1,04,0.9,310.896,M,0.0,M,,*62
$GPRMC,000622,A,3930.4084,N,08351.7403,W,000.0,000.0,040515,0,E*77
$GPGGA,000622,3930.4084,N,08351.7403,W,1,04,0.9,310.896,M,0.0,M,,*60
$GPRMC,000641,A,3930.4083,N,08351.7412,W,000.0,000.0,040515,0,E*75
$GPGGA,000641,3930.4083,N,08351.7412,W,1,04,0.9,310.896,M,0.0,M,,*62
$GPRMC,000642,A,3930.4081,N,08351.7414,W,000.0,000.0,040515,0,E*72
$GPGGA,000642,3930.4081,N,08351.7414,W,1,04,0.9,310.896,M,0.0,M,,*65
$GPRMC,000701,A,3930.4079,N,08351.7422,W,000.0,000.0,040515,0,E*76
$GPGGA,000701,3930.4079,N,08351.7422,W,1,04,0.9,309.9816,M,0.0,M,,*58
$GPRMC,000703,A,3930.4079,N,08351.7422,W,000.0,000.0,040515,0,E*74
$GPGGA,000703,3930.4079,N,08351.7422,W,1,04,0.9,309.9816,M,0.0,M,,*5A
$GPRMC,000722,A,3930.4092,N,08351.7420,W,000.0,000.0,040515,0,E*70
$GPGGA,000722,3930.4092,N,08351.7420,W,1,04,0.9,309.9816,M,0.0,M,,*5E
$GPRMC,000723,A,3930.4092,N,08351.7419,W,000.0,000.0,040515,0,E*7B
$GPGGA,000723,3930.4092,N,08351.7419,W,1,04,0.9,309.9816,M,0.0,M,,*55
$GPRMC,000743,A,3930.4077,N,08351.7413,W,000.0,000.0,040515,0,E*7C
$GPGGA,000743,3930.4077,N,08351.7413,W,1,04,0.9,310.896,M,0.0,M,,*6B
$GPRMC,000744,A,3930.4077,N,08351.7412,W,000.0,000.0,040515,0,E*7A
$GPGGA,000744,3930.4077,N,08351.7412,W,1,04,0.9,310.896,M,0.0,M,,*6D
$GPRMC,000804,A,3930.4076,N,08351.7399,W,000.0,000.0,040515,0,E*74
$GPGGA,000804,3930.4076,N,08351.7399,W,1,04,0.9,310.896,M,0.0,M,,*63
$GPRMC,000805,A,3930.4077,N,08351.7399,W,000.0,000.0,040515,0,E*74
$GPGGA,000805,3930.4077,N,08351.7399,W,1,04,0.9,310.896,M,0.0,M,,*63
$GPRMC,000825,A,3930.4078,N,08351.7388,W,000.0,000.0,040515,0,E*79
$GPGGA,000825,3930.4078,N,08351.7388,W,1,04,0.9,311.8104,M,0.0,M,,*55
$GPRMC,000826,A,3930.4078,N,08351.7387,W,000.0,000.0,040515,0,E*75
$GPGGA,000826,3930.4078,N,08351.7387,W,1,04,0.9,311.8104,M,0.0,M,,*59
$GPRMC,000845,A,3930.4077,N,08351.7393,W,000.0,000.0,040515,0,E*7A
$GPGGA,000845,3930.4077,N,08351.7393,W,1,04,0.9,311.8104,M,0.0,M,,*56
$GPRMC,000846,A,3930.4076,N,08351.7393,W,000.0,000.0,040515,0,E*78
$GPGGA,000846,3930.4076,N,08351.7393,W,1,04,0.9,311.8104,M,0.0,M,,*54
$GPRMC,000906,A,3930.4076,N,08351.7403,W,000.0,000.0,040515,0,E*73
$GPGGA,000906,3930.4076,N,08351.7403,W,1,04,0.9,311.8104,M,0.0,M,,*5F
$GPRMC,000908,A,3930.4075,N,08351.7403,W,000.0,000.0,040515,0,E*7E
$GPGGA,000908,3930.4075,N,08351.7403,W,1,04,0.9,311.8104,M,0.0,M,,*52
$GPRMC,000927,A,3930.4078,N,08351.7405,W,000.0,000.0,040515,0,E*78
$GPGGA,000927,3930.4078,N,08351.7405,W,1,04,0.9,312.7248,M,0.0,M,,*53
$GPRMC,000928,A,3930.4077,N,08351.7406,W,000.0,000.0,040515,0,E*7B
$GPGGA,000928,3930.4077,N,08351.7406,W,1,04,0.9,312.7248,M,0.0,M,,*50
$GPRMC,000948,A,3930.4070,N,08351.7407,W,000.0,000.0,040515,0,E*7B
$GPGGA,000948,3930.4070,N,08351.7407,W,1,04,0.9,312.7248,M,0.0,M,,*50
$GPRMC,000949,A,3930.4068,N,08351.7408,W,000.0,000.0,040515,0,E*7C
$GPGGA,000949,3930.4068,N,08351.7408,W,1,04,0.9,312.7248,M,0.0,M,,*57
$GPRMC,001008,A,3930.4072,N,08351.7406,W,000.0,000.0,040515,0,E*74
$GPGGA,001008,3930.4072,N,08351.7406,W,1,04,0.9,312.7248,M,0.0,M,,*5F
$GPRMC,001009,A,3930.4072,N,08351.7406,W,000.0,000.0,040515,0,E*75
$GPGGA,001009,3930.4072,N,08351.7406,W,1,04,0.9,312.7248,M,0.0,M,,*5E
$GPRMC,001028,A,3930.4084,N,08351.7402,W,000.0,000.0,040515,0,E*7B
$GPGGA,001028,3930.4084,N,08351.7402,W,1,04,0.9,312.7248,M,0.0,M,,*50
$GPRMC,001029,A,3930.4084,N,08351.7402,W,000.0,000.0,040515,0,E*7A
$GPGGA,001029,3930.4084,N,08351.7402,W,1,04,0.9,313.944,M,0.0,M,,*60
$GPRMC,001049,A,3930.4094,N,08351.7386,W,000.0,000.0,040515,0,E*76
$GPGGA,001049,3930.4094,N,08351.7386,W,1,04,0.9,313.944,M,0.0,M,,*6C
$GPRMC,001050,A,3930.4093,N,08351.7385,W,000.0,000.0,040515,0,E*7A
$GPGGA,001050,3930.4093,N,08351.7385,W,1,04,0.9,313.944,M,0.0,M,,*60
$GPRMC,001110,A,3930.4082,N,08351.7387,W,000.0,000.0,040515,0,E*7D
$GPGGA,001110,3930.4082,N,08351.7387,W,1,04,0.9,313.944,M,0.0,M,,*67
$GPRMC,001111,A,3930.4082,N,08351.7387,W,000.0,000.0,040515,0,E*7C
$GPGGA,001111,3930.4082,N,08351.7387,W,1,04,0.9,313.944,M,0.0,M,,*66
$GPRMC,001131,A,3930.4059,N,08351.7410,W,000.0,000.0,040515,0,E*71
$GPGGA,001131,3930.4059,N,08351.7410,W,1,04,0.9,312.7248,M,0.0,M,,*5A
$GPRMC,001132,A,3930.4057,N,08351.7411,W,000.0,000.0,040515,0,E*7D
$GPGGA,001132,3930.4057,N,08351.7411,W,1,04,0.9,312.7248,M,0.0,M,,*56
$GPRMC,001152,A,3930.4066,N,08351.7415,W,000.0,000.0,040515,0,E*7D
$GPGGA,001152,3930.4066,N,08351.7415,W,1,04,0.9,312.7248,M,0.0,M,,*56
$GPRMC,001153,A,3930.4067,N,08351.7415,W,000.0,000.0,040515,0,E*7D
$GPGGA,001153,3930.4067,N,08351.7415,W,1,04,0.9,312.7248,M,0.0,M,,*56
$GPRMC,001212,A,3930.4080,N,08351.7410,W,000.0,000.0,040515,0,E*77
$GPGGA,001212,3930.4080,N,08351.7410,W,1,04,0.9,313.944,M,0.0,M,,*6D
$GPRMC,001213,A,3930.4080,N,08351.7410,W,000.0,000.0,040515,0,E*76
$GPGGA,001213,3930.4080,N,08351.7410,W,1,04,0.9,313.944,M,0.0,M,,*6C
$GPRMC,001233,A,3930.4080,N,08351.7405,W,000.0,000.0,040515,0,E*70
$GPGGA,001233,3930.4080,N,08351.7405,W,1,04,0.9,313.944,M,0.0,M,,*6A
$GPRMC,001234,A,3930.4079,N,08351.7405,W,000.0,000.0,040515,0,E*71
$GPGGA,001234,3930.4079,N,08351.7405,W,1,04,0.9,313.944,M,0.0,M,,*6B
$GPRMC,001254,A,3930.4076,N,08351.7401,W,000.0,000.0,040515,0,E*7C
$GPGGA,001254,3930.4076,N,08351.7401,W,1,04,0.9,313.944,M,0.0,M,,*66
$GPRMC,001255,A,3930.4074,N,08351.7401,W,000.0,000.0,040515,0,E*7F
$GPGGA,001255,3930.4074,N,08351.7401,W,1,04,0.9,313.944,M,0.0,M,,*65
$GPRMC,001315,A,3930.4064,N,08351.7397,W,000.0,000.0,040515,0,E*73
$GPGGA,001315,3930.4064,N,08351.7397,W,1,04,0.9,313.944,M,0.0,M,,*69
$GPRMC,001316,A,3930.4065,N,08351.7397,W,000.0,000.0,040515,0,E*71
$GPGGA,001316,3930.4065,N,08351.7397,W,1,04,0.9,313.944,M,0.0,M,,*6B
$GPRMC,001335,A,3930.4069,N,08351.7403,W,000.0,000.0,040515,0,E*76
$GPGGA,001335,3930.4069,N,08351.7403,W,1,04,0.9,312.7248,M,0.0,M,,*5D
$GPRMC,001336,A,3930.4069,N,08351.7402,W,000.0,000.0,040515,0,E*74
$GPGGA,001336,3930.4069,N,08351.7402,W,1,04,0.9,312.7248,M,0.0,M,,*5F
$GPRMC,001356,A,3930.4097,N,08351.7381,W,000.0,000.0,040515,0,E*7F
$GPGGA,001356,3930.4097,N,08351.7381,W,1,04,0.9,313.944,M,0.0,M,,*65
$GPRMC,001357,A,3930.4097,N,08351.7382,W,000.0,000.0,040515,0,E*7D
$GPGGA,001357,3930.4097,N,08351.7382,W,1,04,0.9,313.944,M,0.0,M,,*67
$GPRMC,001416,A,3930.4096,N,08351.7393,W,000.0,000.0,040515,0,E*7E
$GPGGA,001416,3930.4096,N,08351.7393,W,1,04,0.9,312.7248,M,0.0,M,,*55
$GPRMC,001417,A,3930.4096,N,08351.7393,W,000.0,000.0,040515,0,E*7F
$GPGGA,001417,3930.4096,N,08351.7393,W,1,04,0.9,312.7248,M,0.0,M,,*54
$GPRMC,001437,A,3930.4073,N,08351.7397,W,000.0,000.0,040515,0,E*72
$GPGGA,001437,3930.4073,N,08351.7397,W,1,04,0.9,313.944,M,0.0,M,,*68
$GPRMC,001438,A,3930.4072,N,08351.7397,W,000.0,000.0,040515,0,E*7C
$GPGGA,001438,3930.4072,N,08351.7397,W,1,04,0.9,313.944,M,0.0,M,,*66
$GPRMC,001458,A,3930.4056,N,08351.7406,W,000.0,000.0,040515,0,E*73
$GPGGA,001458,3930.4056,N,08351.7406,W,1,04,0.9,313.944,M,0.0,M,,*69
$GPRMC,001459,A,3930.4057,N,08351.7406,W,000.0,000.0,040515,0,E*73
$GPGGA,001459,3930.4057,N,08351.7406,W,1,04,0.9,313.944,M,0.0,M,,*69
$GPRMC,001518,A,3930.4066,N,08351.7405,W,000.0,000.0,040515,0,E*76
$GPGGA,001518,3930.4066,N,08351.7405,W,1,04,0.9,313.944,M,0.0,M,,*6C
$GPRMC,001519,A,3930.4066,N,08351.7404,W,000.0,000.0,040515,0,E*76
$GPGGA,001519,3930.4066,N,08351.7404,W,1,04,0.9,313.944,M,0.0,M,,*6C
$GPRMC,001539,A,3930.4063,N,08351.7400,W,000.0,000.0,040515,0,E*75
$GPGGA,001539,3930.4063,N,08351.7400,W,1,04,0.9,313.944,M,0.0,M,,*6F
$GPRMC,001540,A,3930.4063,N,08351.7400,W,000.0,000.0,040515,0,E*7B
$GPGGA,001540,3930.4063,N,08351.7400,W,1,04,0.9,313.944,M,0.0,M,,*61
$GPRMC,001559,A,3930.4058,N,08351.7396,W,000.0,000.0,040515,0,E*73
$GPGGA,001559,3930.4058,N,08351.7396,W,1,04,0.9,313.944,M,0.0,M,,*69
$GPRMC,001600,A,3930.4059,N,08351.7396,W,000.0,000.0,040515,0,E*7D
$GPGGA,001600,3930.4059,N,08351.7396,W,1,04,0.9,313.944,M,0.0,M,,*67
$GPRMC,001619,A,3930.4066,N,08351.7389,W,000.0,000.0,040515,0,E*77
$GPGGA,001619,3930.4066,N,08351.7389,W,1,04,0.9,313.944,M,0.0,M,,*6D
$GPRMC,001620,A,3930.4067,N,08351.7389,W,000.0,000.0,040515,0,E*7C
$GPGGA,001620,3930.4067,N,08351.7389,W,1,04,0.9,313.944,M,0.0,M,,*66
$GPRMC,001640,A,3930.4068,N,08351.7389,W,000.0,000.0,040515,0,E*75
$GPGGA,001640,3930.4068,N,08351.7389,W,1,04,0.9,313.944,M,0.0,M,,*6F
$GPRMC,001641,A,3930.4068,N,08351.7389,W,000.0,000.0,040515,0,E*74
$GPGGA,001641,3930.4068,N,08351.7389,W,1,04,0.9,313.944,M,0.0,M,,*6E
$GPRMC,001701,A,3930.4083,N,08351.7399,W,000.0,000.0,040515,0,E*75
$GPGGA,001701,3930.4083,N,08351.7399,W,1,04,0.9,313.944,M,0.0,M,,*6F
$GPRMC,001702,A,3930.4084,N,08351.7399,W,000.0,000.0,040515,0,E*71
$GPGGA,001702,3930.4084,N,08351.7399,W,1,04,0.9,313.944,M,0.0,M,,*6B
$GPRMC,001721,A,3930.4069,N,08351.7409,W,000.0,000.0,040515,0,E*7D
$GPGGA,001721,3930.4069,N,08351.7409,W,1,04,0.9,313.944,M,0.0,M,,*67
$GPRMC,001722,A,3930.4068,N,08351.7410,W,000.0,000.0,040515,0,E*77
$GPGGA,001722,3930.4068,N,08351.7410,W,1,04,0.9,313.944,M,0.0,M,,*6D
$GPRMC,001742,A,3930.4068,N,08351.7411,W,000.0,000.0,040515,0,E*70
$GPGGA,001742,3930.4068,N,08351.7411,W,1,04,0.9,313.944,M,0.0,M,,*6A
$GPRMC,001743,A,3930.4067,N,08351.7411,W,000.0,000.0,040515,0,E*7E
$GPGGA,001743,3930.4067,N,08351.7411,W,1,04,0.9,313.944,M,0.0,M,,*64
$GPRMC,001803,A,3930.4041,N,08351.7410,W,000.0,000.0,040515,0,E*70
$GPGGA,001803,3930.4041,N,08351.7410,W,1,04,0.9,313.944,M,0.0,M,,*6A
$GPRMC,001804,A,3930.4040,N,08351.7410,W,000.0,000.0,040515,0,E*76
$GPGGA,001804,3930.4040,N,08351.7410,W,1,04,0.9,313.944,M,0.0,M,,*6C
$GPRMC,001824,A,3930.4065,N,08351.7397,W,000.0,000.0,040515,0,E*7B
$GPGGA,001824,3930.4065,N,08351.7397,W,1,04,0.9,313.944,M,0.0,M,,*61
$GPRMC,001825,A,3930.4067,N,08351.7397,W,000.0,000.0,040515,0,E*78
$GPGGA,001825,3930.4067,N,08351.7397,W,1,04,0.9,313.944,M,0.0,M,,*62
$GPRMC,001845,A,3930.4073,N,08351.7411,W,000.0,000.0,040515,0,E*72
$GPGGA,001845,3930.4073,N,08351.7411,W,1,04,0.9,313.944,M,0.0,M,,*68
$GPRMC,001846,A,3930.4073,N,08351.7411,W,000.0,000.0,040515,0,E*71
$GPGGA,001846,3930.4073,N,08351.7411,W,1,04,0.9,313.944,M,0.0,M,,*6B
$GPRMC,001906,A,3930.4069,N,08351.7418,W,000.0,000.0,040515,0,E*76
$GPGGA,001906,3930.4069,N,08351.7418,W,1,04,0.9,313.944,M,0.0,M,,*6C
$GPRMC,001907,A,3930.4068,N,08351.7418,W,000.0,000.0,040515,0,E*76
$GPGGA,001907,3930.4068,N,08351.7418,W,1,04,0.9,313.944,M,0.0,M,,*6C
$GPRMC,001927,A,3930.4073,N,08351.7414,W,000.0,000.0,040515,0,E*72
$GPGGA,001927,3930.4073,N,08351.7414,W,1,04,0.9,313.944,M,0.0,M,,*68
$GPRMC,001928,A,3930.4074,N,08351.7414,W,000.0,000.0,040515,0,E*7A
$GPGGA,001928,3930.4074,N,08351.7414,W,1,04,0.9,313.944,M,0.0,M,,*60
$GPRMC,001948,A,3930.4044,N,08351.7426,W,000.0,000.0,040515,0,E*7E
$GPGGA,001948,3930.4044,N,08351.7426,W,1,04,0.9,313.944,M,0.0,M,,*64
$GPRMC,001949,A,3930.4047,N,08351.7425,W,000.0,000.0,040515,0,E*7F
$GPGGA,001949,3930.4047,N,08351.7425,W,1,04,0.9,313.944,M,0.0,M,,*65
$GPRMC,002008,A,3930.4060,N,08351.7418,W,000.0,000.0,040515,0,E*7B
$GPGGA,002008,3930.4060,N,08351.7418,W,1,04,0.9,313.944,M,0.0,M,,*61
$GPRMC,002009,A,3930.4060,N,08351.7418,W,000.0,000.0,040515,0,E*7A
$GPGGA,002009,3930.4060,N,08351.7418,W,1,04,0.9,313.944,M,0.0,M,,*60
$GPRMC,002028,A,3930.4063,N,08351.7417,W,000.0,000.0,040515,0,E*75
$GPGGA,002028,3930.4063,N,08351.7417,W,1,04,0.9,313.944,M,0.0,M,,*6F
$GPRMC,002029,A,3930.4062,N,08351.7417,W,000.0,000.0,040515,0,E*75
$GPGGA,002029,3930.4062,N,08351.7417,W,1,04,0.9,313.944,M,0.0,M,,*6F
$GPRMC,002049,A,3930.4079,N,08351.7415,W,000.0,000.0,040515,0,E*7B
$GPGGA,002049,3930.4079,N,08351.7415,W,1,04,0.9,313.944,M,0.0,M,,*61
$GPRMC,002050,A,3930.4079,N,08351.7415,W,000.0,000.0,040515,0,E*73
$GPGGA,002050,3930.4079,N,08351.7415,W,1,04,0.9,313.944,M,0.0,M,,*69
$GPRMC,002110,A,3930.4076,N,08351.7421,W,000.0,000.0,040515,0,E*7E
$GPGGA,002110,3930.4076,N,08351.7421,W,1,04,0.9,313.944,M,0.0,M,,*64
$GPRMC,002111,A,3930.4074,N,08351.7422,W,000.0,000.0,040515,0,E*7E
$GPGGA,002111,3930.4074,N,08351.7422,W,1,04,0.9,313.944,M,0.0,M,,*64
$GPRMC,002130,A,3930.4088,N,08351.7421,W,000.0,000.0,040515,0,E*7D
$GPGGA,002130,3930.4088,N,08351.7421,W,1,04,0.9,313.944,M,0.0,M,,*67
$GPRMC,002131,A,3930.4089,N,08351.7422,W,000.0,000.0,040515,0,E*7E
$GPGGA,002131,3930.4089,N,08351.7422,W,1,04,0.9,313.944,M,0.0,M,,*64
$GPRMC,002151,A,3930.4084,N,08351.7434,W,000.0,000.0,040515,0,E*72
$GPGGA,002151,3930.4084,N,08351.7434,W,1,04,0.9,313.944,M,0.0,M,,*68
$GPRMC,002152,A,3930.4084,N,08351.7434,W,000.0,000.0,040515,0,E*71
$GPGGA,002152,3930.4084,N,08351.7434,W,1,04,0.9,313.944,M,0.0,M,,*6B
$GPRMC,002212,A,3930.4085,N,08351.7418,W,000.0,000.0,040515,0,E*79
$GPGGA,002212,3930.4085,N,08351.7418,W,1,04,0.9,313.944,M,0.0,M,,*63
$GPRMC,002213,A,3930.4084,N,08351.7418,W,000.0,000.0,040515,0,E*79
$GPGGA,002213,3930.4084,N,08351.7418,W,1,04,0.9,313.944,M,0.0,M,,*63
$GPRMC,002233,A,3930.4067,N,08351.7409,W,000.0,000.0,040515,0,E*76
$GPGGA,002233,3930.4067,N,08351.7409,W,1,04,0.9,313.944,M,0.0,M,,*6C
$GPRMC,002234,A,3930.4067,N,08351.7410,W,000.0,000.0,040515,0,E*79
$GPGGA,002234,3930.4067,N,08351.7410,W,1,04,0.9,313.944,M,0.0,M,,*63
$GPRMC,002253,A,3930.4070,N,08351.7402,W,000.0,000.0,040515,0,E*7D
$GPGGA,002253,3930.4070,N,08351.7402,W,1,04,0.9,313.944,M,0.0,M,,*67
$GPRMC,002254,A,3930.4071,N,08351.7402,W,000.0,000.0,040515,0,E*7B
$GPGGA,002254,3930.4071,N,08351.7402,W,1,04,0.9,313.944,M,0.0,M,,*61
$GPRMC,002313,A,3930.4077,N,08351.7400,W,000.0,000.0,040515,0,E*7D
$GPGGA,002313,3930.4077,N,08351.7400,W,1,04,0.9,313.944,M,0.0,M,,*67
$GPRMC,002314,A,3930.4078,N,08351.7401,W,000.0,000.0,040515,0,E*74
$GPGGA,002314,3930.4078,N,08351.7401,W,1,04,0.9,313.944,M,0.0,M,,*6E
$GPRMC,002333,A,3930.4090,N,08351.7396,W,000.0,000.0,040515,0,E*7E
$GPGGA,002333,3930.4090,N,08351.7396,W,1,04,0.9,313.944,M,0.0,M,,*64
$GPRMC,002334,A,3930.4088,N,08351.7397,W,000.0,000.0,040515,0,E*71
$GPGGA,002334,3930.4088,N,08351.7397,W,1,04,0.9,313.944,M,0.0,M,,*6B
$GPRMC,002354,A,3930.4079,N,08351.7407,W,000.0,000.0,040515,0,E*77
$GPGGA,002354,3930.4079,N,08351.7407,W,1,04,0.9,313.944,M,0.0,M,,*6D
$GPRMC,002355,A,3930.4079,N,08351.7407,W,000.0,000.0,040515,0,E*76
$GPGGA,002355,3930.4079,N,08351.7407,W,1,04,0.9,313.944,M,0.0,M,,*6C
$GPRMC,002415,A,3930.4081,N,08351.7405,W,000.0,000.0,040515,0,E*70
$GPGGA,002415,3930.4081,N,08351.7405,W,1,04,0.9,313.944,M,0.0,M,,*6A
$GPRMC,002416,A,3930.4083,N,08351.7404,W,000.0,000.0,040515,0,E*70
$GPGGA,002416,3930.4083,N,08351.7404,W,1,04,0.9,313.944,M,0.0,M,,*6A
$GPRMC,002435,A,3930.4071,N,08351.7401,W,000.0,000.0,040515,0,E*79
$GPGGA,002435,3930.4071,N,08351.7401,W,1,04,0.9,313.944,M,0.0,M,,*63
$GPRMC,002436,A,3930.4072,N,08351.7400,W,000.0,000.0,040515,0,E*78
$GPGGA,002436,3930.4072,N,08351.7400,W,1,04,0.9,313.944,M,0.0,M,,*62
$GPRMC,002455,A,3930.4083,N,08351.7393,W,000.0,000.0,040515,0,E*7E
$GPGGA,002455,3930.4083,N,08351.7393,W,1,04,0.9,313.944,M,0.0,M,,*64
$GPRMC,002456,A,3930.4081,N,08351.7394,W,000.0,000.0,040515,0,E*78
$GPGGA,002456,3930.4081,N,08351.7394,W,1,04,0.9,313.944,M,0.0,M,,*62
$GPRMC,002516,A,3930.4081,N,08351.7399,W,000.0,000.0,040515,0,E*70
$GPGGA,002516,3930.4081,N,08351.7399,W,1,04,0.9,314.8584,M,0.0,M,,*55
$GPRMC,002517,A,3930.4080,N,08351.7400,W,000.0,000.0,040515,0,E*77
$GPGGA,002517,3930.4080,N,08351.7400,W,1,04,0.9,314.8584,M,0.0,M,,*52
$GPRMC,002537,A,3930.4077,N,08351.7395,W,000.0,000.0,040515,0,E*76
$GPGGA,002537,3930.4077,N,08351.7395,W,1,04,0.9,315.7728,M,0.0,M,,*59
$GPRMC,002538,A,3930.4080,N,08351.7393,W,000.0,000.0,040515,0,E*77
$GPGGA,002538,3930.4080,N,08351.7393,W,1,04,0.9,315.7728,M,0.0,M,,*58
$GPRMC,002558,A,3930.4073,N,08351.7385,W,000.0,000.0,040515,0,E*7A
$GPGGA,002558,3930.4073,N,08351.7385,W,1,04,0.9,315.7728,M,0.0,M,,*55
$GPRMC,002559,A,3930.4075,N,08351.7385,W,000.0,000.0,040515,0,E*7D
$GPGGA,002559,3930.4075,N,08351.7385,W,1,04,0.9,315.7728,M,0.0,M,,*52
$GPRMC,002618,A,3930.4071,N,08351.7385,W,000.0,000.0,040515,0,E*7F
$GPGGA,002618,3930.4071,N,08351.7385,W,1,04,0.9,315.7728,M,0.0,M,,*50
$GPRMC,002619,A,3930.4071,N,08351.7384,W,000.0,000.0,040515,0,E*7F
$GPGGA,002619,3930.4071,N,08351.7384,W,1,04,0.9,315.7728,M,0.0,M,,*50
$GPRMC,002639,A,3930.4073,N,08351.7385,W,000.0,000.0,040515,0,E*7E
$GPGGA,002639,3930.4073,N,08351.7385,W,1,04,0.9,315.7728,M,0.0,M,,*51
$GPRMC,002640,A,3930.4074,N,08351.7385,W,000.0,000.0,040515,0,E*77
$GPGGA,002640,3930.4074,N,08351.7385,W,1,04,0.9,315.7728,M,0.0,M,,*58
$GPRMC,002659,A,3930.4091,N,08351.7392,W,000.0,000.0,040515,0,E*72
$GPGGA,002659,3930.4091,N,08351.7392,W,1,04,0.9,315.7728,M,0.0,M,,*5D
$GPRMC,002700,A,3930.4092,N,08351.7393,W,000.0,000.0,040515,0,E*7D
$GPGGA,002700,3930.4092,N,08351.7393,W,1,04,0.9,315.7728,M,0.0,M,,*52
$GPRMC,002719,A,3930.4078,N,08351.7388,W,000.0,000.0,040515,0,E*7B
$GPGGA,002719,3930.4078,N,08351.7388,W,1,04,0.9,316.992,M,0.0,M,,*6F
$GPRMC,002720,A,3930.4078,N,08351.7387,W,000.0,000.0,040515,0,E*7E
$GPGGA,002720,3930.4078,N,08351.7387,W,1,04,0.9,316.992,M,0.0,M,,*6A
$GPRMC,002740,A,3930.4062,N,08351.7392,W,000.0,000.0,040515,0,E*77
$GPGGA,002740,3930.4062,N,08351.7392,W,1,04,0.9,317.9064,M,0.0,M,,*5B
$GPRMC,002742,A,3930.4062,N,08351.7393,W,000.0,000.0,040515,0,E*74
$GPGGA,002742,3930.4062,N,08351.7393,W,1,04,0.9,317.9064,M,0.0,M,,*58
$GPRMC,002801,A,3930.4052,N,08351.7408,W,000.0,000.0,040515,0,E*7A
$GPGGA,002801,3930.4052,N,08351.7408,W,1,04,0.9,317.9064,M,0.0,M,,*56
$GPRMC,002802,A,3930.4052,N,08351.7409,W,000.0,000.0,040515,0,E*78
$GPGGA,002802,3930.4052,N,08351.7409,W,1,04,0.9,317.9064,M,0.0,M,,*54
$GPRMC,002822,A,3930.4069,N,08351.7408,W,000.0,000.0,040515,0,E*73
$GPGGA,002822,3930.4069,N,08351.7408,W,1,04,0.9,316.992,M,0.0,M,,*67
$GPRMC,002823,A,3930.4070,N,08351.7407,W,000.0,000.0,040515,0,E*75
$GPGGA,002823,3930.4070,N,08351.7407,W,1,04,0.9,316.992,M,0.0,M,,*61
$GPRMC,002843,A,3930.4071,N,08351.7376,W,000.0,000.0,040515,0,E*73
$GPGGA,002843,3930.4071,N,08351.7376,W,1,04,0.9,317.9064,M,0.0,M,,*5F
$GPRMC,002844,A,3930.4069,N,08351.7376,W,000.0,000.0,040515,0,E*7D
$GPGGA,002844,3930.4069,N,08351.7376,W,1,04,0.9,317.9064,M,0.0,M,,*51
$GPRMC,002903,A,3930.4067,N,08351.7375,W,000.0,000.0,040515,0,E*72
$GPGGA,002903,3930.4067,N,08351.7375,W,1,04,0.9,317.9064,M,0.0,M,,*5E
$GPRMC,002904,A,3930.4068,N,08351.7375,W,000.0,000.0,040515,0,E*7A
$GPGGA,002904,3930.4068,N,08351.7375,W,1,04,0.9,317.9064,M,0.0,M,,*56
$GPRMC,002924,A,3930.4074,N,08351.7388,W,000.0,000.0,040515,0,E*77
$GPGGA,002924,3930.4074,N,08351.7388,W,1,04,0.9,318.8208,M,0.0,M,,*5D
$GPRMC,002925,A,3930.4074,N,08351.7388,W,000.0,000.0,040515,0,E*76
$GPGGA,002925,3930.4074,N,08351.7388,W,1,04,0.9,318.8208,M,0.0,M,,*5C
$GPRMC,002945,A,3930.4070,N,08351.7392,W,000.0,000.0,040515,0,E*7F
$GPGGA,002945,3930.4070,N,08351.7392,W,1,04,0.9,318.8208,M,0.0,M,,*55
$GPRMC,002946,A,3930.4068,N,08351.7393,W,000.0,000.0,040515,0,E*74
$GPGGA,002946,3930.4068,N,08351.7393,W,1,04,0.9,318.8208,M,0.0,M,,*5E
$GPRMC,003005,A,3930.4075,N,08351.7395,W,000.0,000.0,040515,0,E*71
$GPGGA,003005,3930.4075,N,08351.7395,W,1,04,0.9,317.9064,M,0.0,M,,*5D
$GPRMC,003006,A,3930.4073,N,08351.7395,W,000.0,000.0,040515,0,E*74
$GPGGA,003006,3930.4073,N,08351.7395,W,1,04,0.9,317.9064,M,0.0,M,,*58
$GPRMC,003025,A,3930.4077,N,08351.7396,W,000.0,000.0,040515,0,E*72
$GPGGA,003025,3930.4077,N,08351.7396,W,1,04,0.9,317.9064,M,0.0,M,,*5E
$GPRMC,003026,A,3930.4081,N,08351.7395,W,000.0,000.0,040515,0,E*7B
$GPGGA,003026,3930.4081,N,08351.7395,W,1,04,0.9,317.9064,M,0.0,M,,*57
$GPRMC,003045,A,3930.4070,N,08351.7397,W,000.0,000.0,040515,0,E*72
$GPGGA,003045,3930.4070,N,08351.7397,W,1,04,0.9,317.9064,M,0.0,M,,*5E
$GPRMC,003046,A,3930.4067,N,08351.7397,W,000.0,000.0,040515,0,E*77
$GPGGA,003046,3930.4067,N,08351.7397,W,1,04,0.9,317.9064,M,0.0,M,,*5B
$GPRMC,003106,A,3930.4055,N,08351.7400,W,000.0,000.0,040515,0,E*7A
$GPGGA,003106,3930.4055,N,08351.7400,W,1,04,0.9,317.9064,M,0.0,M,,*56
$GPRMC,003107,A,3930.4055,N,08351.7401,W,000.0,000.0,040515,0,E*7A
$GPGGA,003107,3930.4055,N,08351.7401,W,1,04,0.9,317.9064,M,0.0,M,,*56
$GPRMC,003126,A,3930.4071,N,08351.7399,W,000.0,000.0,040515,0,E*79
$GPGGA,003126,3930.4071,N,08351.7399,W,1,04,0.9,316.992,M,0.0,M,,*6D
$GPRMC,003127,A,3930.4074,N,08351.7398,W,000.0,000.0,040515,0,E*7C
$GPGGA,003127,3930.4074,N,08351.7398,W,1,04,0.9,316.992,M,0.0,M,,*68
$GPRMC,003146,A,3930.4049,N,08351.7410,W,000.0,000.0,040515,0,E*72
$GPGGA,003146,3930.4049,N,08351.7410,W,1,04,0.9,316.992,M,0.0,M,,*66
$GPRMC,003147,A,3930.4051,N,08351.7410,W,000.0,000.0,040515,0,E*7A
$GPGGA,003147,3930.4051,N,08351.7410,W,1,04,0.9,316.992,M,0.0,M,,*6E
$GPRMC,003207,A,3930.4052,N,08351.7410,W,000.0,000.0,040515,0,E*7E
$GPGGA,003207,3930.4052,N,08351.7410,W,1,04,0.9,316.992,M,0.0,M,,*6A
$GPRMC,003208,A,3930.4052,N,08351.7410,W,000.0,000.0,040515,0,E*71
$GPGGA,003208,3930.4052,N,08351.7410,W,1,04,0.9,316.992,M,0.0,M,,*65
$GPRMC,003227,A,3930.4072,N,08351.7408,W,000.0,000.0,040515,0,E*77
$GPGGA,003227,3930.4072,N,08351.7408,W,1,04,0.9,315.7728,M,0.0,M,,*58
$GPRMC,003228,A,3930.4073,N,08351.7408,W,000.0,000.0,040515,0,E*79
$GPGGA,003228,3930.4073,N,08351.7408,W,1,04,0.9,315.7728,M,0.0,M,,*56
$GPRMC,003248,A,3930.4080,N,08351.7407,W,000.0,000.0,040515,0,E*7C
$GPGGA,003248,3930.4080,N,08351.7407,W,1,04,0.9,315.7728,M,0.0,M,,*53
$GPRMC,003249,A,3930.4081,N,08351.7406,W,000.0,000.0,040515,0,E*7D
$GPGGA,003249,3930.4081,N,08351.7406,W,1,04,0.9,315.7728,M,0.0,M,,*52
$GPRMC,003308,A,3930.4088,N,08351.7412,W,000.0,000.0,040515,0,E*75
$GPGGA,003308,3930.4088,N,08351.7412,W,1,04,0.9,315.7728,M,0.0,M,,*5A
$GPRMC,003309,A,3930.4088,N,08351.7412,W,000.0,000.0,040515,0,E*74
$GPGGA,003309,3930.4088,N,08351.7412,W,1,04,0.9,315.7728,M,0.0,M,,*5B
$GPRMC,003329,A,3930.4084,N,08351.7410,W,000.0,000.0,040515,0,E*78
$GPGGA,003329,3930.4084,N,08351.7410,W,1,04,0.9,314.8584,M,0.0,M,,*5D
$GPRMC,003330,A,3930.4084,N,08351.7409,W,000.0,000.0,040515,0,E*78
$GPGGA,003330,3930.4084,N,08351.7409,W,1,04,0.9,314.8584,M,0.0,M,,*5D
$GPRMC,003350,A,3930.4068,N,08351.7390,W,000.0,000.0,040515,0,E*7B
$GPGGA,003350,3930.4068,N,08351.7390,W,1,04,0.9,314.8584,M,0.0,M,,*5E
$GPRMC,003351,A,3930.4067,N,08351.7391,W,000.0,000.0,040515,0,E*74
$GPGGA,003351,3930.4067,N,08351.7391,W,1,04,0.9,314.8584,M,0.0,M,,*51
$GPRMC,003410,A,3930.4062,N,08351.7408,W,000.0,000.0,040515,0,E*74
$GPGGA,003410,3930.4062,N,08351.7408,W,1,04,0.9,314.8584,M,0.0,M,,*51
$GPRMC,003411,A,3930.4062,N,08351.7407,W,000.0,000.0,040515,0,E*7A
$GPGGA,003411,3930.4062,N,08351.7407,W,1,04,0.9,314.8584,M,0.0,M,,*5F
$GPRMC,003431,A,3930.4066,N,08351.7408,W,000.0,000.0,040515,0,E*73
$GPGGA,003431,3930.4066,N,08351.7408,W,1,04,0.9,314.8584,M,0.0,M,,*56
$GPRMC,003432,A,3930.4066,N,08351.7408,W,000.0,000.0,040515,0,E*70
$GPGGA,003432,3930.4066,N,08351.7408,W,1,04,0.9,314.8584,M,0.0,M,,*55
$GPRMC,003452,A,3930.4068,N,08351.7405,W,000.0,000.0,040515,0,E*75
$GPGGA,003452,3930.4068,N,08351.7405,W,1,04,0.9,314.8584,M,0.0,M,,*50
$GPRMC,003453,A,3930.4068,N,08351.7407,W,000.0,000.0,040515,0,E*76
$GPGGA,003453,3930.4068,N,08351.7407,W,1,04,0.9,314.8584,M,0.0,M,,*53
$GPRMC,003513,A,3930.4065,N,08351.7409,W,000.0,000.0,040515,0,E*70
$GPGGA,003513,3930.4065,N,08351.7409,W,1,04,0.9,313.944,M,0.0,M,,*6A
$GPRMC,003514,A,3930.4065,N,08351.7408,W,000.0,000.0,040515,0,E*76
$GPGGA,003514,3930.4065,N,08351.7408,W,1,04,0.9,313.944,M,0.0,M,,*6C
$GPRMC,003533,A,3930.4067,N,08351.7435,W,000.0,000.0,040515,0,E*7F
$GPGGA,003533,3930.4067,N,08351.7435,W,1,04,0.9,313.944,M,0.0,M,,*65
$GPRMC,003534,A,3930.4067,N,08351.7435,W,000.0,000.0,040515,0,E*78
$GPGGA,003534,3930.4067,N,08351.7435,W,1,04,0.9,313.944,M,0.0,M,,*62
$GPRMC,003554,A,3930.4070,N,08351.7433,W,000.0,000.0,040515,0,E*7E
$GPGGA,003554,3930.4070,N,08351.7433,W,1,04,0.9,313.944,M,0.0,M,,*64
$GPRMC,003555,A,3930.4071,N,08351.7431,W,000.0,000.0,040515,0,E*7C
$GPGGA,003555,3930.4071,N,08351.7431,W,1,04,0.9,313.944,M,0.0,M,,*66
$GPRMC,003615,A,3930.4072,N,08351.7394,W,000.0,000.0,040515,0,E*70
$GPGGA,003615,3930.4072,N,08351.7394,W,1,04,0.9,313.944,M,0.0,M,,*6A
$GPRMC,003616,A,3930.4072,N,08351.7393,W,000.0,000.0,040515,0,E*74
$GPGGA,003616,3930.4072,N,08351.7393,W,1,04,0.9,313.944,M,0.0,M,,*6E
$GPRMC,003635,A,3930.4070,N,08351.7401,W,000.0,000.0,040515,0,E*7B
$GPGGA,003635,3930.4070,N,08351.7401,W,1,04,0.9,313.944,M,0.0,M,,*61
$GPRMC,003636,A,3930.4070,N,08351.7400,W,000.0,000.0,040515,0,E*79
$GPGGA,003636,3930.4070,N,08351.7400,W,1,04,0.9,313.944,M,0.0,M,,*63
$GPRMC,003656,A,3930.4065,N,08351.7404,W,000.0,000.0,040515,0,E*7F
$GPGGA,003656,3930.4065,N,08351.7404,W,1,04,0.9,313.944,M,0.0,M,,*65
$GPRMC,003657,A,3930.4066,N,08351.7404,W,000.0,000.0,040515,0,E*7D
$GPGGA,003657,3930.4066,N,08351.7404,W,1,04,0.9,313.944,M,0.0,M,,*67
$GPRMC,003717,A,3930.4061,N,08351.7421,W,000.0,000.0,040515,0,E*78
$GPGGA,003717,3930.4061,N,08351.7421,W,1,04,0.9,313.944,M,0.0,M,,*62
$GPRMC,003718,A,3930.4061,N,08351.7420,W,000.0,000.0,040515,0,E*76
$GPGGA,003718,3930.4061,N,08351.7420,W,1,04,0.9,312.7248,M,0.0,M,,*5D
$GPRMC,003737,A,3930.4069,N,08351.7404,W,000.0,000.0,040515,0,E*75
$GPGGA,003737,3930.4069,N,08351.7404,W,1,04,0.9,312.7248,M,0.0,M,,*5E
$GPRMC,003738,A,3930.4069,N,08351.7405,W,000.0,000.0,040515,0,E*7B
$GPGGA,003738,3930.4069,N,08351.7405,W,1,04,0.9,312.7248,M,0.0,M,,*50
$GPRMC,003758,A,3930.4076,N,08351.7394,W,000.0,000.0,040515,0,E*7C
$GPGGA,003758,3930.4076,N,08351.7394,W,1,04,0.9,312.7248,M,0.0,M,,*57
$GPRMC,003759,A,3930.4077,N,08351.7393,W,000.0,000.0,040515,0,E*7B
$GPGGA,003759,3930.4077,N,08351.7393,W,1,04,0.9,312.7248,M,0.0,M,,*50
$GPRMC,003818,A,3930.4080,N,08351.7361,W,000.0,000.0,040515,0,E*74
$GPGGA,003818,3930.4080,N,08351.7361,W,1,04,0.9,312.7248,M,0.0,M,,*5F
$GPRMC,003819,A,3930.4080,N,08351.7361,W,000.0,000.0,040515,0,E*75
$GPGGA,003819,3930.4080,N,08351.7361,W,1,04,0.9,312.7248,M,0.0,M,,*5E
$GPRMC,003838,A,3930.4078,N,08351.7368,W,000.0,000.0,040515,0,E*78
$GPGGA,003838,3930.4078,N,08351.7368,W,1,04,0.9,313.944,M,0.0,M,,*62
$GPRMC,003839,A,3930.4077,N,08351.7369,W,000.0,000.0,040515,0,E*77
$GPGGA,003839,3930.4077,N,08351.7369,W,1,04,0.9,313.944,M,0.0,M,,*6D
$GPRMC,003858,A,3930.4076,N,08351.7371,W,000.0,000.0,040515,0,E*78
$GPGGA,003858,3930.4076,N,08351.7371,W,1,04,0.9,313.944,M,0.0,M,,*62
$GPRMC,003859,A,3930.4076,N,08351.7370,W,000.0,000.0,040515,0,E*78
$GPGGA,003859,3930.4076,N,08351.7370,W,1,04,0.9,313.944,M,0.0,M,,*62
$GPRMC,003919,A,3930.4075,N,08351.7373,W,000.0,000.0,040515,0,E*7D
$GPGGA,003919,3930.4075,N,08351.7373,W,1,04,0.9,314.8584,M,0.0,M,,*58
$GPRMC,003920,A,3930.4074,N,08351.7372,W,000.0,000.0,040515,0,E*77
$GPGGA,003920,3930.4074,N,08351.7372,W,1,04,0.9,314.8584,M,0.0,M,,*52
$GPRMC,003940,A,3930.4073,N,08351.7366,W,000.0,000.0,040515,0,E*73
$GPGGA,003940,3930.4073,N,08351.7366,W,1,04,0.9,314.8584,M,0.0,M,,*56
$GPRMC,003941,A,3930.4073,N,08351.7365,W,000.0,000.0,040515,0,E*71
$GPGGA,003941,3930.4073,N,08351.7365,W,1,04,0.9,314.8584,M,0.0,M,,*54
$GPRMC,004001,A,3930.4081,N,08351.7379,W,000.0,000.0,040515,0,E*7B
$GPGGA,004001,3930.4081,N,08351.7379,W,1,04,0.9,314.8584,M,0.0,M,,*5E
$GPRMC,004002,A,3930.4081,N,08351.7380,W,000.0,000.0,040515,0,E*7E
$GPGGA,004002,3930.4081,N,08351.7380,W,1,04,0.9,315.7728,M,0.0,M,,*51
$GPRMC,004022,A,3930.4080,N,08351.7381,W,000.0,000.0,040515,0,E*7C
$GPGGA,004022,3930.4080,N,08351.7381,W,1,04,0.9,315.7728,M,0.0,M,,*53
$GPRMC,004023,A,3930.4079,N,08351.7380,W,000.0,000.0,040515,0,E*7A
$GPGGA,004023,3930.4079,N,08351.7380,W,1,04,0.9,315.7728,M,0.0,M,,*55
$GPRMC,004043,A,3930.4063,N,08351.7383,W,000.0,000.0,040515,0,E*74
$GPGGA,004043,3930.4063,N,08351.7383,W,1,04,0.9,315.7728,M,0.0,M,,*5B
$GPRMC,004044,A,3930.4063,N,08351.7385,W,000.0,000.0,040515,0,E*75
$GPGGA,004044,3930.4063,N,08351.7385,W,1,04,0.9,315.7728,M,0.0,M,,*5A
$GPRMC,004104,A,3930.4056,N,08351.7408,W,000.0,000.0,040515,0,E*74
$GPGGA,004104,3930.4056,N,08351.7408,W,1,04,0.9,315.7728,M,0.0,M,,*5B
$GPRMC,004105,A,3930.4056,N,08351.7409,W,000.0,000.0,040515,0,E*74
$GPGGA,004105,3930.4056,N,08351.7409,W,1,04,0.9,315.7728,M,0.0,M,,*5B
$GPRMC,004125,A,3930.4066,N,08351.7417,W,000.0,000.0,040515,0,E*7A
$GPGGA,004125,3930.4066,N,08351.7417,W,1,04,0.9,315.7728,M,0.0,M,,*55
$GPRMC,004126,A,3930.4066,N,08351.7417,W,000.0,000.0,040515,0,E*79
$GPGGA,004126,3930.4066,N,08351.7417,W,1,04,0.9,314.8584,M,0.0,M,,*5C
$GPRMC,004146,A,3930.4063,N,08351.7421,W,000.0,000.0,040515,0,E*7F
$GPGGA,004146,3930.4063,N,08351.7421,W,1,04,0.9,315.7728,M,0.0,M,,*50
$GPRMC,004147,A,3930.4062,N,08351.7426,W,000.0,000.0,040515,0,E*78
$GPGGA,004147,3930.4062,N,08351.7426,W,1,04,0.9,315.7728,M,0.0,M,,*57
$GPRMC,004207,A,3930.4051,N,08351.7405,W,000.0,000.0,040515,0,E*7E
$GPGGA,004207,3930.4051,N,08351.7405,W,1,04,0.9,315.7728,M,0.0,M,,*51
$GPRMC,004208,A,3930.4051,N,08351.7405,W,000.0,000.0,040515,0,E*71
$GPGGA,004208,3930.4051,N,08351.7405,W,1,04,0.9,315.7728,M,0.0,M,,*5E
$GPRMC,004227,A,3930.4055,N,08351.7410,W,000.0,000.0,040515,0,E*7C
$GPGGA,004227,3930.4055,N,08351.7410,W,1,04,0.9,315.7728,M,0.0,M,,*53
$GPRMC,004228,A,3930.4056,N,08351.7410,W,000.0,000.0,040515,0,E*70
$GPGGA,004228,3930.4056,N,08351.7410,W,1,04,0.9,315.7728,M,0.0,M,,*5F
$GPRMC,004248,A,3930.4058,N,08351.7387,W,000.0,000.0,040515,0,E*71
$GPGGA,004248,3930.4058,N,08351.7387,W,1,04,0.9,315.7728,M,0.0,M,,*5E
$GPRMC,004249,A,3930.4058,N,08351.7386,W,000.0,000.0,040515,0,E*71
$GPGGA,004249,3930.4058,N,08351.7386,W,1,04,0.9,315.7728,M,0.0,M,,*5E
$GPRMC,004309,A,3930.4048,N,08351.7375,W,000.0,000.0,040515,0,E*79
$GPGGA,004309,3930.4048,N,08351.7375,W,1,04,0.9,314.8584,M,0.0,M,,*5C
$GPRMC,004310,A,3930.4047,N,08351.7375,W,000.0,000.0,040515,0,E*7E
$GPGGA,004310,3930.4047,N,08351.7375,W,1,04,0.9,314.8584,M,0.0,M,,*5B
$GPRMC,004330,A,3930.4047,N,08351.7380,W,000.0,000.0,040515,0,E*76
$GPGGA,004330,3930.4047,N,08351.7380,W,1,04,0.9,314.8584,M,0.0,M,,*53
$GPRMC,004331,A,3930.4047,N,08351.7381,W,000.0,000.0,040515,0,E*76
$GPGGA,004331,3930.4047,N,08351.7381,W,1,04,0.9,314.8584,M,0.0,M,,*53
$GPRMC,004351,A,3930.4040,N,08351.7391,W,000.0,000.0,040515,0,E*76
$GPGGA,004351,3930.4040,N,08351.7391,W,1,04,0.9,313.944,M,0.0,M,,*6C
$GPRMC,004352,A,3930.4040,N,08351.7392,W,000.0,000.0,040515,0,E*76
$GPGGA,004352,3930.4040,N,08351.7392,W,1,04,0.9,313.944,M,0.0,M,,*6C
$GPRMC,004412,A,3930.4037,N,08351.7404,W,000.0,000.0,040515,0,E*7D
$GPGGA,004412,3930.4037,N,08351.7404,W,1,04,0.9,313.944,M,0.0,M,,*67
$GPRMC,004413,A,3930.4037,N,08351.7404,W,000.0,000.0,040515,0,E*7C
$GPGGA,004413,3930.4037,N,08351.7404,W,1,04,0.9,313.944,M,0.0,M,,*66
$GPRMC,004433,A,3930.4041,N,08351.7431,W,000.0,000.0,040515,0,E*79
$GPGGA,004433,3930.4041,N,08351.7431,W,1,04,0.9,313.944,M,0.0,M,,*63
$GPRMC,004434,A,3930.4041,N,08351.7431,W,000.0,000.0,040515,0,E*7E
$GPGGA,004434,3930.4041,N,08351.7431,W,1,04,0.9,313.944,M,0.0,M,,*64
$GPRMC,004454,A,3930.4048,N,08351.7441,W,000.0,000.0,040515,0,E*76
$GPGGA,004454,3930.4048,N,08351.7441,W,1,04,0.9,313.944,M,0.0,M,,*6C
$GPRMC,004455,A,3930.4048,N,08351.7441,W,000.0,000.0,040515,0,E*77
$GPGGA,004455,3930.4048,N,08351.7441,W,1,04,0.9,313.944,M,0.0,M,,*6D
$GPRMC,004515,A,3930.4060,N,08351.7426,W,000.0,000.0,040515,0,E*79
$GPGGA,004515,3930.4060,N,08351.7426,W,1,04,0.9,313.944,M,0.0,M,,*63
$GPRMC,004516,A,3930.4061,N,08351.7428,W,000.0,000.0,040515,0,E*75
$GPGGA,004516,3930.4061,N,08351.7428,W,1,04,0.9,313.944,M,0.0,M,,*6F
$GPRMC,004535,A,3930.4063,N,08351.7424,W,000.0,000.0,040515,0,E*7A
$GPGGA,004535,3930.4063,N,08351.7424,W,1,04,0.9,312.7248,M,0.0,M,,*51
$GPRMC,004536,A,3930.4063,N,08351.7423,W,000.0,000.0,040515,0,E*7E
$GPGGA,004536,3930.4063,N,08351.7423,W,1,04,0.9,312.7248,M,0.0,M,,*55
$GPRMC,004556,A,3930.4056,N,08351.7406,W,000.0,000.0,040515,0,E*79
$GPGGA,004556,3930.4056,N,08351.7406,W,1,04,0.9,313.944,M,0.0,M,,*63
$GPRMC,004557,A,3930.4056,N,08351.7405,W,000.0,000.0,040515,0,E*7B
$GPGGA,004557,3930.4056,N,08351.7405,W,1,04,0.9,313.944,M,0.0,M,,*61
