$GPRMC,072200,A,3444.8047,N,08627.8836,W,000.0,000.0,130615,0,E*7F
$GPGGA,072200,3444.8047,N,08627.8836,W,1,04,0.9,126.7968,M,0.0,M,,*5D
$GPRMC,072207,A,3444.8007,N,08627.8903,W,000.0,000.0,130615,0,E*7B
$GPGGA,072207,3444.8007,N,08627.8903,W,1,04,0.9,127.7112,M,0.0,M,,*5D
$GPRMC,072211,A,3444.7999,N,08627.8924,W,000.0,000.0,130615,0,E*78
$GPGGA,072211,3444.7999,N,08627.8924,W,1,04,0.9,138.9888,M,0.0,M,,*54
$GPRMC,072231,A,3444.7966,N,08627.8990,W,000.0,000.0,130615,0,E*75
$GPGGA,072231,3444.7966,N,08627.8990,W,1,04,0.9,141.732,M,0.0,M,,*60
$GPRMC,072232,A,3444.7964,N,08627.8995,W,000.0,000.0,130615,0,E*71
$GPGGA,072232,3444.7964,N,08627.8995,W,1,04,0.9,141.732,M,0.0,M,,*64
$GPRMC,072253,A,3444.7940,N,08627.9047,W,000.0,000.0,130615,0,E*77
$GPGGA,072253,3444.7940,N,08627.9047,W,1,04,0.9,147.828,M,0.0,M,,*60
$GPRMC,072313,A,3444.7942,N,08627.9043,W,000.0,000.0,130615,0,E*74
$GPGGA,072313,3444.7942,N,08627.9043,W,1,04,0.9,147.828,M,0.0,M,,*63
$GPRMC,072314,A,3444.7942,N,08627.9043,W,000.0,000.0,130615,0,E*73
$GPGGA,072314,3444.7942,N,08627.9043,W,1,04,0.9,147.828,M,0.0,M,,*64
$GPRMC,072333,A,3444.7942,N,08627.9043,W,000.0,000.0,130615,0,E*76
$GPGGA,072333,3444.7942,N,08627.9043,W,1,04,0.9,147.828,M,0.0,M,,*61
$GPRMC,072334,A,3444.7942,N,08627.9044,W,000.0,000.0,130615,0,E*76
$GPGGA,072334,3444.7942,N,08627.9044,W,1,04,0.9,147.828,M,0.0,M,,*61
$GPRMC,072354,A,3444.7942,N,08627.9044,W,000.0,000.0,130615,0,E*70
$GPGGA,072354,3444.7942,N,08627.9044,W,1,04,0.9,147.828,M,0.0,M,,*67
$GPRMC,072355,A,3444.7942,N,08627.9044,W,000.0,000.0,130615,0,E*71
$GPGGA,072355,3444.7942,N,08627.9044,W,1,04,0.9,147.828,M,0.0,M,,*66
$GPRMC,072415,A,3444.7942,N,08627.9044,W,000.0,000.0,130615,0,E*72
$GPGGA,072415,3444.7942,N,08627.9044,W,1,04,0.9,147.828,M,0.0,M,,*65
$GPRMC,072416,A,3444.7942,N,08627.9044,W,000.0,000.0,130615,0,E*71
$GPGGA,072416,3444.7942,N,08627.9044,W,1,04,0.9,147.828,M,0.0,M,,*66
$GPRMC,072435,A,3444.7942,N,08627.9045,W,000.0,000.0,130615,0,E*71
$GPGGA,072435,3444.7942,N,08627.9045,W,1,04,0.9,149.9616,M,0.0,M,,*52
$GPRMC,072436,A,3444.7941,N,08627.9045,W,000.0,000.0,130615,0,E*71
$GPGGA,072436,3444.7941,N,08627.9045,W,1,04,0.9,149.9616,M,0.0,M,,*52
$GPRMC,072456,A,3444.7941,N,08627.9047,W,000.0,000.0,130615,0,E*75
$GPGGA,072456,3444.7941,N,08627.9047,W,1,04,0.9,149.9616,M,0.0,M,,*56
$GPRMC,072457,A,3444.7941,N,08627.9047,W,000.0,000.0,130615,0,E*74
$GPGGA,072457,3444.7941,N,08627.9047,W,1,04,0.9,149.9616,M,0.0,M,,*57
$GPRMC,072517,A,3444.7941,N,08627.9047,W,000.0,000.0,130615,0,E*71
$GPGGA,072517,3444.7941,N,08627.9047,W,1,04,0.9,150.876,M,0.0,M,,*6B
$GPRMC,072518,A,3444.7941,N,08627.9047,W,000.0,000.0,130615,0,E*7E
$GPGGA,072518,3444.7941,N,08627.9047,W,1,04,0.9,150.876,M,0.0,M,,*64
$GPRMC,072537,A,3444.7940,N,08627.9047,W,000.0,000.0,130615,0,E*72
$GPGGA,072537,3444.7940,N,08627.9047,W,1,04,0.9,150.876,M,0.0,M,,*68
$GPRMC,072538,A,3444.7940,N,08627.9047,W,000.0,000.0,130615,0,E*7D
$GPGGA,072538,3444.7940,N,08627.9047,W,1,04,0.9,150.876,M,0.0,M,,*67
$GPRMC,072558,A,3444.7940,N,08627.9047,W,000.0,000.0,130615,0,E*7B
$GPGGA,072558,3444.7940,N,08627.9047,W,1,04,0.9,150.876,M,0.0,M,,*61
$GPRMC,072559,A,3444.7940,N,08627.9047,W,000.0,000.0,130615,0,E*7A
$GPGGA,072559,3444.7940,N,08627.9047,W,1,04,0.9,150.876,M,0.0,M,,*60
$GPRMC,072618,A,3444.7939,N,08627.9048,W,000.0,000.0,130615,0,E*7D
$GPGGA,072618,3444.7939,N,08627.9048,W,1,04,0.9,150.876,M,0.0,M,,*67
$GPRMC,072619,A,3444.7939,N,08627.9048,W,000.0,000.0,130615,0,E*7C
$GPGGA,072619,3444.7939,N,08627.9048,W,1,04,0.9,150.876,M,0.0,M,,*66
$GPRMC,072627,A,3444.7936,N,08627.9068,W,000.0,000.0,130615,0,E*7C
$GPGGA,072627,3444.7936,N,08627.9068,W,1,04,0.9,152.7048,M,0.0,M,,*56
$GPRMC,072628,A,3444.7932,N,08627.9074,W,000.0,000.0,130615,0,E*7A
$GPGGA,072628,3444.7932,N,08627.9074,W,1,04,0.9,162.7632,M,0.0,M,,*58
$GPRMC,072631,A,3444.7932,N,08627.9082,W,000.0,000.0,130615,0,E*7B
$GPGGA,072631,3444.7932,N,08627.9082,W,1,04,0.9,174.9552,M,0.0,M,,*55
$GPRMC,072641,A,3444.7951,N,08627.9083,W,000.0,000.0,130615,0,E*78
$GPGGA,072641,3444.7951,N,08627.9083,W,1,04,0.9,185.928,M,0.0,M,,*60
$GPRMC,072700,A,3444.7951,N,08627.9083,W,000.0,000.0,130615,0,E*7C
$GPGGA,072700,3444.7951,N,08627.9083,W,1,04,0.9,186.8424,M,0.0,M,,*5E
$GPRMC,072701,A,3444.7951,N,08627.9083,W,000.0,000.0,130615,0,E*7D
$GPGGA,072701,3444.7951,N,08627.9083,W,1,04,0.9,186.8424,M,0.0,M,,*5F
$GPRMC,072721,A,3444.7951,N,08627.9082,W,000.0,000.0,130615,0,E*7E
$GPGGA,072721,3444.7951,N,08627.9082,W,1,04,0.9,186.8424,M,0.0,M,,*5C
$GPRMC,072722,A,3444.7951,N,08627.9082,W,000.0,000.0,130615,0,E*7D
$GPGGA,072722,3444.7951,N,08627.9082,W,1,04,0.9,186.8424,M,0.0,M,,*5F
$GPRMC,072741,A,3444.7952,N,08627.9083,W,000.0,000.0,130615,0,E*7A
$GPGGA,072741,3444.7952,N,08627.9083,W,1,04,0.9,186.8424,M,0.0,M,,*58
$GPRMC,072742,A,3444.7952,N,08627.9083,W,000.0,000.0,130615,0,E*79
$GPGGA,072742,3444.7952,N,08627.9083,W,1,04,0.9,186.8424,M,0.0,M,,*5B
$GPRMC,072802,A,3444.7952,N,08627.9082,W,000.0,000.0,130615,0,E*73
$GPGGA,072802,3444.7952,N,08627.9082,W,1,04,0.9,186.8424,M,0.0,M,,*51
$GPRMC,072803,A,3444.7952,N,08627.9082,W,000.0,000.0,130615,0,E*72
$GPGGA,072803,3444.7952,N,08627.9082,W,1,04,0.9,186.8424,M,0.0,M,,*50
$GPRMC,072822,A,3444.7952,N,08627.9082,W,000.0,000.0,130615,0,E*71
$GPGGA,072822,3444.7952,N,08627.9082,W,1,04,0.9,186.8424,M,0.0,M,,*53
$GPRMC,072823,A,3444.7952,N,08627.9082,W,000.0,000.0,130615,0,E*70
$GPGGA,072823,3444.7952,N,08627.9082,W,1,04,0.9,186.8424,M,0.0,M,,*52
$GPRMC,072843,A,3444.7953,N,08627.9082,W,000.0,000.0,130615,0,E*77
$GPGGA,072843,3444.7953,N,08627.9082,W,1,04,0.9,186.8424,M,0.0,M,,*55
$GPRMC,072844,A,3444.7953,N,08627.9082,W,000.0,000.0,130615,0,E*70
$GPGGA,072844,3444.7953,N,08627.9082,W,1,04,0.9,186.8424,M,0.0,M,,*52
$GPRMC,072903,A,3444.7945,N,08627.9085,W,000.0,000.0,130615,0,E*72
$GPGGA,072903,3444.7945,N,08627.9085,W,1,04,0.9,189.8904,M,0.0,M,,*50
$GPRMC,072904,A,3444.7945,N,08627.9085,W,000.0,000.0,130615,0,E*75
$GPGGA,072904,3444.7945,N,08627.9085,W,1,04,0.9,189.8904,M,0.0,M,,*57
$GPRMC,072924,A,3444.7945,N,08627.9085,W,000.0,000.0,130615,0,E*77
$GPGGA,072924,3444.7945,N,08627.9085,W,1,04,0.9,189.8904,M,0.0,M,,*55
$GPRMC,072925,A,3444.7945,N,08627.9085,W,000.0,000.0,130615,0,E*76
$GPGGA,072925,3444.7945,N,08627.9085,W,1,04,0.9,189.8904,M,0.0,M,,*54
$GPRMC,072945,A,3444.7945,N,08627.9085,W,000.0,000.0,130615,0,E*70
$GPGGA,072945,3444.7945,N,08627.9085,W,1,04,0.9,189.8904,M,0.0,M,,*52
$GPRMC,072946,A,3444.7948,N,08627.9085,W,000.0,000.0,130615,0,E*7E
$GPGGA,072946,3444.7948,N,08627.9085,W,1,04,0.9,189.8904,M,0.0,M,,*5C
$GPRMC,072948,A,3444.7967,N,08627.9078,W,003.0,006.0,130615,0,E*7A
$GPGGA,072948,3444.7967,N,08627.9078,W,1,04,0.9,189.8904,M,0.0,M,,*5D
$GPRMC,072949,A,3444.7975,N,08627.9069,W,003.0,022.0,130615,0,E*7E
$GPGGA,072949,3444.7975,N,08627.9069,W,1,04,0.9,189.8904,M,0.0,M,,*5F
$GPRMC,072950,A,3444.7984,N,08627.9059,W,004.0,039.0,130615,0,E*76
$GPGGA,072950,3444.7984,N,08627.9059,W,1,04,0.9,189.8904,M,0.0,M,,*5A
$GPRMC,072951,A,3444.7989,N,08627.9044,W,004.0,042.0,130615,0,E*7A
$GPGGA,072951,3444.7989,N,08627.9044,W,1,04,0.9,189.8904,M,0.0,M,,*5A
$GPRMC,072952,A,3444.7990,N,08627.9026,W,004.0,062.0,130615,0,E*77
$GPGGA,072952,3444.7990,N,08627.9026,W,1,04,0.9,189.8904,M,0.0,M,,*55
$GPRMC,072953,A,3444.7989,N,08627.9006,W,005.0,077.0,130615,0,E*79
$GPGGA,072953,3444.7989,N,08627.9006,W,1,04,0.9,189.8904,M,0.0,M,,*5E
$GPRMC,072954,A,3444.7988,N,08627.8987,W,005.0,087.0,130615,0,E*71
$GPGGA,072954,3444.7988,N,08627.8987,W,1,04,0.9,189.8904,M,0.0,M,,*59
$GPRMC,072955,A,3444.7986,N,08627.8967,W,005.0,091.0,130615,0,E*77
$GPGGA,072955,3444.7986,N,08627.8967,W,1,04,0.9,189.8904,M,0.0,M,,*58
$GPRMC,073012,A,3444.7972,N,08627.8572,W,006.0,090.0,130615,0,E*7D
$GPGGA,073012,3444.7972,N,08627.8572,W,1,04,0.9,192.9384,M,0.0,M,,*59
$GPRMC,073015,A,3444.7976,N,08627.8512,W,006.0,089.0,130615,0,E*70
$GPGGA,073015,3444.7976,N,08627.8512,W,1,04,0.9,193.8528,M,0.0,M,,*5C
$GPRMC,073016,A,3444.7986,N,08627.8499,W,006.0,078.0,130615,0,E*70
$GPGGA,073016,3444.7986,N,08627.8499,W,1,04,0.9,193.8528,M,0.0,M,,*52
$GPRMC,073017,A,3444.8001,N,08627.8492,W,005.0,058.0,130615,0,E*72
$GPGGA,073017,3444.8001,N,08627.8492,W,1,04,0.9,193.8528,M,0.0,M,,*51
$GPRMC,073018,A,3444.8019,N,08627.8492,W,005.0,032.0,130615,0,E*78
$GPGGA,073018,3444.8019,N,08627.8492,W,1,04,0.9,193.8528,M,0.0,M,,*57
$GPRMC,073019,A,3444.8037,N,08627.8495,W,006.0,012.0,130615,0,E*73
$GPGGA,073019,3444.8037,N,08627.8495,W,1,04,0.9,193.8528,M,0.0,M,,*5D
$GPRMC,073020,A,3444.8055,N,08627.8498,W,006.0,001.0,130615,0,E*72
$GPGGA,073020,3444.8055,N,08627.8498,W,1,04,0.9,192.9384,M,0.0,M,,*5E
$GPRMC,073021,A,3444.8072,N,08627.8500,W,006.0,358.0,130615,0,E*79
$GPGGA,073021,3444.8072,N,08627.8500,W,1,04,0.9,192.9384,M,0.0,M,,*5A
$GPRMC,073025,A,3444.8116,N,08627.8500,W,003.0,005.0,130615,0,E*70
$GPGGA,073025,3444.8116,N,08627.8500,W,1,04,0.9,192.9384,M,0.0,M,,*5D
$GPRMC,073026,A,3444.8121,N,08627.8495,W,003.0,017.0,130615,0,E*79
$GPGGA,073026,3444.8121,N,08627.8495,W,1,04,0.9,192.9384,M,0.0,M,,*57
$GPRMC,073027,A,3444.8125,N,08627.8491,W,003.0,029.0,130615,0,E*75
$GPGGA,073027,3444.8125,N,08627.8491,W,1,04,0.9,192.9384,M,0.0,M,,*56
$GPRMC,073028,A,3444.8120,N,08627.8493,W,000.0,029.0,130615,0,E*7E
$GPGGA,073028,3444.8120,N,08627.8493,W,1,04,0.9,191.7192,M,0.0,M,,*56
$GPRMC,073047,A,3444.8116,N,08627.8492,W,000.0,029.0,130615,0,E*73
$GPGGA,073047,3444.8116,N,08627.8492,W,1,04,0.9,192.9384,M,0.0,M,,*53
$GPRMC,073048,A,3444.8116,N,08627.8492,W,000.0,029.0,130615,0,E*7C
$GPGGA,073048,3444.8116,N,08627.8492,W,1,04,0.9,192.9384,M,0.0,M,,*5C
$GPRMC,073108,A,3444.8116,N,08627.8492,W,000.0,029.0,130615,0,E*79
$GPGGA,073108,3444.8116,N,08627.8492,W,1,04,0.9,192.9384,M,0.0,M,,*59
$GPRMC,073109,A,3444.8116,N,08627.8492,W,000.0,029.0,130615,0,E*78
$GPGGA,073109,3444.8116,N,08627.8492,W,1,04,0.9,192.9384,M,0.0,M,,*58
$GPRMC,073128,A,3444.8116,N,08627.8492,W,000.0,029.0,130615,0,E*7B
$GPGGA,073128,3444.8116,N,08627.8492,W,1,04,0.9,192.9384,M,0.0,M,,*5B
$GPRMC,073129,A,3444.8116,N,08627.8492,W,000.0,029.0,130615,0,E*7A
$GPGGA,073129,3444.8116,N,08627.8492,W,1,04,0.9,192.9384,M,0.0,M,,*5A
$GPRMC,073149,A,3444.8116,N,08627.8492,W,000.0,029.0,130615,0,E*7C
$GPGGA,073149,3444.8116,N,08627.8492,W,1,04,0.9,192.9384,M,0.0,M,,*5C
$GPRMC,073150,A,3444.8116,N,08627.8492,W,000.0,029.0,130615,0,E*74
$GPGGA,073150,3444.8116,N,08627.8492,W,1,04,0.9,192.9384,M,0.0,M,,*54
$GPRMC,073210,A,3444.8116,N,08627.8492,W,000.0,029.0,130615,0,E*73
$GPGGA,073210,3444.8116,N,08627.8492,W,1,04,0.9,192.9384,M,0.0,M,,*53
$GPRMC,073211,A,3444.8116,N,08627.8492,W,000.0,029.0,130615,0,E*72
$GPGGA,073211,3444.8116,N,08627.8492,W,1,04,0.9,192.9384,M,0.0,M,,*52
$GPRMC,073225,A,3444.8154,N,08627.8508,W,000.0,029.0,130615,0,E*71
$GPGGA,073225,3444.8154,N,08627.8508,W,1,04,0.9,191.7192,M,0.0,M,,*59
$GPRMC,073226,A,3444.8165,N,08627.8511,W,003.0,346.0,130615,0,E*71
$GPGGA,073226,3444.8165,N,08627.8511,W,1,04,0.9,191.7192,M,0.0,M,,*50
$GPRMC,073228,A,3444.8189,N,08627.8513,W,003.0,354.0,130615,0,E*7C
$GPGGA,073228,3444.8189,N,08627.8513,W,1,04,0.9,191.7192,M,0.0,M,,*5E
$GPRMC,073229,A,3444.8201,N,08627.8513,W,003.0,358.0,130615,0,E*72
$GPGGA,073229,3444.8201,N,08627.8513,W,1,04,0.9,192.9384,M,0.0,M,,*54
$GPRMC,073230,A,3444.8214,N,08627.8512,W,003.0,001.0,130615,0,E*70
$GPGGA,073230,3444.8214,N,08627.8512,W,1,04,0.9,193.8528,M,0.0,M,,*59
$GPRMC,073236,A,3444.8289,N,08627.8516,W,003.0,350.0,130615,0,E*71
$GPGGA,073236,3444.8289,N,08627.8516,W,1,04,0.9,193.8528,M,0.0,M,,*5F
$GPRMC,073237,A,3444.8299,N,08627.8524,W,003.0,335.0,130615,0,E*73
$GPGGA,073237,3444.8299,N,08627.8524,W,1,04,0.9,193.8528,M,0.0,M,,*5E
$GPRMC,073238,A,3444.8307,N,08627.8537,W,003.0,318.0,130615,0,E*77
$GPGGA,073238,3444.8307,N,08627.8537,W,1,04,0.9,193.8528,M,0.0,M,,*55
$GPRMC,073239,A,3444.8314,N,08627.8557,W,004.0,306.0,130615,0,E*7A
$GPGGA,073239,3444.8314,N,08627.8557,W,1,04,0.9,194.7672,M,0.0,M,,*54
$GPRMC,073240,A,3444.8318,N,08627.8578,W,005.0,292.0,130615,0,E*78
$GPGGA,073240,3444.8318,N,08627.8578,W,1,04,0.9,194.7672,M,0.0,M,,*5B
$GPRMC,073241,A,3444.8318,N,08627.8601,W,006.0,282.0,130615,0,E*76
$GPGGA,073241,3444.8318,N,08627.8601,W,1,04,0.9,194.7672,M,0.0,M,,*57
$GPRMC,073242,A,3444.8318,N,08627.8622,W,006.0,272.0,130615,0,E*7B
$GPGGA,073242,3444.8318,N,08627.8622,W,1,04,0.9,194.7672,M,0.0,M,,*55
$GPRMC,073244,A,3444.8315,N,08627.8667,W,006.0,269.0,130615,0,E*7B
$GPGGA,073244,3444.8315,N,08627.8667,W,1,04,0.9,194.7672,M,0.0,M,,*5F
$GPRMC,073252,A,3444.8311,N,08627.8864,W,006.0,269.0,130615,0,E*75
$GPGGA,073252,3444.8311,N,08627.8864,W,1,04,0.9,195.9864,M,0.0,M,,*57
$GPRMC,073253,A,3444.8308,N,08627.8890,W,006.0,266.0,130615,0,E*78
$GPGGA,073253,3444.8308,N,08627.8890,W,1,04,0.9,195.9864,M,0.0,M,,*55
$GPRMC,073255,A,3444.8304,N,08627.8942,W,006.0,262.0,130615,0,E*78
$GPGGA,073255,3444.8304,N,08627.8942,W,1,04,0.9,196.9008,M,0.0,M,,*50
$GPRMC,073305,A,3444.8278,N,08627.9191,W,007.0,263.0,130615,0,E*71
$GPGGA,073305,3444.8278,N,08627.9191,W,1,04,0.9,194.7672,M,0.0,M,,*5E
$GPRMC,073307,A,3444.8287,N,08627.9227,W,007.0,275.0,130615,0,E*7A
$GPGGA,073307,3444.8287,N,08627.9227,W,1,04,0.9,194.7672,M,0.0,M,,*52
$GPRMC,073308,A,3444.8293,N,08627.9226,W,006.0,294.0,130615,0,E*7F
$GPGGA,073308,3444.8293,N,08627.9226,W,1,04,0.9,195.9864,M,0.0,M,,*5F
$GPRMC,073309,A,3444.8295,N,08627.9215,W,000.0,294.0,130615,0,E*7E
$GPGGA,073309,3444.8295,N,08627.9215,W,1,04,0.9,194.7672,M,0.0,M,,*5E
$GPRMC,073329,A,3444.8302,N,08627.9204,W,000.0,294.0,130615,0,E*73
$GPGGA,073329,3444.8302,N,08627.9204,W,1,04,0.9,195.9864,M,0.0,M,,*55
$GPRMC,073330,A,3444.8303,N,08627.9204,W,000.0,294.0,130615,0,E*7A
$GPGGA,073330,3444.8303,N,08627.9204,W,1,04,0.9,195.9864,M,0.0,M,,*5C
$GPRMC,073349,A,3444.8303,N,08627.9204,W,000.0,294.0,130615,0,E*74
$GPGGA,073349,3444.8303,N,08627.9204,W,1,04,0.9,195.9864,M,0.0,M,,*52
$GPRMC,073350,A,3444.8303,N,08627.9204,W,000.0,294.0,130615,0,E*7C
$GPGGA,073350,3444.8303,N,08627.9204,W,1,04,0.9,195.9864,M,0.0,M,,*5A
$GPRMC,073410,A,3444.8310,N,08627.9209,W,000.0,294.0,130615,0,E*70
$GPGGA,073410,3444.8310,N,08627.9209,W,1,04,0.9,195.9864,M,0.0,M,,*56
$GPRMC,073411,A,3444.8318,N,08627.9218,W,000.0,294.0,130615,0,E*79
$GPGGA,073411,3444.8318,N,08627.9218,W,1,04,0.9,195.9864,M,0.0,M,,*5F
$GPRMC,073412,A,3444.8328,N,08627.9232,W,003.0,319.0,130615,0,E*76
$GPGGA,073412,3444.8328,N,08627.9232,W,1,04,0.9,195.9864,M,0.0,M,,*57
$GPRMC,073413,A,3444.8335,N,08627.9248,W,005.0,310.0,130615,0,E*79
$GPGGA,073413,3444.8335,N,08627.9248,W,1,04,0.9,195.9864,M,0.0,M,,*57
$GPRMC,073414,A,3444.8340,N,08627.9266,W,005.0,301.0,130615,0,E*70
$GPGGA,073414,3444.8340,N,08627.9266,W,1,04,0.9,195.9864,M,0.0,M,,*5E
$GPRMC,073415,A,3444.8344,N,08627.9285,W,005.0,293.0,130615,0,E*72
$GPGGA,073415,3444.8344,N,08627.9285,W,1,04,0.9,194.7672,M,0.0,M,,*50
$GPRMC,073416,A,3444.8347,N,08627.9305,W,005.0,286.0,130615,0,E*7F
$GPGGA,073416,3444.8347,N,08627.9305,W,1,04,0.9,194.7672,M,0.0,M,,*59
$GPRMC,073417,A,3444.8351,N,08627.9325,W,005.0,283.0,130615,0,E*7E
$GPGGA,073417,3444.8351,N,08627.9325,W,1,04,0.9,194.7672,M,0.0,M,,*5D
$GPRMC,073419,A,3444.8363,N,08627.9364,W,006.0,288.0,130615,0,E*7C
$GPGGA,073419,3444.8363,N,08627.9364,W,1,04,0.9,194.7672,M,0.0,M,,*57
$GPRMC,073420,A,3444.8371,N,08627.9383,W,006.0,292.0,130615,0,E*77
$GPGGA,073420,3444.8371,N,08627.9383,W,1,04,0.9,195.9864,M,0.0,M,,*51
$GPRMC,073421,A,3444.8380,N,08627.9400,W,006.0,296.0,130615,0,E*70
$GPGGA,073421,3444.8380,N,08627.9400,W,1,04,0.9,195.9864,M,0.0,M,,*52
$GPRMC,073422,A,3444.8393,N,08627.9416,W,006.0,303.0,130615,0,E*7B
$GPGGA,073422,3444.8393,N,08627.9416,W,1,04,0.9,195.9864,M,0.0,M,,*54
$GPRMC,073423,A,3444.8407,N,08627.9428,W,006.0,311.0,130615,0,E*7E
$GPGGA,073423,3444.8407,N,08627.9428,W,1,04,0.9,195.9864,M,0.0,M,,*52
$GPRMC,073424,A,3444.8423,N,08627.9435,W,006.0,320.0,130615,0,E*71
$GPGGA,073424,3444.8423,N,08627.9435,W,1,04,0.9,195.9864,M,0.0,M,,*5F
$GPRMC,073425,A,3444.8439,N,08627.9433,W,006.0,335.0,130615,0,E*79
$GPGGA,073425,3444.8439,N,08627.9433,W,1,04,0.9,195.9864,M,0.0,M,,*53
$GPRMC,073426,A,3444.8450,N,08627.9422,W,006.0,358.0,130615,0,E*7E
$GPGGA,073426,3444.8450,N,08627.9422,W,1,04,0.9,195.9864,M,0.0,M,,*5F
$GPRMC,073427,A,3444.8457,N,08627.9406,W,005.0,026.0,130615,0,E*77
$GPGGA,073427,3444.8457,N,08627.9406,W,1,04,0.9,195.9864,M,0.0,M,,*5F
$GPRMC,073428,A,3444.8459,N,08627.9386,W,005.0,052.0,130615,0,E*7A
$GPGGA,073428,3444.8459,N,08627.9386,W,1,04,0.9,195.9864,M,0.0,M,,*51
$GPRMC,073429,A,3444.8458,N,08627.9361,W,005.0,072.0,130615,0,E*71
$GPGGA,073429,3444.8458,N,08627.9361,W,1,04,0.9,195.9864,M,0.0,M,,*58
$GPRMC,073430,A,3444.8456,N,08627.9313,W,006.0,086.0,130615,0,E*7A
$GPGGA,073430,3444.8456,N,08627.9313,W,1,04,0.9,195.9864,M,0.0,M,,*5B
$GPRMC,073431,A,3444.8446,N,08627.9233,W,013.0,090.0,130615,0,E*7A
$GPGGA,073431,3444.8446,N,08627.9233,W,1,04,0.9,195.9864,M,0.0,M,,*58
$GPRMC,073432,A,3444.8444,N,08627.9155,W,018.0,092.0,130615,0,E*71
$GPGGA,073432,3444.8444,N,08627.9155,W,1,04,0.9,195.9864,M,0.0,M,,*5A
$GPRMC,073433,A,3444.8442,N,08627.9063,W,023.0,092.0,130615,0,E*7A
$GPGGA,073433,3444.8442,N,08627.9063,W,1,04,0.9,195.9864,M,0.0,M,,*59
$GPRMC,073434,A,3444.8441,N,08627.8960,W,027.0,091.0,130615,0,E*72
$GPGGA,073434,3444.8441,N,08627.8960,W,1,04,0.9,195.9864,M,0.0,M,,*56
$GPRMC,073435,A,3444.8439,N,08627.8846,W,030.0,091.0,130615,0,E*7F
$GPGGA,073435,3444.8439,N,08627.8846,W,1,04,0.9,195.9864,M,0.0,M,,*5D
$GPRMC,073437,A,3444.8434,N,08627.8611,W,034.0,091.0,130615,0,E*78
$GPGGA,073437,3444.8434,N,08627.8611,W,1,04,0.9,196.9008,M,0.0,M,,*5F
$GPRMC,073441,A,3444.8424,N,08627.8150,W,034.0,091.0,130615,0,E*7A
$GPGGA,073441,3444.8424,N,08627.8150,W,1,04,0.9,209.7024,M,0.0,M,,*58
$GPRMC,073445,A,3444.8409,N,08627.7678,W,036.0,092.0,130615,0,E*72
$GPGGA,073445,3444.8409,N,08627.7678,W,1,04,0.9,222.8088,M,0.0,M,,*51
$GPRMC,073449,A,3444.8403,N,08627.7180,W,037.0,090.0,130615,0,E*77
$GPGGA,073449,3444.8403,N,08627.7180,W,1,04,0.9,234.696,M,0.0,M,,*61
$GPRMC,073453,A,3444.8412,N,08627.6693,W,036.0,089.0,130615,0,E*71
$GPGGA,073453,3444.8412,N,08627.6693,W,1,04,0.9,246.888,M,0.0,M,,*6A
$GPRMC,073457,A,3444.8418,N,08627.6207,W,036.0,089.0,130615,0,E*76
$GPGGA,073457,3444.8418,N,08627.6207,W,1,04,0.9,259.9944,M,0.0,M,,*5B
$GPRMC,073501,A,3444.8410,N,08627.5716,W,037.0,091.0,130615,0,E*72
$GPGGA,073501,3444.8410,N,08627.5716,W,1,04,0.9,271.8816,M,0.0,M,,*5A
$GPRMC,073505,A,3444.8395,N,08627.5227,W,036.0,092.0,130615,0,E*79
$GPGGA,073505,3444.8395,N,08627.5227,W,1,04,0.9,283.7688,M,0.0,M,,*58
$GPRMC,073508,A,3444.8382,N,08627.4861,W,036.0,091.0,130615,0,E*78
$GPGGA,073508,3444.8382,N,08627.4861,W,1,04,0.9,294.7416,M,0.0,M,,*59
$GPRMC,073511,A,3444.8347,N,08627.4462,W,039.0,095.0,130615,0,E*7D
$GPGGA,073511,3444.8347,N,08627.4462,W,1,04,0.9,300.8376,M,0.0,M,,*55
$GPRMC,073512,A,3444.8322,N,08627.4325,W,040.0,098.0,130615,0,E*7A
$GPGGA,073512,3444.8322,N,08627.4325,W,1,04,0.9,302.9712,M,0.0,M,,*54
$GPRMC,073513,A,3444.8293,N,08627.4186,W,041.0,101.0,130615,0,E*7B
$GPGGA,073513,3444.8293,N,08627.4186,W,1,04,0.9,304.8,M,0.0,M,,*66
$GPRMC,073514,A,3444.8257,N,08627.4049,W,042.0,104.0,130615,0,E*70
$GPGGA,073514,3444.8257,N,08627.4049,W,1,04,0.9,306.9336,M,0.0,M,,*5E
$GPRMC,073515,A,3444.8215,N,08627.3911,W,043.0,109.0,130615,0,E*78
$GPGGA,073515,3444.8215,N,08627.3911,W,1,04,0.9,309.9816,M,0.0,M,,*5C
$GPRMC,073516,A,3444.8163,N,08627.3783,W,043.0,113.0,130615,0,E*77
$GPGGA,073516,3444.8163,N,08627.3783,W,1,04,0.9,311.8104,M,0.0,M,,*5A
$GPRMC,073517,A,3444.8099,N,08627.3661,W,043.0,117.0,130615,0,E*7B
$GPGGA,073517,3444.8099,N,08627.3661,W,1,04,0.9,315.7728,M,0.0,M,,*51
$GPRMC,073518,A,3444.8030,N,08627.3549,W,043.0,121.0,130615,0,E*7B
$GPGGA,073518,3444.8030,N,08627.3549,W,1,04,0.9,319.7352,M,0.0,M,,*51
$GPRMC,073519,A,3444.7959,N,08627.3432,W,043.0,125.0,130615,0,E*7A
$GPGGA,073519,3444.7959,N,08627.3432,W,1,04,0.9,322.7832,M,0.0,M,,*51
$GPRMC,073520,A,3444.7882,N,08627.3321,W,043.0,128.0,130615,0,E*7F
$GPGGA,073520,3444.7882,N,08627.3321,W,1,04,0.9,325.8312,M,0.0,M,,*58
$GPRMC,073521,A,3444.7801,N,08627.3217,W,043.0,131.0,130615,0,E*79
$GPGGA,073521,3444.7801,N,08627.3217,W,1,04,0.9,328.8792,M,0.0,M,,*57
$GPRMC,073522,A,3444.7716,N,08627.3116,W,043.0,134.0,130615,0,E*74
$GPGGA,073522,3444.7716,N,08627.3116,W,1,04,0.9,331.9272,M,0.0,M,,*5D
$GPRMC,073524,A,3444.7536,N,08627.2918,W,043.0,137.0,130615,0,E*76
$GPGGA,073524,3444.7536,N,08627.2918,W,1,04,0.9,337.7184,M,0.0,M,,*5E
$GPRMC,073526,A,3444.7336,N,08627.2738,W,044.0,142.0,130615,0,E*7B
$GPGGA,073526,3444.7336,N,08627.2738,W,1,04,0.9,343.8144,M,0.0,M,,*56
$GPRMC,073527,A,3444.7228,N,08627.2659,W,044.0,145.0,130615,0,E*75
$GPGGA,073527,3444.7228,N,08627.2659,W,1,04,0.9,345.948,M,0.0,M,,*65
$GPRMC,073528,A,3444.7120,N,08627.2584,W,045.0,149.0,130615,0,E*7F
$GPGGA,073528,3444.7120,N,08627.2584,W,1,04,0.9,347.7768,M,0.0,M,,*5B
$GPRMC,073530,A,3444.6898,N,08627.2445,W,045.0,153.0,130615,0,E*7A
$GPGGA,073530,3444.6898,N,08627.2445,W,1,04,0.9,351.7392,M,0.0,M,,*53
$GPRMC,073535,A,3444.6329,N,08627.2126,W,045.0,156.0,130615,0,E*7B
$GPGGA,073535,3444.6329,N,08627.2126,W,1,04,0.9,363.9312,M,0.0,M,,*50
$GPRMC,073541,A,3444.5597,N,08627.1793,W,047.0,159.0,130615,0,E*7E
$GPGGA,073541,3444.5597,N,08627.1793,W,1,04,0.9,371.856,M,0.0,M,,*69
$GPRMC,073548,A,3444.4714,N,08627.1420,W,049.0,160.0,130615,0,E*70
$GPGGA,073548,3444.4714,N,08627.1420,W,1,04,0.9,383.7432,M,0.0,M,,*57
$GPRMC,073553,A,3444.4059,N,08627.1162,W,050.0,162.0,130615,0,E*7D
$GPGGA,073553,3444.4059,N,08627.1162,W,1,04,0.9,395.9352,M,0.0,M,,*58
$GPRMC,073559,A,3444.3362,N,08627.0872,W,054.0,160.0,130615,0,E*74
$GPGGA,073559,3444.3362,N,08627.0872,W,1,04,0.9,401.7264,M,0.0,M,,*57
$GPRMC,073605,A,3444.2497,N,08627.0496,W,055.0,161.0,130615,0,E*74
$GPGGA,073605,3444.2497,N,08627.0496,W,1,04,0.9,404.7744,M,0.0,M,,*55
$GPRMC,073609,A,3444.1786,N,08627.0188,W,054.0,160.0,130615,0,E*72
$GPGGA,073609,3444.1786,N,08627.0188,W,1,04,0.9,415.7472,M,0.0,M,,*55
$GPRMC,073617,A,3444.0680,N,08626.9709,W,053.0,159.0,130615,0,E*71
$GPGGA,073617,3444.0680,N,08626.9709,W,1,04,0.9,427.9392,M,0.0,M,,*5D
$GPRMC,073622,A,3443.9972,N,08626.9364,W,055.0,156.0,130615,0,E*7D
$GPGGA,073622,3443.9972,N,08626.9364,W,1,04,0.9,434.9496,M,0.0,M,,*59
$GPRMC,073631,A,3443.8711,N,08626.8629,W,055.0,154.0,130615,0,E*7A
$GPGGA,073631,3443.8711,N,08626.8629,W,1,04,0.9,445.9224,M,0.0,M,,*55
$GPRMC,073637,A,3443.7876,N,08626.8177,W,055.0,157.0,130615,0,E*72
$GPGGA,073637,3443.7876,N,08626.8177,W,1,04,0.9,456.895200000001,M,0.0,M,,*56
$GPRMC,073639,A,3443.7584,N,08626.8047,W,056.0,160.0,130615,0,E*79
$GPGGA,073639,3443.7584,N,08626.8047,W,1,04,0.9,457.809600000001,M,0.0,M,,*5A
$GPRMC,073645,A,3443.6663,N,08626.7711,W,057.0,165.0,130615,0,E*76
$GPGGA,073645,3443.6663,N,08626.7711,W,1,04,0.9,456.895200000001,M,0.0,M,,*51
$GPRMC,073653,A,3443.5387,N,08626.7330,W,061.0,164.0,130615,0,E*7E
$GPGGA,073653,3443.5387,N,08626.7330,W,1,04,0.9,454.761600000001,M,0.0,M,,*5F
$GPRMC,073706,A,3443.3242,N,08626.6544,W,062.0,163.0,130615,0,E*71
$GPGGA,073706,3443.3242,N,08626.6544,W,1,04,0.9,453.847200000001,M,0.0,M,,*5C
$GPRMC,073710,A,3443.2586,N,08626.6293,W,062.0,161.0,130615,0,E*77
$GPGGA,073710,3443.2586,N,08626.6293,W,1,04,0.9,453.847200000001,M,0.0,M,,*58
$GPRMC,073729,A,3442.9529,N,08626.4961,W,063.0,160.0,130615,0,E*76
$GPGGA,073729,3442.9529,N,08626.4961,W,1,04,0.9,453.847200000001,M,0.0,M,,*59
$GPRMC,073731,A,3442.9201,N,08626.4806,W,063.0,158.0,130615,0,E*79
$GPGGA,073731,3442.9201,N,08626.4806,W,1,04,0.9,453.847200000001,M,0.0,M,,*5D
$GPRMC,073739,A,3442.7945,N,08626.4142,W,062.0,155.0,130615,0,E*71
$GPGGA,073739,3442.7945,N,08626.4142,W,1,04,0.9,459.943200000001,M,0.0,M,,*56
$GPRMC,073747,A,3442.6658,N,08626.3443,W,064.0,155.0,130615,0,E*7F
$GPGGA,073747,3442.6658,N,08626.3443,W,1,04,0.9,457.809600000001,M,0.0,M,,*5B
$GPRMC,073752,A,3442.5828,N,08626.3007,W,066.0,158.0,130615,0,E*7A
$GPGGA,073752,3442.5828,N,08626.3007,W,1,04,0.9,451.713600000001,M,0.0,M,,*53
$GPRMC,073807,A,3442.3360,N,08626.1830,W,064.0,158.0,130615,0,E*78
$GPGGA,073807,3442.3360,N,08626.1830,W,1,04,0.9,451.713600000001,M,0.0,M,,*53
$GPRMC,073810,A,3442.2878,N,08626.1614,W,062.0,159.0,130615,0,E*72
$GPGGA,073810,3442.2878,N,08626.1614,W,1,04,0.9,452.932800000001,M,0.0,M,,*5E
$GPRMC,073818,A,3442.1624,N,08626.1013,W,060.0,156.0,130615,0,E*72
$GPGGA,073818,3442.1624,N,08626.1013,W,1,04,0.9,457.809600000001,M,0.0,M,,*51
$GPRMC,073830,A,3441.9756,N,08626.0066,W,059.0,156.0,130615,0,E*7E
$GPGGA,073830,3441.9756,N,08626.0066,W,1,04,0.9,460.857600000001,M,0.0,M,,*58
$GPRMC,073835,A,3441.8972,N,08625.9695,W,061.0,159.0,130615,0,E*76
$GPGGA,073835,3441.8972,N,08625.9695,W,1,04,0.9,460.857600000001,M,0.0,M,,*54
$GPRMC,073840,A,3441.8169,N,08625.9341,W,060.0,159.0,130615,0,E*7B
$GPGGA,073840,3441.8169,N,08625.9341,W,1,04,0.9,461.772000000001,M,0.0,M,,*57
$GPRMC,073854,A,3441.6024,N,08625.8343,W,058.0,158.0,130615,0,E*71
$GPGGA,073854,3441.6024,N,08625.8343,W,1,04,0.9,471.830400000001,M,0.0,M,,*5B
$GPRMC,073901,A,3441.4940,N,08625.7847,W,061.0,161.0,130615,0,E*79
$GPGGA,073901,3441.4940,N,08625.7847,W,1,04,0.9,469.696800000001,M,0.0,M,,*54
$GPRMC,073912,A,3441.3177,N,08625.7141,W,060.0,162.0,130615,0,E*7D
$GPGGA,073912,3441.3177,N,08625.7141,W,1,04,0.9,469.696800000001,M,0.0,M,,*52
$GPRMC,073913,A,3441.3016,N,08625.7083,W,060.0,164.0,130615,0,E*73
$GPGGA,073913,3441.3016,N,08625.7083,W,1,04,0.9,470.916000000001,M,0.0,M,,*5D
$GPRMC,073931,A,3441.0146,N,08625.6140,W,061.0,160.0,130615,0,E*7E
$GPGGA,073931,3441.0146,N,08625.6140,W,1,04,0.9,479.755200000001,M,0.0,M,,*57
$GPRMC,073933,A,3440.9833,N,08625.5975,W,061.0,157.0,130615,0,E*76
$GPGGA,073933,3440.9833,N,08625.5975,W,1,04,0.9,480.974400000001,M,0.0,M,,*56
$GPRMC,073936,A,3440.9366,N,08625.5707,W,062.0,154.0,130615,0,E*73
$GPGGA,073936,3440.9366,N,08625.5707,W,1,04,0.9,480.974400000001,M,0.0,M,,*53
$GPRMC,073940,A,3440.8753,N,08625.5314,W,063.0,151.0,130615,0,E*73
$GPGGA,073940,3440.8753,N,08625.5314,W,1,04,0.9,479.755200000001,M,0.0,M,,*5A
$GPRMC,073944,A,3440.8119,N,08625.4920,W,064.0,154.0,130615,0,E*71
$GPGGA,073944,3440.8119,N,08625.4920,W,1,04,0.9,477.926400000001,M,0.0,M,,*58
$GPRMC,073956,A,3440.6240,N,08625.3766,W,063.0,153.0,130615,0,E*78
$GPGGA,073956,3440.6240,N,08625.3766,W,1,04,0.9,479.755200000001,M,0.0,M,,*53
$GPRMC,074000,A,3440.5608,N,08625.3449,W,062.0,158.0,130615,0,E*7A
$GPGGA,074000,3440.5608,N,08625.3449,W,1,04,0.9,477.926400000001,M,0.0,M,,*59
$GPRMC,074002,A,3440.5291,N,08625.3318,W,061.0,161.0,130615,0,E*76
$GPGGA,074002,3440.5291,N,08625.3318,W,1,04,0.9,479.755200000001,M,0.0,M,,*5E
$GPRMC,074008,A,3440.4319,N,08625.2971,W,060.0,164.0,130615,0,E*7C
$GPGGA,074008,3440.4319,N,08625.2971,W,1,04,0.9,476.707200000001,M,0.0,M,,*58
$GPRMC,074021,A,3440.2206,N,08625.2349,W,061.0,167.0,130615,0,E*7D
$GPGGA,074021,3440.2206,N,08625.2349,W,1,04,0.9,470.916000000001,M,0.0,M,,*51
$GPRMC,074025,A,3440.1547,N,08625.2146,W,062.0,164.0,130615,0,E*75
$GPGGA,074025,3440.1547,N,08625.2146,W,1,04,0.9,472.744800000001,M,0.0,M,,*5A
$GPRMC,074030,A,3440.0725,N,08625.1809,W,063.0,161.0,130615,0,E*73
$GPGGA,074030,3440.0725,N,08625.1809,W,1,04,0.9,471.830400000001,M,0.0,M,,*5B
$GPRMC,074041,A,3439.8915,N,08625.1030,W,063.0,160.0,130615,0,E*7D
$GPGGA,074041,3439.8915,N,08625.1030,W,1,04,0.9,473.964000000001,M,0.0,M,,*52
$GPRMC,074044,A,3439.8419,N,08625.0805,W,063.0,158.0,130615,0,E*7D
$GPGGA,074044,3439.8419,N,08625.0805,W,1,04,0.9,471.830400000001,M,0.0,M,,*5F
$GPRMC,074049,A,3439.7624,N,08625.0385,W,062.0,155.0,130615,0,E*7C
$GPGGA,074049,3439.7624,N,08625.0385,W,1,04,0.9,469.696800000001,M,0.0,M,,*55
$GPRMC,074104,A,3439.5200,N,08624.9110,W,063.0,154.0,130615,0,E*72
$GPGGA,074104,3439.5200,N,08624.9110,W,1,04,0.9,467.868000000001,M,0.0,M,,*52
$GPRMC,074107,A,3439.4718,N,08624.8809,W,065.0,152.0,130615,0,E*7C
$GPGGA,074107,3439.4718,N,08624.8809,W,1,04,0.9,466.953600000001,M,0.0,M,,*52
$GPRMC,074111,A,3439.4071,N,08624.8430,W,065.0,155.0,130615,0,E*72
$GPGGA,074111,3439.4071,N,08624.8430,W,1,04,0.9,464.820000000001,M,0.0,M,,*5A
$GPRMC,074120,A,3439.2628,N,08624.7559,W,065.0,152.0,130615,0,E*7A
$GPGGA,074120,3439.2628,N,08624.7559,W,1,04,0.9,463.905600000001,M,0.0,M,,*52
$GPRMC,074130,A,3439.1032,N,08624.6560,W,065.0,151.0,130615,0,E*7D
$GPGGA,074130,3439.1032,N,08624.6560,W,1,04,0.9,466.953600000001,M,0.0,M,,*50
$GPRMC,074135,A,3439.0254,N,08624.6017,W,064.0,149.0,130615,0,E*76
$GPGGA,074135,3439.0254,N,08624.6017,W,1,04,0.9,467.868000000001,M,0.0,M,,*5D
$GPRMC,074140,A,3438.9478,N,08624.5497,W,063.0,152.0,130615,0,E*76
$GPGGA,074140,3438.9478,N,08624.5497,W,1,04,0.9,469.696800000001,M,0.0,M,,*59
$GPRMC,074158,A,3438.6687,N,08624.3762,W,063.0,153.0,130615,0,E*7C
$GPGGA,074158,3438.6687,N,08624.3762,W,1,04,0.9,472.744800000001,M,0.0,M,,*56
$GPRMC,074201,A,3438.6226,N,08624.3492,W,062.0,154.0,130615,0,E*76
$GPGGA,074201,3438.6226,N,08624.3492,W,1,04,0.9,475.792800000001,M,0.0,M,,*56
$GPRMC,074220,A,3438.3298,N,08624.1730,W,062.0,154.0,130615,0,E*7C
$GPGGA,074220,3438.3298,N,08624.1730,W,1,04,0.9,475.792800000001,M,0.0,M,,*5C
$GPRMC,074221,A,3438.3140,N,08624.1636,W,062.0,153.0,130615,0,E*7B
$GPGGA,074221,3438.3140,N,08624.1636,W,1,04,0.9,475.792800000001,M,0.0,M,,*5C
$GPRMC,074241,A,3438.0032,N,08623.9730,W,061.0,154.0,130615,0,E*76
$GPGGA,074241,3438.0032,N,08623.9730,W,1,04,0.9,478.840800000001,M,0.0,M,,*58
$GPRMC,074242,A,3437.9879,N,08623.9643,W,060.0,155.0,130615,0,E*71
$GPGGA,074242,3437.9879,N,08623.9643,W,1,04,0.9,479.755200000001,M,0.0,M,,*5F
$GPRMC,074250,A,3437.8637,N,08623.8961,W,061.0,156.0,130615,0,E*7B
$GPGGA,074250,3437.8637,N,08623.8961,W,1,04,0.9,481.888800000001,M,0.0,M,,*55
$GPRMC,074259,A,3437.7268,N,08623.8149,W,062.0,152.0,130615,0,E*76
$GPGGA,074259,3437.7268,N,08623.8149,W,1,04,0.9,489.813600000001,M,0.0,M,,*5B
$GPRMC,074306,A,3437.6204,N,08623.7508,W,062.0,155.0,130615,0,E*7F
$GPGGA,074306,3437.6204,N,08623.7508,W,1,04,0.9,490.728000000001,M,0.0,M,,*5C
$GPRMC,074323,A,3437.3566,N,08623.6018,W,064.0,155.0,130615,0,E*7D
$GPGGA,074323,3437.3566,N,08623.6018,W,1,04,0.9,488.899200000001,M,0.0,M,,*56
$GPRMC,074325,A,3437.3236,N,08623.5809,W,065.0,152.0,130615,0,E*74
$GPGGA,074325,3437.3236,N,08623.5809,W,1,04,0.9,485.851200000001,M,0.0,M,,*50
$GPRMC,074328,A,3437.2747,N,08623.5516,W,066.0,155.0,130615,0,E*7C
$GPGGA,074328,3437.2747,N,08623.5516,W,1,04,0.9,482.803200000001,M,0.0,M,,*5C
$GPRMC,074334,A,3437.1793,N,08623.4969,W,064.0,154.0,130615,0,E*7D
$GPGGA,074334,3437.1793,N,08623.4969,W,1,04,0.9,480.974400000001,M,0.0,M,,*5B
$GPRMC,074338,A,3437.1166,N,08623.4582,W,063.0,151.0,130615,0,E*76
$GPGGA,074338,3437.1166,N,08623.4582,W,1,04,0.9,481.888800000001,M,0.0,M,,*5D
$GPRMC,074342,A,3437.0536,N,08623.4207,W,064.0,154.0,130615,0,E*73
$GPGGA,074342,3437.0536,N,08623.4207,W,1,04,0.9,481.888800000001,M,0.0,M,,*5A
$GPRMC,074352,A,3436.8882,N,08623.3310,W,065.0,157.0,130615,0,E*7B
$GPGGA,074352,3436.8882,N,08623.3310,W,1,04,0.9,475.792800000001,M,0.0,M,,*5F
$GPRMC,074407,A,3436.6371,N,08623.1964,W,065.0,154.0,130615,0,E*7D
$GPGGA,074407,3436.6371,N,08623.1964,W,1,04,0.9,467.868000000001,M,0.0,M,,*5B
$GPRMC,074427,A,3436.3165,N,08623.0092,W,065.0,151.0,130615,0,E*79
$GPGGA,074427,3436.3165,N,08623.0092,W,1,04,0.9,474.878400000001,M,0.0,M,,*5D
$GPRMC,074436,A,3436.1688,N,08622.9205,W,067.0,154.0,130615,0,E*7C
$GPGGA,074436,3436.1688,N,08622.9205,W,1,04,0.9,477.926400000001,M,0.0,M,,*56
$GPRMC,074456,A,3435.8377,N,08622.7309,W,066.0,154.0,130615,0,E*77
$GPGGA,074456,3435.8377,N,08622.7309,W,1,04,0.9,479.755200000001,M,0.0,M,,*5E
$GPRMC,074457,A,3435.8210,N,08622.7212,W,067.0,154.0,130615,0,E*7C
$GPGGA,074457,3435.8210,N,08622.7212,W,1,04,0.9,479.755200000001,M,0.0,M,,*54
$GPRMC,074516,A,3435.5056,N,08622.5363,W,066.0,153.0,130615,0,E*76
$GPGGA,074516,3435.5056,N,08622.5363,W,1,04,0.9,482.803200000001,M,0.0,M,,*50
$GPRMC,074517,A,3435.4898,N,08622.5266,W,066.0,153.0,130615,0,E*78
$GPGGA,074517,3435.4898,N,08622.5266,W,1,04,0.9,482.803200000001,M,0.0,M,,*5E
$GPRMC,074523,A,3435.3920,N,08622.4660,W,066.0,154.0,130615,0,E*7E
$GPGGA,074523,3435.3920,N,08622.4660,W,1,04,0.9,480.974400000001,M,0.0,M,,*5A
$GPRMC,074529,A,3435.2908,N,08622.4104,W,066.0,156.0,130615,0,E*78
$GPGGA,074529,3435.2908,N,08622.4104,W,1,04,0.9,476.707200000001,M,0.0,M,,*5B
$GPRMC,074533,A,3435.2224,N,08622.3777,W,066.0,159.0,130615,0,E*7C
$GPGGA,074533,3435.2224,N,08622.3777,W,1,04,0.9,474.878400000001,M,0.0,M,,*53
$GPRMC,074547,A,3434.9809,N,08622.2638,W,069.0,156.0,130615,0,E*7B
$GPGGA,074547,3434.9809,N,08622.2638,W,1,04,0.9,463.905600000001,M,0.0,M,,*5B
$GPRMC,074604,A,3434.6911,N,08622.1109,W,064.0,157.0,130615,0,E*72
$GPGGA,074604,3434.6911,N,08622.1109,W,1,04,0.9,460.857600000001,M,0.0,M,,*5B
$GPRMC,074606,A,3434.6587,N,08622.0921,W,064.0,154.0,130615,0,E*73
$GPGGA,074606,3434.6587,N,08622.0921,W,1,04,0.9,461.772000000001,M,0.0,M,,*56
$GPRMC,074623,A,3434.3851,N,08621.9347,W,063.0,155.0,130615,0,E*71
$GPGGA,074623,3434.3851,N,08621.9347,W,1,04,0.9,460.857600000001,M,0.0,M,,*5D
$GPRMC,074627,A,3434.3223,N,08621.9008,W,062.0,155.0,130615,0,E*73
$GPGGA,074627,3434.3223,N,08621.9008,W,1,04,0.9,465.734400000001,M,0.0,M,,*53
$GPRMC,074646,A,3434.0253,N,08621.7359,W,062.0,152.0,130615,0,E*7E
$GPGGA,074646,3434.0253,N,08621.7359,W,1,04,0.9,476.707200000001,M,0.0,M,,*5D
$GPRMC,074703,A,3433.7615,N,08621.5770,W,062.0,153.0,130615,0,E*74
$GPGGA,074703,3433.7615,N,08621.5770,W,1,04,0.9,487.984800000001,M,0.0,M,,*57
$GPRMC,074722,A,3433.4635,N,08621.4065,W,064.0,154.0,130615,0,E*75
$GPGGA,074722,3433.4635,N,08621.4065,W,1,04,0.9,489.813600000001,M,0.0,M,,*58
$GPRMC,074723,A,3433.4474,N,08621.3965,W,064.0,154.0,130615,0,E*7D
$GPGGA,074723,3433.4474,N,08621.3965,W,1,04,0.9,490.728000000001,M,0.0,M,,*59
$GPRMC,074734,A,3433.2783,N,08621.2941,W,060.0,155.0,130615,0,E*74
$GPGGA,074734,3433.2783,N,08621.2941,W,1,04,0.9,499.872000000001,M,0.0,M,,*5C
$GPRMC,074746,A,3433.0981,N,08621.1931,W,059.0,154.0,130615,0,E*70
$GPGGA,074746,3433.0981,N,08621.1931,W,1,04,0.9,510.844800000001,M,0.0,M,,*5E
$GPRMC,074754,A,3432.9764,N,08621.1191,W,063.0,152.0,130615,0,E*73
$GPGGA,074754,3432.9764,N,08621.1191,W,1,04,0.9,511.759200000001,M,0.0,M,,*5A
$GPRMC,074800,A,3432.8815,N,08621.0612,W,064.0,153.0,130615,0,E*7E
$GPGGA,074800,3432.8815,N,08621.0612,W,1,04,0.9,509.930400000001,M,0.0,M,,*5F
$GPRMC,074802,A,3432.8500,N,08621.0449,W,063.0,156.0,130615,0,E*7B
$GPGGA,074802,3432.8500,N,08621.0449,W,1,04,0.9,510.844800000001,M,0.0,M,,*5E
$GPRMC,074810,A,3432.7180,N,08620.9820,W,063.0,159.0,130615,0,E*7F
$GPGGA,074810,3432.7180,N,08620.9820,W,1,04,0.9,509.930400000001,M,0.0,M,,*53
$GPRMC,074816,A,3432.6200,N,08620.9336,W,064.0,156.0,130615,0,E*77
$GPGGA,074816,3432.6200,N,08620.9336,W,1,04,0.9,511.759200000001,M,0.0,M,,*5D
$GPRMC,074835,A,3432.3137,N,08620.7711,W,064.0,155.0,130615,0,E*78
$GPGGA,074835,3432.3137,N,08620.7711,W,1,04,0.9,514.807200000001,M,0.0,M,,*50
$GPRMC,074836,A,3432.2977,N,08620.7621,W,064.0,155.0,130615,0,E*74
$GPGGA,074836,3432.2977,N,08620.7621,W,1,04,0.9,514.807200000001,M,0.0,M,,*5C
$GPRMC,074840,A,3432.2330,N,08620.7296,W,063.0,158.0,130615,0,E*7E
$GPGGA,074840,3432.2330,N,08620.7296,W,1,04,0.9,514.807200000001,M,0.0,M,,*5C
$GPRMC,074846,A,3432.1372,N,08620.6805,W,062.0,155.0,130615,0,E*70
$GPGGA,074846,3432.1372,N,08620.6805,W,1,04,0.9,518.769600000001,M,0.0,M,,*51
$GPRMC,074854,A,3432.0118,N,08620.6074,W,063.0,154.0,130615,0,E*72
$GPGGA,074854,3432.0118,N,08620.6074,W,1,04,0.9,516.940800000001,M,0.0,M,,*56
$GPRMC,074906,A,3431.8204,N,08620.5019,W,062.0,156.0,130615,0,E*7A
$GPGGA,074906,3431.8204,N,08620.5019,W,1,04,0.9,513.892800000001,M,0.0,M,,*56
$GPRMC,074918,A,3431.6310,N,08620.3947,W,063.0,155.0,130615,0,E*79
$GPGGA,074918,3431.6310,N,08620.3947,W,1,04,0.9,516.940800000001,M,0.0,M,,*5C
$GPRMC,074921,A,3431.5837,N,08620.3672,W,063.0,153.0,130615,0,E*71
$GPGGA,074921,3431.5837,N,08620.3672,W,1,04,0.9,514.807200000001,M,0.0,M,,*58
$GPRMC,074927,A,3431.4887,N,08620.3082,W,063.0,154.0,130615,0,E*73
$GPGGA,074927,3431.4887,N,08620.3082,W,1,04,0.9,513.892800000001,M,0.0,M,,*5C
$GPRMC,074929,A,3431.4571,N,08620.2912,W,062.0,156.0,130615,0,E*7B
$GPGGA,074929,3431.4571,N,08620.2912,W,1,04,0.9,514.807200000001,M,0.0,M,,*56
$GPRMC,074936,A,3431.3485,N,08620.2313,W,061.0,155.0,130615,0,E*73
$GPGGA,074936,3431.3485,N,08620.2313,W,1,04,0.9,516.940800000001,M,0.0,M,,*54
$GPRMC,074939,A,3431.3031,N,08620.2036,W,061.0,153.0,130615,0,E*75
$GPGGA,074939,3431.3031,N,08620.2036,W,1,04,0.9,519.988800000001,M,0.0,M,,*5F
$GPRMC,074955,A,3431.0598,N,08620.0615,W,062.0,154.0,130615,0,E*7B
$GPGGA,074955,3431.0598,N,08620.0615,W,1,04,0.9,520.903200000001,M,0.0,M,,*56
$GPRMC,075000,A,3430.9955,N,08620.0248,W,064.0,154.0,130615,0,E*7C
$GPGGA,075000,3430.9955,N,08620.0248,W,1,04,0.9,515.721600000001,M,0.0,M,,*5B
$GPRMC,075006,A,3430.8824,N,08619.9654,W,064.0,155.0,130615,0,E*77
$GPGGA,075006,3430.8824,N,08619.9654,W,1,04,0.9,517.855200000001,M,0.0,M,,*5B
$GPRMC,075008,A,3430.8495,N,08619.9492,W,064.0,157.0,130615,0,E*75
$GPGGA,075008,3430.8495,N,08619.9492,W,1,04,0.9,516.940800000001,M,0.0,M,,*55
$GPRMC,075024,A,3430.5924,N,08619.8209,W,065.0,154.0,130615,0,E*76
$GPGGA,075024,3430.5924,N,08619.8209,W,1,04,0.9,518.769600000001,M,0.0,M,,*51
$GPRMC,075028,A,3430.5293,N,08619.7857,W,062.0,157.0,130615,0,E*77
$GPGGA,075028,3430.5293,N,08619.7857,W,1,04,0.9,522.732000000001,M,0.0,M,,*55
$GPRMC,075036,A,3430.3985,N,08619.7172,W,067.0,155.0,130615,0,E*7B
$GPGGA,075036,3430.3985,N,08619.7172,W,1,04,0.9,521.817600000001,M,0.0,M,,*53
$GPRMC,075039,A,3430.3483,N,08619.6933,W,064.0,159.0,130615,0,E*7C
$GPGGA,075039,3430.3483,N,08619.6933,W,1,04,0.9,520.903200000001,M,0.0,M,,*5A
$GPRMC,075045,A,3430.2505,N,08619.6473,W,064.0,156.0,130615,0,E*7F
$GPGGA,075045,3430.2505,N,08619.6473,W,1,04,0.9,526.999200000001,M,0.0,M,,*53
$GPRMC,075049,A,3430.1858,N,08619.6089,W,065.0,153.0,130615,0,E*70
$GPGGA,075049,3430.1858,N,08619.6089,W,1,04,0.9,526.999200000001,M,0.0,M,,*58
$GPRMC,075101,A,3429.9978,N,08619.4933,W,064.0,152.0,130615,0,E*74
$GPGGA,075101,3429.9978,N,08619.4933,W,1,04,0.9,527.913600000001,M,0.0,M,,*5B
$GPRMC,075109,A,3429.8727,N,08619.4202,W,062.0,154.0,130615,0,E*70
$GPGGA,075109,3429.8727,N,08619.4202,W,1,04,0.9,527.913600000001,M,0.0,M,,*5F
$GPRMC,075111,A,3429.8409,N,08619.4041,W,061.0,157.0,130615,0,E*73
$GPGGA,075111,3429.8409,N,08619.4041,W,1,04,0.9,527.913600000001,M,0.0,M,,*5C
$GPRMC,075130,A,3429.5357,N,08619.2533,W,062.0,158.0,130615,0,E*7B
$GPGGA,075130,3429.5357,N,08619.2533,W,1,04,0.9,530.961600000001,M,0.0,M,,*5B
$GPRMC,075131,A,3429.5194,N,08619.2458,W,062.0,159.0,130615,0,E*7A
$GPGGA,075131,3429.5194,N,08619.2458,W,1,04,0.9,530.961600000001,M,0.0,M,,*5B
$GPRMC,075142,A,3429.3357,N,08619.1522,W,067.0,156.0,130615,0,E*70
$GPGGA,075142,3429.3357,N,08619.1522,W,1,04,0.9,521.817600000001,M,0.0,M,,*5B
$GPRMC,075153,A,3429.1548,N,08619.0606,W,063.0,158.0,130615,0,E*74
$GPGGA,075153,3429.1548,N,08619.0606,W,1,04,0.9,521.817600000001,M,0.0,M,,*55
$GPRMC,075158,A,3429.0738,N,08619.0196,W,064.0,158.0,130615,0,E*72
$GPGGA,075158,3429.0738,N,08619.0196,W,1,04,0.9,520.903200000001,M,0.0,M,,*55
$GPRMC,075200,A,3429.0400,N,08619.0057,W,064.0,161.0,130615,0,E*72
$GPGGA,075200,3429.0400,N,08619.0057,W,1,04,0.9,521.817600000001,M,0.0,M,,*5E
$GPRMC,075208,A,3428.9019,N,08618.9479,W,066.0,161.0,130615,0,E*7C
$GPGGA,075208,3428.9019,N,08618.9479,W,1,04,0.9,519.988800000001,M,0.0,M,,*50
$GPRMC,075215,A,3428.7790,N,08618.9009,W,067.0,162.0,130615,0,E*79
$GPGGA,075215,3428.7790,N,08618.9009,W,1,04,0.9,510.844800000001,M,0.0,M,,*5F
$GPRMC,075223,A,3428.6374,N,08618.8437,W,067.0,161.0,130615,0,E*78
$GPGGA,075223,3428.6374,N,08618.8437,W,1,04,0.9,508.711200000001,M,0.0,M,,*51
$GPRMC,075227,A,3428.5675,N,08618.8138,W,067.0,159.0,130615,0,E*7A
$GPGGA,075227,3428.5675,N,08618.8138,W,1,04,0.9,507.796800000001,M,0.0,M,,*52
$GPRMC,075235,A,3428.4311,N,08618.7503,W,065.0,158.0,130615,0,E*7F
$GPGGA,075235,3428.4311,N,08618.7503,W,1,04,0.9,504.748800000001,M,0.0,M,,*54
$GPRMC,075241,A,3428.3301,N,08618.7057,W,063.0,161.0,130615,0,E*72
$GPGGA,075241,3428.3301,N,08618.7057,W,1,04,0.9,498.957600000001,M,0.0,M,,*5F
$GPRMC,075245,A,3428.2636,N,08618.6824,W,063.0,164.0,130615,0,E*7E
$GPGGA,075245,3428.2636,N,08618.6824,W,1,04,0.9,494.995200000001,M,0.0,M,,*50
$GPRMC,075248,A,3428.2127,N,08618.6614,W,064.0,160.0,130615,0,E*7A
$GPGGA,075248,3428.2127,N,08618.6614,W,1,04,0.9,492.861600000001,M,0.0,M,,*5F
$GPRMC,075252,A,3428.1453,N,08618.6293,W,067.0,157.0,130615,0,E*78
$GPGGA,075252,3428.1453,N,08618.6293,W,1,04,0.9,486.765600000001,M,0.0,M,,*54
$GPRMC,075300,A,3428.0073,N,08618.5591,W,068.0,156.0,130615,0,E*71
$GPGGA,075300,3428.0073,N,08618.5591,W,1,04,0.9,474.878400000001,M,0.0,M,,*5F
$GPRMC,075318,A,3427.6992,N,08618.3917,W,067.0,152.0,130615,0,E*78
$GPGGA,075318,3427.6992,N,08618.3917,W,1,04,0.9,464.820000000001,M,0.0,M,,*55
$GPRMC,075322,A,3427.6346,N,08618.3479,W,067.0,149.0,130615,0,E*7D
$GPGGA,075322,3427.6346,N,08618.3479,W,1,04,0.9,463.905600000001,M,0.0,M,,*5D
$GPRMC,075327,A,3427.5522,N,08618.2921,W,068.0,152.0,130615,0,E*7B
$GPGGA,075327,3427.5522,N,08618.2921,W,1,04,0.9,455.980800000001,M,0.0,M,,*58
$GPRMC,075328,A,3427.5355,N,08618.2832,W,067.0,155.0,130615,0,E*79
$GPGGA,075328,3427.5355,N,08618.2832,W,1,04,0.9,455.980800000001,M,0.0,M,,*52
$GPRMC,075337,A,3427.3874,N,08618.2009,W,067.0,155.0,130615,0,E*79
$GPGGA,075337,3427.3874,N,08618.2009,W,1,04,0.9,454.761600000001,M,0.0,M,,*5C
$GPRMC,075340,A,3427.3374,N,08618.1714,W,067.0,152.0,130615,0,E*7D
$GPGGA,075340,3427.3374,N,08618.1714,W,1,04,0.9,452.932800000001,M,0.0,M,,*5F
$GPRMC,075347,A,3427.2240,N,08618.1070,W,063.0,157.0,130615,0,E*79
$GPGGA,075347,3427.2240,N,08618.1070,W,1,04,0.9,450.799200000001,M,0.0,M,,*5D
$GPRMC,075348,A,3427.2074,N,08618.1004,W,062.0,160.0,130615,0,E*75
$GPGGA,075348,3427.2074,N,08618.1004,W,1,04,0.9,451.713600000001,M,0.0,M,,*53
$GPRMC,075357,A,3427.0573,N,08618.0352,W,064.0,160.0,130615,0,E*7C
$GPGGA,075357,3427.0573,N,08618.0352,W,1,04,0.9,448.970400000001,M,0.0,M,,*5D
$GPRMC,075402,A,3426.9719,N,08617.9951,W,066.0,157.0,130615,0,E*74
$GPGGA,075402,3426.9719,N,08617.9951,W,1,04,0.9,445.9224,M,0.0,M,,*58
$GPRMC,075408,A,3426.8719,N,08617.9467,W,065.0,158.0,130615,0,E*7B
$GPGGA,075408,3426.8719,N,08617.9467,W,1,04,0.9,447.7512,M,0.0,M,,*55
$GPRMC,075409,A,3426.8554,N,08617.9398,W,063.0,160.0,130615,0,E*7B
$GPGGA,075409,3426.8554,N,08617.9398,W,1,04,0.9,447.7512,M,0.0,M,,*58
$GPRMC,075415,A,3426.7569,N,08617.8943,W,064.0,157.0,130615,0,E*79
$GPGGA,075415,3426.7569,N,08617.8943,W,1,04,0.9,448.970400000001,M,0.0,M,,*5C
$GPRMC,075428,A,3426.5373,N,08617.7922,W,066.0,158.0,130615,0,E*7D
$GPGGA,075428,3426.5373,N,08617.7922,W,1,04,0.9,448.970400000001,M,0.0,M,,*55
$GPRMC,075432,A,3426.4691,N,08617.7617,W,065.0,160.0,130615,0,E*7F
$GPGGA,075432,3426.4691,N,08617.7617,W,1,04,0.9,445.9224,M,0.0,M,,*54
$GPRMC,075434,A,3426.4351,N,08617.7491,W,065.0,163.0,130615,0,E*7F
$GPGGA,075434,3426.4351,N,08617.7491,W,1,04,0.9,445.9224,M,0.0,M,,*57
$GPRMC,075441,A,3426.3137,N,08617.7023,W,067.0,160.0,130615,0,E*74
$GPGGA,075441,3426.3137,N,08617.7023,W,1,04,0.9,436.7784,M,0.0,M,,*58
$GPRMC,075447,A,3426.2104,N,08617.6589,W,065.0,163.0,130615,0,E*76
$GPGGA,075447,3426.2104,N,08617.6589,W,1,04,0.9,436.7784,M,0.0,M,,*5B
$GPRMC,075458,A,3426.0206,N,08617.5942,W,064.0,164.0,130615,0,E*75
$GPGGA,075458,3426.0206,N,08617.5942,W,1,04,0.9,439.8264,M,0.0,M,,*55
$GPRMC,075508,A,3425.8509,N,08617.5367,W,064.0,163.0,130615,0,E*78
$GPGGA,075508,3425.8509,N,08617.5367,W,1,04,0.9,443.7888,M,0.0,M,,*55
$GPRMC,075528,A,3425.5104,N,08617.4220,W,063.0,165.0,130615,0,E*7C
$GPGGA,075528,3425.5104,N,08617.4220,W,1,04,0.9,437.9976,M,0.0,M,,*5D
$GPRMC,075534,A,3425.4076,N,08617.3900,W,063.0,168.0,130615,0,E*77
$GPGGA,075534,3425.4076,N,08617.3900,W,1,04,0.9,434.9496,M,0.0,M,,*5B
$GPRMC,075538,A,3425.3389,N,08617.3699,W,065.0,165.0,130615,0,E*7B
$GPGGA,075538,3425.3389,N,08617.3699,W,1,04,0.9,435.864,M,0.0,M,,*65
$GPRMC,075544,A,3425.2328,N,08617.3336,W,066.0,162.0,130615,0,E*7E
$GPGGA,075544,3425.2328,N,08617.3336,W,1,04,0.9,431.9016,M,0.0,M,,*54
$GPRMC,075555,A,3425.0428,N,08617.2566,W,065.0,161.0,130615,0,E*79
$GPGGA,075555,3425.0428,N,08617.2566,W,1,04,0.9,432.816,M,0.0,M,,*61
$GPRMC,075558,A,3424.9913,N,08617.2343,W,066.0,159.0,130615,0,E*70
$GPGGA,075558,3424.9913,N,08617.2343,W,1,04,0.9,429.768,M,0.0,M,,*6C
$GPRMC,075604,A,3424.8905,N,08617.1870,W,065.0,156.0,130615,0,E*78
$GPGGA,075604,3424.8905,N,08617.1870,W,1,04,0.9,431.9016,M,0.0,M,,*56
$GPRMC,075606,A,3424.8579,N,08617.1677,W,065.0,153.0,130615,0,E*71
$GPGGA,075606,3424.8579,N,08617.1677,W,1,04,0.9,432.816,M,0.0,M,,*68
$GPRMC,075622,A,3424.6046,N,08617.0196,W,064.0,153.0,130615,0,E*78
$GPGGA,075622,3424.6046,N,08617.0196,W,1,04,0.9,443.7888,M,0.0,M,,*56
$GPRMC,075625,A,3424.5587,N,08616.9900,W,061.0,150.0,130615,0,E*7D
$GPGGA,075625,3424.5587,N,08616.9900,W,1,04,0.9,446.8368,M,0.0,M,,*5A
$GPRMC,075628,A,3424.5128,N,08616.9599,W,062.0,153.0,130615,0,E*7D
$GPGGA,075628,3424.5128,N,08616.9599,W,1,04,0.9,452.932800000001,M,0.0,M,,*5B
$GPRMC,075632,A,3424.4516,N,08616.9199,W,062.0,150.0,130615,0,E*79
$GPGGA,075632,3424.4516,N,08616.9199,W,1,04,0.9,453.847200000001,M,0.0,M,,*54
$GPRMC,075638,A,3424.3628,N,08616.8529,W,062.0,147.0,130615,0,E*72
$GPGGA,075638,3424.3628,N,08616.8529,W,1,04,0.9,454.761600000001,M,0.0,M,,*51
$GPRMC,075643,A,3424.2893,N,08616.7903,W,065.0,144.0,130615,0,E*7E
$GPGGA,075643,3424.2893,N,08616.7903,W,1,04,0.9,456.895200000001,M,0.0,M,,*5B
$GPRMC,075647,A,3424.2321,N,08616.7365,W,065.0,140.0,130615,0,E*76
$GPGGA,075647,3424.2321,N,08616.7365,W,1,04,0.9,459.943200000001,M,0.0,M,,*52
$GPRMC,075649,A,3424.2052,N,08616.7072,W,065.0,137.0,130615,0,E*7A
$GPGGA,075649,3424.2052,N,08616.7072,W,1,04,0.9,459.943200000001,M,0.0,M,,*5E
$GPRMC,075652,A,3424.1668,N,08616.6601,W,065.0,134.0,130615,0,E*7C
$GPGGA,075652,3424.1668,N,08616.6601,W,1,04,0.9,462.991200000001,M,0.0,M,,*5C
$GPRMC,075655,A,3424.1300,N,08616.6113,W,066.0,131.0,130615,0,E*72
$GPGGA,075655,3424.1300,N,08616.6113,W,1,04,0.9,463.905600000001,M,0.0,M,,*5C
$GPRMC,075658,A,3424.0961,N,08616.5596,W,066.0,127.0,130615,0,E*7E
$GPGGA,075658,3424.0961,N,08616.5596,W,1,04,0.9,462.991200000001,M,0.0,M,,*5F
$GPRMC,075702,A,3424.0540,N,08616.4886,W,066.0,124.0,130615,0,E*71
$GPGGA,075702,3424.0540,N,08616.4886,W,1,04,0.9,466.953600000001,M,0.0,M,,*5D
$GPRMC,075704,A,3424.0350,N,08616.4504,W,065.0,121.0,130615,0,E*71
$GPGGA,075704,3424.0350,N,08616.4504,W,1,04,0.9,467.868000000001,M,0.0,M,,*55
$GPRMC,075707,A,3424.0087,N,08616.3925,W,066.0,118.0,130615,0,E*7A
$GPGGA,075707,3424.0087,N,08616.3925,W,1,04,0.9,468.782400000001,M,0.0,M,,*57
$GPRMC,075713,A,3423.9601,N,08616.2742,W,066.0,115.0,130615,0,E*7A
$GPGGA,075713,3423.9601,N,08616.2742,W,1,04,0.9,468.782400000001,M,0.0,M,,*5A
$GPRMC,075720,A,3423.9075,N,08616.1309,W,067.0,112.0,130615,0,E*71
$GPGGA,075720,3423.9075,N,08616.1309,W,1,04,0.9,469.696800000001,M,0.0,M,,*5E
$GPRMC,075726,A,3423.8685,N,08616.0045,W,068.0,109.0,130615,0,E*70
$GPGGA,075726,3423.8685,N,08616.0045,W,1,04,0.9,472.744800000001,M,0.0,M,,*5E
$GPRMC,075729,A,3423.8523,N,08615.9380,W,070.0,105.0,130615,0,E*75
$GPGGA,075729,3423.8523,N,08615.9380,W,1,04,0.9,471.830400000001,M,0.0,M,,*5D
$GPRMC,075731,A,3423.8456,N,08615.8914,W,070.0,100.0,130615,0,E*7C
$GPGGA,075731,3423.8456,N,08615.8914,W,1,04,0.9,470.916000000001,M,0.0,M,,*51
$GPRMC,075733,A,3423.8428,N,08615.8428,W,071.0,095.0,130615,0,E*79
$GPGGA,075733,3423.8428,N,08615.8428,W,1,04,0.9,470.916000000001,M,0.0,M,,*58
$GPRMC,075734,A,3423.8429,N,08615.8186,W,072.0,091.0,130615,0,E*79
$GPGGA,075734,3423.8429,N,08615.8186,W,1,04,0.9,471.830400000001,M,0.0,M,,*5F
$GPRMC,075735,A,3423.8440,N,08615.7945,W,072.0,088.0,130615,0,E*77
$GPGGA,075735,3423.8440,N,08615.7945,W,1,04,0.9,471.830400000001,M,0.0,M,,*59
$GPRMC,075736,A,3423.8459,N,08615.7703,W,072.0,085.0,130615,0,E*7D
$GPGGA,075736,3423.8459,N,08615.7703,W,1,04,0.9,471.830400000001,M,0.0,M,,*5E
$GPRMC,075737,A,3423.8491,N,08615.7466,W,073.0,082.0,130615,0,E*7E
$GPGGA,075737,3423.8491,N,08615.7466,W,1,04,0.9,471.830400000001,M,0.0,M,,*5B
$GPRMC,075739,A,3423.8584,N,08615.6983,W,072.0,077.0,130615,0,E*79
$GPGGA,075739,3423.8584,N,08615.6983,W,1,04,0.9,472.744800000001,M,0.0,M,,*54
$GPRMC,075740,A,3423.8653,N,08615.6753,W,073.0,072.0,130615,0,E*79
$GPGGA,075740,3423.8653,N,08615.6753,W,1,04,0.9,473.964000000001,M,0.0,M,,*55
$GPRMC,075741,A,3423.8736,N,08615.6530,W,073.0,068.0,130615,0,E*76
$GPGGA,075741,3423.8736,N,08615.6530,W,1,04,0.9,474.878400000001,M,0.0,M,,*5E
$GPRMC,075742,A,3423.8831,N,08615.6317,W,072.0,064.0,130615,0,E*73
$GPGGA,075742,3423.8831,N,08615.6317,W,1,04,0.9,476.707200000001,M,0.0,M,,*55
$GPRMC,075743,A,3423.8942,N,08615.6113,W,073.0,060.0,130615,0,E*74
$GPGGA,075743,3423.8942,N,08615.6113,W,1,04,0.9,477.926400000001,M,0.0,M,,*5D
$GPRMC,075744,A,3423.9066,N,08615.5923,W,073.0,055.0,130615,0,E*73
$GPGGA,075744,3423.9066,N,08615.5923,W,1,04,0.9,477.926400000001,M,0.0,M,,*5C
$GPRMC,075745,A,3423.9205,N,08615.5739,W,073.0,051.0,130615,0,E*74
$GPGGA,075745,3423.9205,N,08615.5739,W,1,04,0.9,478.840800000001,M,0.0,M,,*5D
$GPRMC,075746,A,3423.9355,N,08615.5567,W,074.0,046.0,130615,0,E*7B
$GPGGA,075746,3423.9355,N,08615.5567,W,1,04,0.9,477.926400000001,M,0.0,M,,*51
$GPRMC,075747,A,3423.9515,N,08615.5409,W,074.0,042.0,130615,0,E*75
$GPGGA,075747,3423.9515,N,08615.5409,W,1,04,0.9,477.926400000001,M,0.0,M,,*5B
$GPRMC,075748,A,3423.9680,N,08615.5258,W,074.0,038.0,130615,0,E*7A
$GPGGA,075748,3423.9680,N,08615.5258,W,1,04,0.9,478.840800000001,M,0.0,M,,*5B
$GPRMC,075749,A,3423.9850,N,08615.5123,W,074.0,035.0,130615,0,E*7A
$GPGGA,075749,3423.9850,N,08615.5123,W,1,04,0.9,477.926400000001,M,0.0,M,,*54
$GPRMC,075750,A,3424.0026,N,08615.5003,W,073.0,032.0,130615,0,E*76
$GPGGA,075750,3424.0026,N,08615.5003,W,1,04,0.9,476.707200000001,M,0.0,M,,*52
$GPRMC,075751,A,3424.0200,N,08615.4886,W,072.0,029.0,130615,0,E*7E
$GPGGA,075751,3424.0200,N,08615.4886,W,1,04,0.9,474.878400000001,M,0.0,M,,*52
$GPRMC,075753,A,3424.0553,N,08615.4677,W,070.0,025.0,130615,0,E*73
$GPGGA,075753,3424.0553,N,08615.4677,W,1,04,0.9,471.830400000001,M,0.0,M,,*58
$GPRMC,075756,A,3424.1091,N,08615.4378,W,071.0,024.0,130615,0,E*76
$GPGGA,075756,3424.1091,N,08615.4378,W,1,04,0.9,459.943200000001,M,0.0,M,,*54
$GPRMC,075759,A,3424.1631,N,08615.4086,W,071.0,024.0,130615,0,E*77
$GPGGA,075759,3424.1631,N,08615.4086,W,1,04,0.9,447.7512,M,0.0,M,,*56
$GPRMC,075803,A,3424.2322,N,08615.3673,W,069.0,026.0,130615,0,E*73
$GPGGA,075803,3424.2322,N,08615.3673,W,1,04,0.9,435.864,M,0.0,M,,*67
$GPRMC,075806,A,3424.2837,N,08615.3379,W,068.0,025.0,130615,0,E*74
$GPGGA,075806,3424.2837,N,08615.3379,W,1,04,0.9,424.8912,M,0.0,M,,*5A
$GPRMC,075809,A,3424.3362,N,08615.3129,W,068.0,021.0,130615,0,E*72
$GPGGA,075809,3424.3362,N,08615.3129,W,1,04,0.9,414.8328,M,0.0,M,,*58
$GPRMC,075810,A,3424.3545,N,08615.3092,W,068.0,013.0,130615,0,E*79
$GPGGA,075810,3424.3545,N,08615.3092,W,1,04,0.9,410.8704,M,0.0,M,,*5C
$GPRMC,075811,A,3424.3722,N,08615.3069,W,066.0,006.0,130615,0,E*75
$GPGGA,075811,3424.3722,N,08615.3069,W,1,04,0.9,407.8224,M,0.0,M,,*5B
$GPRMC,075812,A,3424.3905,N,08615.3091,W,066.0,000.0,130615,0,E*7C
$GPGGA,075812,3424.3905,N,08615.3091,W,1,04,0.9,404.7744,M,0.0,M,,*5B
$GPRMC,075813,A,3424.4078,N,08615.3129,W,066.0,351.0,130615,0,E*7C
$GPGGA,075813,3424.4078,N,08615.3129,W,1,04,0.9,401.7264,M,0.0,M,,*5E
$GPRMC,075814,A,3424.4252,N,08615.3210,W,066.0,347.0,130615,0,E*7F
$GPGGA,075814,3424.4252,N,08615.3210,W,1,04,0.9,395.9352,M,0.0,M,,*5A
$GPRMC,075815,A,3424.4419,N,08615.3299,W,066.0,338.0,130615,0,E*7E
$GPGGA,075815,3424.4419,N,08615.3299,W,1,04,0.9,388.9248,M,0.0,M,,*55
$GPRMC,075816,A,3424.4584,N,08615.3409,W,066.0,333.0,130615,0,E*7C
$GPGGA,075816,3424.4584,N,08615.3409,W,1,04,0.9,384.9624,M,0.0,M,,*5E
$GPRMC,075817,A,3424.4733,N,08615.3538,W,066.0,326.0,130615,0,E*74
$GPGGA,075817,3424.4733,N,08615.3538,W,1,04,0.9,379.7808,M,0.0,M,,*5E
$GPRMC,075818,A,3424.4864,N,08615.3686,W,066.0,321.0,130615,0,E*77
$GPGGA,075818,3424.4864,N,08615.3686,W,1,04,0.9,375.8184,M,0.0,M,,*54
$GPRMC,075819,A,3424.4984,N,08615.3845,W,065.0,314.0,130615,0,E*7D
$GPGGA,075819,3424.4984,N,08615.3845,W,1,04,0.9,370.9416,M,0.0,M,,*51
$GPRMC,075820,A,3424.5088,N,08615.4011,W,064.0,309.0,130615,0,E*70
$GPGGA,075820,3424.5088,N,08615.4011,W,1,04,0.9,366.9792,M,0.0,M,,*59
$GPRMC,075821,A,3424.5185,N,08615.4189,W,063.0,306.0,130615,0,E*75
$GPGGA,075821,3424.5185,N,08615.4189,W,1,04,0.9,365.76,M,0.0,M,,*53
$GPRMC,075822,A,3424.5267,N,08615.4378,W,063.0,300.0,130615,0,E*73
$GPGGA,075822,3424.5267,N,08615.4378,W,1,04,0.9,360.8832,M,0.0,M,,*56
$GPRMC,075824,A,3424.5417,N,08615.4748,W,062.0,296.0,130615,0,E*7C
$GPGGA,075824,3424.5417,N,08615.4748,W,1,04,0.9,351.7392,M,0.0,M,,*5A
$GPRMC,075827,A,3424.5627,N,08615.5311,W,060.0,293.0,130615,0,E*70
$GPGGA,075827,3424.5627,N,08615.5311,W,1,04,0.9,341.9856,M,0.0,M,,*5D
$GPRMC,075830,A,3424.5806,N,08615.5881,W,059.0,290.0,130615,0,E*70
$GPGGA,075830,3424.5806,N,08615.5881,W,1,04,0.9,332.8416,M,0.0,M,,*59
$GPRMC,075832,A,3424.5911,N,08615.6263,W,059.0,287.0,130615,0,E*76
$GPGGA,075832,3424.5911,N,08615.6263,W,1,04,0.9,325.8312,M,0.0,M,,*5C
$GPRMC,075835,A,3424.6035,N,08615.6826,W,058.0,284.0,130615,0,E*74
$GPGGA,075835,3424.6035,N,08615.6826,W,1,04,0.9,314.8584,M,0.0,M,,*57
$GPRMC,075836,A,3424.6061,N,08615.7015,W,057.0,281.0,130615,0,E*75
$GPGGA,075836,3424.6061,N,08615.7015,W,1,04,0.9,311.8104,M,0.0,M,,*55
$GPRMC,075837,A,3424.6075,N,08615.7206,W,057.0,277.0,130615,0,E*78
$GPGGA,075837,3424.6075,N,08615.7206,W,1,04,0.9,309.9816,M,0.0,M,,*53
$GPRMC,075838,A,3424.6072,N,08615.7396,W,056.0,273.0,130615,0,E*7D
$GPGGA,075838,3424.6072,N,08615.7396,W,1,04,0.9,305.7144,M,0.0,M,,*5F
$GPRMC,075839,A,3424.6050,N,08615.7589,W,056.0,268.0,130615,0,E*7E
$GPGGA,075839,3424.6050,N,08615.7589,W,1,04,0.9,302.9712,M,0.0,M,,*5A
$GPRMC,075840,A,3424.6005,N,08615.7768,W,057.0,260.0,130615,0,E*74
$GPGGA,075840,3424.6005,N,08615.7768,W,1,04,0.9,298.704,M,0.0,M,,*65
$GPRMC,075841,A,3424.5948,N,08615.7942,W,057.0,253.0,130615,0,E*70
$GPGGA,075841,3424.5948,N,08615.7942,W,1,04,0.9,295.9608,M,0.0,M,,*58
$GPRMC,075842,A,3424.5871,N,08615.8105,W,056.0,244.0,130615,0,E*7B
$GPGGA,075842,3424.5871,N,08615.8105,W,1,04,0.9,292.9128,M,0.0,M,,*56
$GPRMC,075843,A,3424.5782,N,08615.8257,W,055.0,238.0,130615,0,E*75
$GPGGA,075843,3424.5782,N,08615.8257,W,1,04,0.9,289.8648,M,0.0,M,,*5A
$GPRMC,075844,A,3424.5680,N,08615.8400,W,056.0,232.0,130615,0,E*7C
$GPGGA,075844,3424.5680,N,08615.8400,W,1,04,0.9,286.8168,M,0.0,M,,*50
$GPRMC,075845,A,3424.5567,N,08615.8537,W,056.0,227.0,130615,0,E*76
$GPGGA,075845,3424.5567,N,08615.8537,W,1,04,0.9,281.94,M,0.0,M,,*53
$GPRMC,075846,A,3424.5445,N,08615.8659,W,057.0,223.0,130615,0,E*7A
$GPGGA,075846,3424.5445,N,08615.8659,W,1,04,0.9,277.9776,M,0.0,M,,*51
$GPRMC,075847,A,3424.5323,N,08615.8773,W,057.0,219.0,130615,0,E*7C
$GPGGA,075847,3424.5323,N,08615.8773,W,1,04,0.9,274.9296,M,0.0,M,,*56
$GPRMC,075848,A,3424.5192,N,08615.8890,W,057.0,216.0,130615,0,E*76
$GPGGA,075848,3424.5192,N,08615.8890,W,1,04,0.9,270.9672,M,0.0,M,,*59
$GPRMC,075849,A,3424.5062,N,08615.8996,W,057.0,213.0,130615,0,E*7B
$GPGGA,075849,3424.5062,N,08615.8996,W,1,04,0.9,266.7,M,0.0,M,,*6B
$GPRMC,075852,A,3424.4657,N,08615.9279,W,056.0,208.0,130615,0,E*70
$GPGGA,075852,3424.4657,N,08615.9279,W,1,04,0.9,257.8608,M,0.0,M,,*58
$GPRMC,075855,A,3424.4243,N,08615.9541,W,055.0,204.0,130615,0,E*75
$GPGGA,075855,3424.4243,N,08615.9541,W,1,04,0.9,249.936,M,0.0,M,,*67
$GPRMC,075900,A,3424.3548,N,08615.9946,W,055.0,205.0,130615,0,E*75
$GPGGA,075900,3424.3548,N,08615.9946,W,1,04,0.9,238.9632,M,0.0,M,,*52
$GPRMC,075906,A,3424.2717,N,08616.0394,W,054.0,204.0,130615,0,E*75
$GPGGA,075906,3424.2717,N,08616.0394,W,1,04,0.9,226.7712,M,0.0,M,,*50
$GPRMC,075910,A,3424.2178,N,08616.0701,W,052.0,203.0,130615,0,E*74
$GPGGA,075910,3424.2178,N,08616.0701,W,1,04,0.9,213.9696,M,0.0,M,,*55
$GPRMC,075913,A,3424.1788,N,08616.0925,W,051.0,206.0,130615,0,E*73
$GPGGA,075913,3424.1788,N,08616.0925,W,1,04,0.9,204.8256,M,0.0,M,,*5B
$GPRMC,075918,A,3424.1183,N,08616.1275,W,047.0,204.0,130615,0,E*7F
$GPGGA,075918,3424.1183,N,08616.1275,W,1,04,0.9,191.7192,M,0.0,M,,*59
$GPRMC,075922,A,3424.0731,N,08616.1509,W,043.0,203.0,130615,0,E*77
$GPGGA,075922,3424.0731,N,08616.1509,W,1,04,0.9,186.8424,M,0.0,M,,*53
$GPRMC,075925,A,3424.0439,N,08616.1680,W,039.0,205.0,130615,0,E*72
$GPGGA,075925,3424.0439,N,08616.1680,W,1,04,0.9,185.928,M,0.0,M,,*67
$GPRMC,075929,A,3424.0087,N,08616.1876,W,034.0,205.0,130615,0,E*75
$GPGGA,075929,3424.0087,N,08616.1876,W,1,04,0.9,186.8424,M,0.0,M,,*57
$GPRMC,075931,A,3423.9936,N,08616.1969,W,031.0,206.0,130615,0,E*78
$GPGGA,075931,3423.9936,N,08616.1969,W,1,04,0.9,186.8424,M,0.0,M,,*5C
$GPRMC,075933,A,3423.9796,N,08616.2051,W,028.0,204.0,130615,0,E*75
$GPGGA,075933,3423.9796,N,08616.2051,W,1,04,0.9,186.8424,M,0.0,M,,*5B
$GPRMC,075936,A,3423.9602,N,08616.2157,W,025.0,204.0,130615,0,E*76
$GPGGA,075936,3423.9602,N,08616.2157,W,1,04,0.9,185.928,M,0.0,M,,*6F
$GPRMC,075938,A,3423.9495,N,08616.2213,W,022.0,204.0,130615,0,E*70
$GPGGA,075938,3423.9495,N,08616.2213,W,1,04,0.9,186.8424,M,0.0,M,,*54
$GPRMC,075941,A,3423.9347,N,08616.2298,W,019.0,206.0,130615,0,E*7F
$GPGGA,075941,3423.9347,N,08616.2298,W,1,04,0.9,186.8424,M,0.0,M,,*51
$GPRMC,075943,A,3423.9268,N,08616.2338,W,016.0,207.0,130615,0,E*74
$GPGGA,075943,3423.9268,N,08616.2338,W,1,04,0.9,186.8424,M,0.0,M,,*54
$GPRMC,075945,A,3423.9195,N,08616.2392,W,015.0,212.0,130615,0,E*74
$GPGGA,075945,3423.9195,N,08616.2392,W,1,04,0.9,184.7088,M,0.0,M,,*5C
$GPRMC,075946,A,3423.9167,N,08616.2424,W,014.0,215.0,130615,0,E*76
$GPGGA,075946,3423.9167,N,08616.2424,W,1,04,0.9,184.7088,M,0.0,M,,*58
$GPRMC,075947,A,3423.9143,N,08616.2465,W,013.0,225.0,130615,0,E*70
$GPGGA,075947,3423.9143,N,08616.2465,W,1,04,0.9,184.7088,M,0.0,M,,*5A
$GPRMC,075948,A,3423.9128,N,08616.2501,W,012.0,235.0,130615,0,E*71
$GPGGA,075948,3423.9128,N,08616.2501,W,1,04,0.9,184.7088,M,0.0,M,,*5B
$GPRMC,075949,A,3423.9120,N,08616.2534,W,011.0,245.0,130615,0,E*7A
$GPGGA,075949,3423.9120,N,08616.2534,W,1,04,0.9,183.7944,M,0.0,M,,*5A
$GPRMC,075950,A,3423.9115,N,08616.2565,W,011.0,252.0,130615,0,E*76
$GPGGA,075950,3423.9115,N,08616.2565,W,1,04,0.9,183.7944,M,0.0,M,,*50
$GPRMC,075951,A,3423.9120,N,08616.2598,W,010.0,266.0,130615,0,E*75
$GPGGA,075951,3423.9120,N,08616.2598,W,1,04,0.9,183.7944,M,0.0,M,,*55
$GPRMC,075952,A,3423.9126,N,08616.2631,W,009.0,280.0,130615,0,E*70
$GPGGA,075952,3423.9126,N,08616.2631,W,1,04,0.9,183.7944,M,0.0,M,,*50
$GPRMC,075953,A,3423.9131,N,08616.2660,W,009.0,285.0,130615,0,E*76
$GPGGA,075953,3423.9131,N,08616.2660,W,1,04,0.9,183.7944,M,0.0,M,,*53
$GPRMC,075955,A,3423.9135,N,08616.2710,W,008.0,278.0,130615,0,E*71
$GPGGA,075955,3423.9135,N,08616.2710,W,1,04,0.9,182.88,M,0.0,M,,*58
$GPRMC,075957,A,3423.9135,N,08616.2743,W,007.0,275.0,130615,0,E*77
$GPGGA,075957,3423.9135,N,08616.2743,W,1,04,0.9,182.88,M,0.0,M,,*5C
$GPRMC,075958,A,3423.9133,N,08616.2770,W,007.0,271.0,130615,0,E*7A
$GPGGA,075958,3423.9133,N,08616.2770,W,1,04,0.9,181.9656,M,0.0,M,,*5A
$GPRMC,075959,A,3423.9134,N,08616.2788,W,007.0,268.0,130615,0,E*73
$GPGGA,075959,3423.9134,N,08616.2788,W,1,04,0.9,182.88,M,0.0,M,,*54
$GPRMC,080004,A,3423.9133,N,08616.2888,W,005.0,263.0,130615,0,E*79
$GPGGA,080004,3423.9133,N,08616.2888,W,1,04,0.9,183.7944,M,0.0,M,,*58
$GPRMC,080005,A,3423.9131,N,08616.2906,W,005.0,259.0,130615,0,E*74
$GPGGA,080005,3423.9131,N,08616.2906,W,1,04,0.9,182.88,M,0.0,M,,*53
$GPRMC,080007,A,3423.9123,N,08616.2937,W,005.0,256.0,130615,0,E*78
$GPGGA,080007,3423.9123,N,08616.2937,W,1,04,0.9,181.9656,M,0.0,M,,*5F
$GPRMC,080008,A,3423.9117,N,08616.2952,W,005.0,253.0,130615,0,E*76
$GPGGA,080008,3423.9117,N,08616.2952,W,1,04,0.9,181.9656,M,0.0,M,,*54
$GPRMC,080009,A,3423.9110,N,08616.2968,W,005.0,249.0,130615,0,E*72
$GPGGA,080009,3423.9110,N,08616.2968,W,1,04,0.9,181.9656,M,0.0,M,,*5B
$GPRMC,080010,A,3423.9104,N,08616.2984,W,005.0,246.0,130615,0,E*72
$GPGGA,080010,3423.9104,N,08616.2984,W,1,04,0.9,181.9656,M,0.0,M,,*54
$GPRMC,080012,A,3423.9093,N,08616.3017,W,005.0,251.0,130615,0,E*7B
$GPGGA,080012,3423.9093,N,08616.3017,W,1,04,0.9,182.88,M,0.0,M,,*54
