$GPRMC,152002,A,3431.0821,N,12011.7584,W,109.0,130.0,130217,0,E*71
$GPGGA,152002,3431.0821,N,12011.7584,W,1,04,0.9,1167.9936,M,0.0,M,,*6E
$GPRMC,152003,A,3431.0625,N,12011.7350,W,109.0,130.0,130217,0,E*75
$GPGGA,152003,3431.0625,N,12011.7350,W,1,04,0.9,1154.8872,M,0.0,M,,*6A
$GPRMC,152010,A,3430.9293,N,12011.5305,W,109.0,127.0,130217,0,E*72
$GPGGA,152010,3430.9293,N,12011.5305,W,1,04,0.9,1156.716,M,0.0,M,,*5C
$GPRMC,152021,A,3430.7324,N,12011.2024,W,109.0,124.0,130217,0,E*77
$GPGGA,152021,3430.7324,N,12011.2024,W,1,04,0.9,1145.7432,M,0.0,M,,*6A
$GPRMC,152033,A,3430.5285,N,12010.8355,W,108.0,122.0,130217,0,E*75
$GPGGA,152033,3430.5285,N,12010.8355,W,1,04,0.9,1133.856,M,0.0,M,,*57
$GPRMC,152039,A,3430.4389,N,12010.6470,W,108.0,119.0,130217,0,E*75
$GPGGA,152039,3430.4389,N,12010.6470,W,1,04,0.9,1127.76,M,0.0,M,,*60
$GPRMC,152048,A,3430.3189,N,12010.3680,W,102.0,116.0,130217,0,E*7B
$GPGGA,152048,3430.3189,N,12010.3680,W,1,04,0.9,1126.8456,M,0.0,M,,*64
$GPRMC,152054,A,3430.2221,N,12010.1260,W,099.0,115.0,130217,0,E*7E
$GPGGA,152054,3430.2221,N,12010.1260,W,1,04,0.9,1111.9104,M,0.0,M,,*66
$GPRMC,152103,A,3430.1175,N,12009.8569,W,099.0,114.0,130217,0,E*72
$GPGGA,152103,3430.1175,N,12009.8569,W,1,04,0.9,1098.804,M,0.0,M,,*5B
$GPRMC,152113,A,3430.0070,N,12009.5566,W,097.0,114.0,130217,0,E*7A
$GPGGA,152113,3430.0070,N,12009.5566,W,1,04,0.9,1095.756,M,0.0,M,,*58
$GPRMC,152118,A,3429.9514,N,12009.4127,W,094.0,115.0,130217,0,E*75
$GPGGA,152118,3429.9514,N,12009.4127,W,1,04,0.9,1101.852,M,0.0,M,,*52
$GPRMC,152126,A,3429.8628,N,12009.1861,W,093.0,114.0,130217,0,E*7D
$GPGGA,152126,3429.8628,N,12009.1861,W,1,04,0.9,1102.7664,M,0.0,M,,*63
$GPRMC,152128,A,3429.8439,N,12009.1286,W,092.0,112.0,130217,0,E*75
$GPGGA,152128,3429.8439,N,12009.1286,W,1,04,0.9,1103.9856,M,0.0,M,,*6C
$GPRMC,152134,A,3429.7875,N,12008.9550,W,093.0,112.0,130217,0,E*77
$GPGGA,152134,3429.7875,N,12008.9550,W,1,04,0.9,1102.7664,M,0.0,M,,*6F
$GPRMC,152136,A,3429.7630,N,12008.8993,W,093.0,116.0,130217,0,E*7C
$GPGGA,152136,3429.7630,N,12008.8993,W,1,04,0.9,1102.7664,M,0.0,M,,*60
$GPRMC,152141,A,3429.6981,N,12008.7601,W,095.0,119.0,130217,0,E*7A
$GPGGA,152141,3429.6981,N,12008.7601,W,1,04,0.9,1100.9376,M,0.0,M,,*65
$GPRMC,152147,A,3429.6255,N,12008.5895,W,094.0,115.0,130217,0,E*72
$GPGGA,152147,3429.6255,N,12008.5895,W,1,04,0.9,1099.7184,M,0.0,M,,*60
$GPRMC,152149,A,3429.6069,N,12008.5320,W,093.0,112.0,130217,0,E*74
$GPGGA,152149,3429.6069,N,12008.5320,W,1,04,0.9,1103.9856,M,0.0,M,,*6C
$GPRMC,152153,A,3429.5718,N,12008.4174,W,091.0,109.0,130217,0,E*77
$GPGGA,152153,3429.5718,N,12008.4174,W,1,04,0.9,1106.7288,M,0.0,M,,*65
$GPRMC,152156,A,3429.5425,N,12008.3334,W,091.0,112.0,130217,0,E*74
$GPGGA,152156,3429.5425,N,12008.3334,W,1,04,0.9,1107.948,M,0.0,M,,*5D
$GPRMC,152158,A,3429.5198,N,12008.2775,W,092.0,115.0,130217,0,E*7D
$GPGGA,152158,3429.5198,N,12008.2775,W,1,04,0.9,1103.9856,M,0.0,M,,*63
$GPRMC,152204,A,3429.4574,N,12008.1065,W,094.0,112.0,130217,0,E*74
$GPGGA,152204,3429.4574,N,12008.1065,W,1,04,0.9,1100.9376,M,0.0,M,,*61
$GPRMC,152211,A,3429.3876,N,12007.8952,W,096.0,109.0,130217,0,E*7B
$GPGGA,152211,3429.3876,N,12007.8952,W,1,04,0.9,1105.8144,M,0.0,M,,*61
$GPRMC,152212,A,3429.3795,N,12007.8643,W,096.0,108.0,130217,0,E*74
$GPGGA,152212,3429.3795,N,12007.8643,W,1,04,0.9,1094.8416,M,0.0,M,,*64
$GPRMC,152216,A,3429.3423,N,12007.7451,W,096.0,111.0,130217,0,E*78
$GPGGA,152216,3429.3423,N,12007.7451,W,1,04,0.9,1098.804,M,0.0,M,,*5B
$GPRMC,152224,A,3429.2620,N,12007.5100,W,094.0,111.0,130217,0,E*78
$GPGGA,152224,3429.2620,N,12007.5100,W,1,04,0.9,1101.852,M,0.0,M,,*5B
$GPRMC,152226,A,3429.2451,N,12007.4526,W,091.0,110.0,130217,0,E*7B
$GPGGA,152226,3429.2451,N,12007.4526,W,1,04,0.9,1102.7664,M,0.0,M,,*63
$GPRMC,152228,A,3429.2302,N,12007.3928,W,092.0,107.0,130217,0,E*74
$GPGGA,152228,3429.2302,N,12007.3928,W,1,04,0.9,1104.9,M,0.0,M,,*55
$GPRMC,152234,A,3429.1786,N,12007.2151,W,093.0,110.0,130217,0,E*72
$GPGGA,152234,3429.1786,N,12007.2151,W,1,04,0.9,1106.7288,M,0.0,M,,*6A
$GPRMC,152237,A,3429.1479,N,12007.1301,W,094.0,113.0,130217,0,E*72
$GPGGA,152237,3429.1479,N,12007.1301,W,1,04,0.9,1107.948,M,0.0,M,,*5F
$GPRMC,152241,A,3429.1019,N,12007.0192,W,093.0,116.0,130217,0,E*7A
$GPGGA,152241,3429.1019,N,12007.0192,W,1,04,0.9,1105.8144,M,0.0,M,,*6B
$GPRMC,152246,A,3429.0381,N,12006.8760,W,096.0,120.0,130217,0,E*7C
$GPGGA,152246,3429.0381,N,12006.8760,W,1,04,0.9,1106.7288,M,0.0,M,,*62
$GPRMC,152248,A,3429.0168,N,12006.8188,W,094.0,116.0,130217,0,E*70
$GPGGA,152248,3429.0168,N,12006.8188,W,1,04,0.9,1107.948,M,0.0,M,,*58
$GPRMC,152249,A,3429.0076,N,12006.7900,W,094.0,113.0,130217,0,E*7D
$GPGGA,152249,3429.0076,N,12006.7900,W,1,04,0.9,1109.7768,M,0.0,M,,*65
$GPRMC,152252,A,3428.9830,N,12006.7145,W,091.0,110.0,130217,0,E*7A
$GPGGA,152252,3428.9830,N,12006.7145,W,1,04,0.9,1118.9208,M,0.0,M,,*69
$GPRMC,152254,A,3428.9668,N,12006.6765,W,080.0,112.0,130217,0,E*78
$GPGGA,152254,3428.9668,N,12006.6765,W,1,04,0.9,1123.7976,M,0.0,M,,*6D
$GPRMC,152255,A,3428.9587,N,12006.6552,W,076.0,115.0,130217,0,E*73
$GPGGA,152255,3428.9587,N,12006.6552,W,1,04,0.9,1126.8456,M,0.0,M,,*6D
$GPRMC,152257,A,3428.9433,N,12006.6118,W,071.0,114.0,130217,0,E*73
$GPGGA,152257,3428.9433,N,12006.6118,W,1,04,0.9,1131.7224,M,0.0,M,,*61
$GPRMC,152258,A,3428.9361,N,12006.5882,W,070.0,113.0,130217,0,E*73
$GPGGA,152258,3428.9361,N,12006.5882,W,1,04,0.9,1114.9584,M,0.0,M,,*63
$GPRMC,152300,A,3428.9217,N,12006.5307,W,078.0,109.0,130217,0,E*7A
$GPGGA,152300,3428.9217,N,12006.5307,W,1,04,0.9,1120.7496,M,0.0,M,,*62
$GPRMC,152303,A,3428.9014,N,12006.4540,W,079.0,109.0,130217,0,E*7D
$GPGGA,152303,3428.9014,N,12006.4540,W,1,04,0.9,1132.9416,M,0.0,M,,*61
$GPRMC,152306,A,3428.8787,N,12006.3733,W,082.0,110.0,130217,0,E*79
$GPGGA,152306,3428.8787,N,12006.3733,W,1,04,0.9,1143.9144,M,0.0,M,,*6D
$GPRMC,152312,A,3428.8310,N,12006.2058,W,086.0,110.0,130217,0,E*79
$GPGGA,152312,3428.8310,N,12006.2058,W,1,04,0.9,1155.8016,M,0.0,M,,*69
$GPRMC,152318,A,3428.7788,N,12006.0369,W,088.0,110.0,130217,0,E*74
$GPGGA,152318,3428.7788,N,12006.0369,W,1,04,0.9,1168.908,M,0.0,M,,*5A
$GPRMC,152322,A,3428.7478,N,12005.9283,W,088.0,109.0,130217,0,E*76
$GPGGA,152322,3428.7478,N,12005.9283,W,1,04,0.9,1181.7096,M,0.0,M,,*6E
$GPRMC,152327,A,3428.7119,N,12005.7881,W,089.0,107.0,130217,0,E*78
$GPGGA,152327,3428.7119,N,12005.7881,W,1,04,0.9,1193.9016,M,0.0,M,,*6A
$GPRMC,152333,A,3428.6618,N,12005.6154,W,092.0,110.0,130217,0,E*76
$GPGGA,152333,3428.6618,N,12005.6154,W,1,04,0.9,1203.96,M,0.0,M,,*63
$GPRMC,152340,A,3428.5937,N,12005.4102,W,093.0,113.0,130217,0,E*70
$GPGGA,152340,3428.5937,N,12005.4102,W,1,04,0.9,1211.8848,M,0.0,M,,*67
$GPRMC,152347,A,3428.5223,N,12005.2032,W,094.0,112.0,130217,0,E*7B
$GPGGA,152347,3428.5223,N,12005.2032,W,1,04,0.9,1223.772,M,0.0,M,,*55
$GPRMC,152351,A,3428.4792,N,12005.0917,W,092.0,115.0,130217,0,E*7F
$GPGGA,152351,3428.4792,N,12005.0917,W,1,04,0.9,1236.8784,M,0.0,M,,*65
$GPRMC,152353,A,3428.4518,N,12005.0368,W,094.0,119.0,130217,0,E*75
$GPGGA,152353,3428.4518,N,12005.0368,W,1,04,0.9,1242.9744,M,0.0,M,,*6B
$GPRMC,152354,A,3428.4373,N,12005.0118,W,095.0,122.0,130217,0,E*75
$GPGGA,152354,3428.4373,N,12005.0118,W,1,04,0.9,1243.8888,M,0.0,M,,*6D
$GPRMC,152356,A,3428.4066,N,12004.9623,W,095.0,125.0,130217,0,E*70
$GPGGA,152356,3428.4066,N,12004.9623,W,1,04,0.9,1251.8136,M,0.0,M,,*60
$GPRMC,152404,A,3428.2778,N,12004.7626,W,094.0,127.0,130217,0,E*76
$GPGGA,152404,3428.2778,N,12004.7626,W,1,04,0.9,1264.92,M,0.0,M,,*64
$GPRMC,152410,A,3428.1870,N,12004.6052,W,092.0,124.0,130217,0,E*76
$GPGGA,152410,3428.1870,N,12004.6052,W,1,04,0.9,1271.9304,M,0.0,M,,*60
$GPRMC,152416,A,3428.1004,N,12004.4416,W,098.0,121.0,130217,0,E*72
$GPGGA,152416,3428.1004,N,12004.4416,W,1,04,0.9,1269.7968,M,0.0,M,,*6C
$GPRMC,152420,A,3428.0475,N,12004.3264,W,098.0,118.0,130217,0,E*7A
$GPGGA,152420,3428.0475,N,12004.3264,W,1,04,0.9,1280.7696,M,0.0,M,,*67
$GPRMC,152422,A,3428.0252,N,12004.2654,W,098.0,115.0,130217,0,E*70
$GPGGA,152422,3428.0252,N,12004.2654,W,1,04,0.9,1281.9888,M,0.0,M,,*6E
$GPRMC,152425,A,3427.9934,N,12004.1722,W,100.0,112.0,130217,0,E*7E
$GPGGA,152425,3427.9934,N,12004.1722,W,1,04,0.9,1284.732,M,0.0,M,,*55
$GPRMC,152432,A,3427.9263,N,12003.9551,W,097.0,109.0,130217,0,E*7D
$GPGGA,152432,3427.9263,N,12003.9551,W,1,04,0.9,1293.876,M,0.0,M,,*5A
$GPRMC,152440,A,3427.8609,N,12003.7020,W,098.0,106.0,130217,0,E*7C
$GPGGA,152440,3427.8609,N,12003.7020,W,1,04,0.9,1305.7632,M,0.0,M,,*6C
$GPRMC,152450,A,3427.7798,N,12003.3872,W,098.0,107.0,130217,0,E*71
$GPGGA,152450,3427.7798,N,12003.3872,W,1,04,0.9,1304.8488,M,0.0,M,,*6D
$GPRMC,152459,A,3427.7047,N,12003.1071,W,097.0,108.0,130217,0,E*74
$GPGGA,152459,3427.7047,N,12003.1071,W,1,04,0.9,1318.8696,M,0.0,M,,*68
$GPRMC,152505,A,3427.6547,N,12002.9233,W,096.0,107.0,130217,0,E*7B
$GPGGA,152505,3427.6547,N,12002.9233,W,1,04,0.9,1319.784,M,0.0,M,,*52
$GPRMC,152511,A,3427.6071,N,12002.7373,W,096.0,107.0,130217,0,E*75
$GPGGA,152511,3427.6071,N,12002.7373,W,1,04,0.9,1329.8424,M,0.0,M,,*6E
$GPRMC,152517,A,3427.5638,N,12002.5511,W,096.0,104.0,130217,0,E*78
$GPGGA,152517,3427.5638,N,12002.5511,W,1,04,0.9,1337.7672,M,0.0,M,,*61
$GPRMC,152527,A,3427.4947,N,12002.2401,W,096.0,105.0,130217,0,E*7B
$GPGGA,152527,3427.4947,N,12002.2401,W,1,04,0.9,1348.74,M,0.0,M,,*6C
$GPRMC,152545,A,3427.3575,N,12001.6934,W,096.0,108.0,130217,0,E*74
$GPGGA,152545,3427.3575,N,12001.6934,W,1,04,0.9,1359.7128,M,0.0,M,,*61
$GPRMC,152548,A,3427.3284,N,12001.6039,W,097.0,111.0,130217,0,E*7D
$GPGGA,152548,3427.3284,N,12001.6039,W,1,04,0.9,1361.8464,M,0.0,M,,*68
$GPRMC,152551,A,3427.2952,N,12001.5136,W,097.0,114.0,130217,0,E*7C
$GPGGA,152551,3427.2952,N,12001.5136,W,1,04,0.9,1364.8944,M,0.0,M,,*66
$GPRMC,152602,A,3427.1692,N,12001.1807,W,098.0,115.0,130217,0,E*78
$GPGGA,152602,3427.1692,N,12001.1807,W,1,04,0.9,1365.8088,M,0.0,M,,*64
$GPRMC,152607,A,3427.1064,N,12001.0291,W,102.0,117.0,130217,0,E*76
$GPGGA,152607,3427.1064,N,12001.0291,W,1,04,0.9,1366.7232,M,0.0,M,,*65
$GPRMC,152611,A,3427.0497,N,12000.9085,W,102.0,120.0,130217,0,E*73
$GPGGA,152611,3427.0497,N,12000.9085,W,1,04,0.9,1366.7232,M,0.0,M,,*64
$GPRMC,152622,A,3426.8843,N,12000.5905,W,103.0,121.0,130217,0,E*72
$GPGGA,152622,3426.8843,N,12000.5905,W,1,04,0.9,1369.7712,M,0.0,M,,*6D
$GPRMC,152631,A,3426.7566,N,12000.3281,W,102.0,119.0,130217,0,E*7E
$GPGGA,152631,3426.7566,N,12000.3281,W,1,04,0.9,1373.7336,M,0.0,M,,*62
$GPRMC,152642,A,3426.5999,N,11959.9947,W,102.0,120.0,130217,0,E*73
$GPGGA,152642,3426.5999,N,11959.9947,W,1,04,0.9,1373.7336,M,0.0,M,,*65
$GPRMC,152652,A,3426.4590,N,11959.6968,W,103.0,118.0,130217,0,E*7E
$GPGGA,152652,3426.4590,N,11959.6968,W,1,04,0.9,1365.8088,M,0.0,M,,*6C
$GPRMC,152658,A,3426.3835,N,11959.5130,W,103.0,115.0,130217,0,E*7A
$GPGGA,152658,3426.3835,N,11959.5130,W,1,04,0.9,1366.7232,M,0.0,M,,*6A
$GPRMC,152704,A,3426.3120,N,11959.3238,W,103.0,114.0,130217,0,E*73
$GPGGA,152704,3426.3120,N,11959.3238,W,1,04,0.9,1367.9424,M,0.0,M,,*6C
$GPRMC,152716,A,3426.1751,N,11958.9427,W,104.0,112.0,130217,0,E*70
$GPGGA,152716,3426.1751,N,11958.9427,W,1,04,0.9,1373.7336,M,0.0,M,,*61
$GPRMC,152735,A,3425.9910,N,11958.3825,W,106.0,111.0,130217,0,E*74
$GPGGA,152735,3425.9910,N,11958.3825,W,1,04,0.9,1370.9904,M,0.0,M,,*62
$GPRMC,152736,A,3425.9796,N,11958.3492,W,106.0,112.0,130217,0,E*74
$GPGGA,152736,3425.9796,N,11958.3492,W,1,04,0.9,1370.9904,M,0.0,M,,*61
$GPRMC,152741,A,3425.9264,N,11958.1876,W,104.0,111.0,130217,0,E*79
$GPGGA,152741,3425.9264,N,11958.1876,W,1,04,0.9,1369.7712,M,0.0,M,,*62
$GPRMC,152756,A,3425.7571,N,11957.7184,W,101.0,114.0,130217,0,E*7F
$GPGGA,152756,3425.7571,N,11957.7184,W,1,04,0.9,1373.7336,M,0.0,M,,*6D
$GPRMC,152810,A,3425.6028,N,11957.2983,W,098.0,112.0,130217,0,E*77
$GPGGA,152810,3425.6028,N,11957.2983,W,1,04,0.9,1384.7064,M,0.0,M,,*6E
$GPRMC,152817,A,3425.5323,N,11957.0857,W,098.0,111.0,130217,0,E*72
$GPGGA,152817,3425.5323,N,11957.0857,W,1,04,0.9,1387.7544,M,0.0,M,,*6C
$GPRMC,152831,A,3425.3861,N,11956.6359,W,103.0,112.0,130217,0,E*7F
$GPGGA,152831,3425.3861,N,11956.6359,W,1,04,0.9,1390.8024,M,0.0,M,,*6B
$GPRMC,152845,A,3425.2210,N,11956.1980,W,102.0,115.0,130217,0,E*7E
$GPGGA,152845,3425.2210,N,11956.1980,W,1,04,0.9,1391.7168,M,0.0,M,,*6B
$GPRMC,152854,A,3425.1131,N,11955.9182,W,101.0,114.0,130217,0,E*7E
$GPGGA,152854,3425.1131,N,11955.9182,W,1,04,0.9,1392.936,M,0.0,M,,*5E
$GPRMC,152857,A,3425.0804,N,11955.8246,W,101.0,112.0,130217,0,E*7F
$GPGGA,152857,3425.0804,N,11955.8246,W,1,04,0.9,1394.7648,M,0.0,M,,*6E
$GPRMC,152906,A,3424.9925,N,11955.5386,W,102.0,110.0,130217,0,E*71
$GPGGA,152906,3424.9925,N,11955.5386,W,1,04,0.9,1405.7376,M,0.0,M,,*66
$GPRMC,152921,A,3424.8534,N,11955.0500,W,103.0,107.0,130217,0,E*73
$GPGGA,152921,3424.8534,N,11955.0500,W,1,04,0.9,1416.7104,M,0.0,M,,*66
$GPRMC,152923,A,3424.8422,N,11954.9806,W,105.0,102.0,130217,0,E*77
$GPGGA,152923,3424.8422,N,11954.9806,W,1,04,0.9,1415.796,M,0.0,M,,*58
$GPRMC,152925,A,3424.8390,N,11954.9118,W,104.0,098.0,130217,0,E*7A
$GPGGA,152925,3424.8390,N,11954.9118,W,1,04,0.9,1415.796,M,0.0,M,,*56
$GPRMC,152926,A,3424.8376,N,11954.8768,W,103.0,093.0,130217,0,E*7D
$GPGGA,152926,3424.8376,N,11954.8768,W,1,04,0.9,1416.7104,M,0.0,M,,*64
$GPRMC,152928,A,3424.8463,N,11954.8077,W,104.0,085.0,130217,0,E*79
$GPGGA,152928,3424.8463,N,11954.8077,W,1,04,0.9,1414.8816,M,0.0,M,,*67
$GPRMC,152929,A,3424.8509,N,11954.7729,W,106.0,082.0,130217,0,E*73
$GPGGA,152929,3424.8509,N,11954.7729,W,1,04,0.9,1416.7104,M,0.0,M,,*6F
$GPRMC,152932,A,3424.8692,N,11954.5968,W,106.0,079.0,130217,0,E*75
$GPGGA,152932,3424.8692,N,11954.5968,W,1,04,0.9,1414.8816,M,0.0,M,,*6A
$GPRMC,152933,A,3424.8695,N,11954.5619,W,106.0,085.0,130217,0,E*79
$GPGGA,152933,3424.8695,N,11954.5619,W,1,04,0.9,1416.7104,M,0.0,M,,*62
$GPRMC,152935,A,3424.8634,N,11954.4924,W,105.0,089.0,130217,0,E*7B
$GPGGA,152935,3424.8634,N,11954.4924,W,1,04,0.9,1417.9296,M,0.0,M,,*68
$GPRMC,152936,A,3424.8602,N,11954.4580,W,103.0,095.0,130217,0,E*74
$GPGGA,152936,3424.8602,N,11954.4580,W,1,04,0.9,1418.844,M,0.0,M,,*5F
$GPRMC,152939,A,3424.8471,N,11954.3535,W,105.0,098.0,130217,0,E*7F
$GPGGA,152939,3424.8471,N,11954.3535,W,1,04,0.9,1417.9296,M,0.0,M,,*6C
$GPRMC,152947,A,3424.8075,N,11954.0676,W,108.0,099.0,130217,0,E*7D
$GPGGA,152947,3424.8075,N,11954.0676,W,1,04,0.9,1405.7376,M,0.0,M,,*60
$GPRMC,152952,A,3424.7833,N,11953.8890,W,108.0,099.0,130217,0,E*75
$GPGGA,152952,3424.7833,N,11953.8890,W,1,04,0.9,1403.9088,M,0.0,M,,*62
$GPRMC,152954,A,3424.7687,N,11953.8188,W,108.0,102.0,130217,0,E*71
$GPGGA,152954,3424.7687,N,11953.8188,W,1,04,0.9,1401.7752,M,0.0,M,,*69
$GPRMC,152956,A,3424.7512,N,11953.7496,W,108.0,105.0,130217,0,E*7E
$GPGGA,152956,3424.7512,N,11953.7496,W,1,04,0.9,1399.9464,M,0.0,M,,*6F
$GPRMC,152958,A,3424.7309,N,11953.6819,W,108.0,108.0,130217,0,E*7B
$GPGGA,152958,3424.7309,N,11953.6819,W,1,04,0.9,1399.9464,M,0.0,M,,*67
$GPRMC,153000,A,3424.7074,N,11953.6157,W,107.0,111.0,130217,0,E*73
$GPGGA,153000,3424.7074,N,11953.6157,W,1,04,0.9,1398.7272,M,0.0,M,,*66
$GPRMC,153002,A,3424.6819,N,11953.5514,W,108.0,114.0,130217,0,E*79
$GPGGA,153002,3424.6819,N,11953.5514,W,1,04,0.9,1397.8128,M,0.0,M,,*6A
$GPRMC,153005,A,3424.6403,N,11953.4552,W,107.0,117.0,130217,0,E*76
$GPGGA,153005,3424.6403,N,11953.4552,W,1,04,0.9,1395.984,M,0.0,M,,*5D
$GPRMC,153021,A,3424.4301,N,11952.9613,W,102.0,115.0,130217,0,E*7A
$GPGGA,153021,3424.4301,N,11952.9613,W,1,04,0.9,1384.7064,M,0.0,M,,*66
$GPRMC,153031,A,3424.3074,N,11952.6573,W,100.0,115.0,130217,0,E*75
$GPGGA,153031,3424.3074,N,11952.6573,W,1,04,0.9,1381.9632,M,0.0,M,,*65
$GPRMC,153034,A,3424.2757,N,11952.5646,W,099.0,112.0,130217,0,E*77
$GPGGA,153034,3424.2757,N,11952.5646,W,1,04,0.9,1381.9632,M,0.0,M,,*61
$GPRMC,153048,A,3424.1371,N,11952.1417,W,097.0,111.0,130217,0,E*70
$GPGGA,153048,3424.1371,N,11952.1417,W,1,04,0.9,1382.8776,M,0.0,M,,*68
$GPRMC,153052,A,3424.1000,N,11952.0194,W,098.0,109.0,130217,0,E*77
$GPGGA,153052,3424.1000,N,11952.0194,W,1,04,0.9,1380.744,M,0.0,M,,*52
$GPRMC,153059,A,3424.0432,N,11951.7912,W,098.0,106.0,130217,0,E*75
$GPGGA,153059,3424.0432,N,11951.7912,W,1,04,0.9,1381.9632,M,0.0,M,,*67
$GPRMC,153105,A,3424.0021,N,11951.5958,W,098.0,103.0,130217,0,E*72
$GPGGA,153105,3424.0021,N,11951.5958,W,1,04,0.9,1378.9152,M,0.0,M,,*62
$GPRMC,153110,A,3423.9760,N,11951.4322,W,098.0,100.0,130217,0,E*7F
$GPGGA,153110,3423.9760,N,11951.4322,W,1,04,0.9,1376.7816,M,0.0,M,,*65
$GPRMC,153117,A,3423.9485,N,11951.2061,W,098.0,097.0,130217,0,E*7D
$GPGGA,153117,3423.9485,N,11951.2061,W,1,04,0.9,1372.8192,M,0.0,M,,*66
$GPRMC,153125,A,3423.9260,N,11950.9419,W,100.0,094.0,130217,0,E*73
$GPGGA,153125,3423.9260,N,11950.9419,W,1,04,0.9,1361.8464,M,0.0,M,,*65
$GPRMC,153133,A,3423.9159,N,11950.6704,W,102.0,091.0,130217,0,E*7A
$GPGGA,153133,3423.9159,N,11950.6704,W,1,04,0.9,1353.9216,M,0.0,M,,*68
$GPRMC,153152,A,3423.9095,N,11950.0171,W,102.0,091.0,130217,0,E*7E
$GPGGA,153152,3423.9095,N,11950.0171,W,1,04,0.9,1342.9488,M,0.0,M,,*6D
$GPRMC,153157,A,3423.9040,N,11949.8465,W,101.0,092.0,130217,0,E*73
$GPGGA,153157,3423.9040,N,11949.8465,W,1,04,0.9,1340.8152,M,0.0,M,,*61
$GPRMC,153204,A,3423.8915,N,11949.6076,W,101.0,094.0,130217,0,E*70
$GPGGA,153204,3423.8915,N,11949.6076,W,1,04,0.9,1335.9384,M,0.0,M,,*6E
$GPRMC,153218,A,3423.8588,N,11949.1315,W,102.0,096.0,130217,0,E*75
$GPGGA,153218,3423.8588,N,11949.1315,W,1,04,0.9,1324.9656,M,0.0,M,,*60
$GPRMC,153238,A,3423.7796,N,11948.4451,W,105.0,097.0,130217,0,E*70
$GPGGA,153238,3423.7796,N,11948.4451,W,1,04,0.9,1313.9928,M,0.0,M,,*61
$GPRMC,153245,A,3423.7503,N,11948.1992,W,106.0,097.0,130217,0,E*70
$GPGGA,153245,3423.7503,N,11948.1992,W,1,04,0.9,1302.7152,M,0.0,M,,*69
$GPRMC,153254,A,3423.7223,N,11947.8777,W,107.0,094.0,130217,0,E*74
$GPGGA,153254,3423.7223,N,11947.8777,W,1,04,0.9,1292.9616,M,0.0,M,,*6E
$GPRMC,153304,A,3423.7113,N,11947.5215,W,106.0,091.0,130217,0,E*78
$GPGGA,153304,3423.7113,N,11947.5215,W,1,04,0.9,1285.9512,M,0.0,M,,*67
$GPRMC,153309,A,3423.7084,N,11947.3458,W,104.0,091.0,130217,0,E*71
$GPGGA,153309,3423.7084,N,11947.3458,W,1,04,0.9,1282.9032,M,0.0,M,,*6C
$GPRMC,153321,A,3423.7098,N,11946.9287,W,104.0,089.0,130217,0,E*70
$GPGGA,153321,3423.7098,N,11946.9287,W,1,04,0.9,1274.9784,M,0.0,M,,*67
$GPRMC,153334,A,3423.7271,N,11946.4727,W,105.0,086.0,130217,0,E*7D
$GPGGA,153334,3423.7271,N,11946.4727,W,1,04,0.9,1270.7112,M,0.0,M,,*67
$GPRMC,153342,A,3423.7341,N,11946.1960,W,104.0,089.0,130217,0,E*78
$GPGGA,153342,3423.7341,N,11946.1960,W,1,04,0.9,1263.7008,M,0.0,M,,*64
$GPRMC,153346,A,3423.7299,N,11946.0561,W,104.0,092.0,130217,0,E*7E
$GPGGA,153346,3423.7299,N,11946.0561,W,1,04,0.9,1259.7384,M,0.0,M,,*66
$GPRMC,153350,A,3423.7189,N,11945.9189,W,104.0,095.0,130217,0,E*74
$GPGGA,153350,3423.7189,N,11945.9189,W,1,04,0.9,1255.776,M,0.0,M,,*59
$GPRMC,153353,A,3423.7059,N,11945.8164,W,103.0,098.0,130217,0,E*73
$GPGGA,153353,3423.7059,N,11945.8164,W,1,04,0.9,1255.776,M,0.0,M,,*54
$GPRMC,153357,A,3423.6833,N,11945.6824,W,104.0,101.0,130217,0,E*77
$GPGGA,153357,3423.6833,N,11945.6824,W,1,04,0.9,1254.8616,M,0.0,M,,*68
$GPRMC,153405,A,3423.6282,N,11945.4093,W,104.0,104.0,130217,0,E*74
$GPGGA,153405,3423.6282,N,11945.4093,W,1,04,0.9,1251.8136,M,0.0,M,,*6E
$GPRMC,153414,A,3423.5578,N,11945.1179,W,100.0,107.0,130217,0,E*72
$GPGGA,153414,3423.5578,N,11945.1179,W,1,04,0.9,1251.8136,M,0.0,M,,*6F
$GPRMC,153424,A,3423.4741,N,11944.7946,W,102.0,107.0,130217,0,E*79
$GPGGA,153424,3423.4741,N,11944.7946,W,1,04,0.9,1248.7656,M,0.0,M,,*60
$GPRMC,153429,A,3423.4365,N,11944.6258,W,103.0,104.0,130217,0,E*71
$GPGGA,153429,3423.4365,N,11944.6258,W,1,04,0.9,1242.9744,M,0.0,M,,*6C
$GPRMC,153434,A,3423.4042,N,11944.4575,W,103.0,103.0,130217,0,E*76
$GPGGA,153434,3423.4042,N,11944.4575,W,1,04,0.9,1240.8408,M,0.0,M,,*64
$GPRMC,153437,A,3423.3860,N,11944.3570,W,103.0,101.0,130217,0,E*7A
$GPGGA,153437,3423.3860,N,11944.3570,W,1,04,0.9,1240.8408,M,0.0,M,,*6A
$GPRMC,153445,A,3423.3470,N,11944.0828,W,104.0,098.0,130217,0,E*77
$GPGGA,153445,3423.3470,N,11944.0828,W,1,04,0.9,1236.8784,M,0.0,M,,*67
$GPRMC,153455,A,3423.3086,N,11943.7464,W,102.0,097.0,130217,0,E*76
$GPGGA,153455,3423.3086,N,11943.7464,W,1,04,0.9,1237.7928,M,0.0,M,,*69
$GPRMC,153505,A,3423.2776,N,11943.4077,W,101.0,096.0,130217,0,E*7C
$GPGGA,153505,3423.2776,N,11943.4077,W,1,04,0.9,1241.7552,M,0.0,M,,*61
$GPRMC,153510,A,3423.2670,N,11943.2414,W,100.0,093.0,130217,0,E*7C
$GPGGA,153510,3423.2670,N,11943.2414,W,1,04,0.9,1245.7176,M,0.0,M,,*63
$GPRMC,153515,A,3423.2609,N,11943.0721,W,100.0,092.0,130217,0,E*71
$GPGGA,153515,3423.2609,N,11943.0721,W,1,04,0.9,1245.7176,M,0.0,M,,*6F
$GPRMC,153522,A,3423.2576,N,11942.8376,W,100.0,090.0,130217,0,E*73
$GPGGA,153522,3423.2576,N,11942.8376,W,1,04,0.9,1243.8888,M,0.0,M,,*6E
$GPRMC,153538,A,3423.2539,N,11942.2962,W,101.0,089.0,130217,0,E*7F
$GPGGA,153538,3423.2539,N,11942.2962,W,1,04,0.9,1240.8408,M,0.0,M,,*6C
$GPRMC,153542,A,3423.2568,N,11942.1611,W,102.0,088.0,130217,0,E*7C
$GPGGA,153542,3423.2568,N,11942.1611,W,1,04,0.9,1237.7928,M,0.0,M,,*6D
$GPRMC,153550,A,3423.2613,N,11941.8853,W,103.0,088.0,130217,0,E*73
$GPGGA,153550,3423.2613,N,11941.8853,W,1,04,0.9,1234.7448,M,0.0,M,,*6B
$GPRMC,153603,A,3423.2618,N,11941.4425,W,101.0,090.0,130217,0,E*77
$GPGGA,153603,3423.2618,N,11941.4425,W,1,04,0.9,1235.964,M,0.0,M,,*51
$GPRMC,153610,A,3423.2677,N,11941.1964,W,103.0,087.0,130217,0,E*75
$GPGGA,153610,3423.2677,N,11941.1964,W,1,04,0.9,1231.6968,M,0.0,M,,*69
$GPRMC,153623,A,3423.2805,N,11940.7541,W,101.0,088.0,130217,0,E*7F
$GPGGA,153623,3423.2805,N,11940.7541,W,1,04,0.9,1229.868,M,0.0,M,,*50
$GPRMC,153630,A,3423.2846,N,11940.5141,W,103.0,089.0,130217,0,E*7F
$GPGGA,153630,3423.2846,N,11940.5141,W,1,04,0.9,1224.9912,M,0.0,M,,*6B
$GPRMC,153641,A,3423.2905,N,11940.1386,W,101.0,088.0,130217,0,E*71
$GPGGA,153641,3423.2905,N,11940.1386,W,1,04,0.9,1224.9912,M,0.0,M,,*66
$GPRMC,153645,A,3423.2965,N,11940.0096,W,097.0,086.0,130217,0,E*70
$GPGGA,153645,3423.2965,N,11940.0096,W,1,04,0.9,1227.7344,M,0.0,M,,*63
$GPRMC,153702,A,3423.3165,N,11939.4658,W,095.0,089.0,130217,0,E*78
$GPGGA,153702,3423.3165,N,11939.4658,W,1,04,0.9,1236.8784,M,0.0,M,,*61
$GPRMC,153718,A,3423.3204,N,11938.9569,W,096.0,088.0,130217,0,E*78
$GPGGA,153718,3423.3204,N,11938.9569,W,1,04,0.9,1236.8784,M,0.0,M,,*63
$GPRMC,153723,A,3423.3261,N,11938.7944,W,098.0,087.0,130217,0,E*7F
$GPGGA,153723,3423.3261,N,11938.7944,W,1,04,0.9,1234.7448,M,0.0,M,,*6B
$GPRMC,153727,A,3423.3257,N,11938.6624,W,098.0,090.0,130217,0,E*70
$GPGGA,153727,3423.3257,N,11938.6624,W,1,04,0.9,1233.8304,M,0.0,M,,*65
$GPRMC,153739,A,3423.3163,N,11938.2682,W,100.0,091.0,130217,0,E*72
$GPGGA,153739,3423.3163,N,11938.2682,W,1,04,0.9,1232.916,M,0.0,M,,*56
$GPRMC,153748,A,3423.3059,N,11937.9705,W,098.0,092.0,130217,0,E*75
$GPGGA,153748,3423.3059,N,11937.9705,W,1,04,0.9,1232.916,M,0.0,M,,*52
$GPRMC,153801,A,3423.2927,N,11937.5381,W,101.0,092.0,130217,0,E*73
$GPGGA,153801,3423.2927,N,11937.5381,W,1,04,0.9,1221.9432,M,0.0,M,,*65
$GPRMC,153806,A,3423.2829,N,11937.3625,W,105.0,094.0,130217,0,E*74
$GPGGA,153806,3423.2829,N,11937.3625,W,1,04,0.9,1208.8368,M,0.0,M,,*62
$GPRMC,153813,A,3423.2599,N,11937.1145,W,106.0,097.0,130217,0,E*75
$GPGGA,153813,3423.2599,N,11937.1145,W,1,04,0.9,1199.9976,M,0.0,M,,*6C
$GPRMC,153818,A,3423.2349,N,11936.9398,W,105.0,100.0,130217,0,E*72
$GPGGA,153818,3423.2349,N,11936.9398,W,1,04,0.9,1198.7784,M,0.0,M,,*6B
$GPRMC,153823,A,3423.2032,N,11936.7677,W,105.0,103.0,130217,0,E*7C
$GPGGA,153823,3423.2032,N,11936.7677,W,1,04,0.9,1197.864,M,0.0,M,,*5F
$GPRMC,153829,A,3423.1605,N,11936.5627,W,105.0,104.0,130217,0,E*77
$GPGGA,153829,3423.1605,N,11936.5627,W,1,04,0.9,1194.816,M,0.0,M,,*55
$GPRMC,153844,A,3423.0426,N,11936.0493,W,104.0,105.0,130217,0,E*76
$GPGGA,153844,3423.0426,N,11936.0493,W,1,04,0.9,1188.72,M,0.0,M,,*63
$GPRMC,153853,A,3422.9730,N,11935.7403,W,105.0,105.0,130217,0,E*70
$GPGGA,153853,3422.9730,N,11935.7403,W,1,04,0.9,1185.9768,M,0.0,M,,*6C
$GPRMC,153859,A,3422.9260,N,11935.5398,W,105.0,105.0,130217,0,E*7D
$GPGGA,153859,3422.9260,N,11935.5398,W,1,04,0.9,1176.8328,M,0.0,M,,*6C
$GPRMC,153919,A,3422.7554,N,11934.8507,W,106.0,106.0,130217,0,E*7A
$GPGGA,153919,3422.7554,N,11934.8507,W,1,04,0.9,1171.956,M,0.0,M,,*57
$GPRMC,153933,A,3422.6380,N,11934.3783,W,106.0,106.0,130217,0,E*79
$GPGGA,153933,3422.6380,N,11934.3783,W,1,04,0.9,1160.9832,M,0.0,M,,*6E
$GPRMC,153942,A,3422.5628,N,11934.0641,W,108.0,106.0,130217,0,E*79
$GPGGA,153942,3422.5628,N,11934.0641,W,1,04,0.9,1157.9352,M,0.0,M,,*69
$GPRMC,153950,A,3422.4856,N,11933.7930,W,107.0,109.0,130217,0,E*75
$GPGGA,153950,3422.4856,N,11933.7930,W,1,04,0.9,1151.8392,M,0.0,M,,*6E
$GPRMC,154004,A,3422.3341,N,11933.3329,W,106.0,110.0,130217,0,E*7F
$GPGGA,154004,3422.3341,N,11933.3329,W,1,04,0.9,1140.8664,M,0.0,M,,*61
$GPRMC,154011,A,3422.2608,N,11933.0971,W,106.0,110.0,130217,0,E*76
$GPGGA,154011,3422.2608,N,11933.0971,W,1,04,0.9,1137.8184,M,0.0,M,,*61
$GPRMC,154024,A,3422.1388,N,11932.6581,W,104.0,108.0,130217,0,E*71
$GPGGA,154024,3422.1388,N,11932.6581,W,1,04,0.9,1130.808,M,0.0,M,,*5F
$GPRMC,154032,A,3422.0631,N,11932.3898,W,106.0,109.0,130217,0,E*73
$GPGGA,154032,3422.0631,N,11932.3898,W,1,04,0.9,1127.76,M,0.0,M,,*69
$GPRMC,154040,A,3421.9805,N,11932.1284,W,104.0,111.0,130217,0,E*7B
$GPGGA,154040,3421.9805,N,11932.1284,W,1,04,0.9,1121.9688,M,0.0,M,,*62
$GPRMC,154049,A,3421.8831,N,11931.8350,W,106.0,111.0,130217,0,E*74
$GPGGA,154049,3421.8831,N,11931.8350,W,1,04,0.9,1118.9208,M,0.0,M,,*69
$GPRMC,154058,A,3421.7862,N,11931.5397,W,105.0,111.0,130217,0,E*78
$GPGGA,154058,3421.7862,N,11931.5397,W,1,04,0.9,1110.996,M,0.0,M,,*5B
$GPRMC,154113,A,3421.6325,N,11931.0426,W,106.0,110.0,130217,0,E*75
$GPGGA,154113,3421.6325,N,11931.0426,W,1,04,0.9,1098.804,M,0.0,M,,*5F
$GPRMC,154119,A,3421.5713,N,11930.8403,W,107.0,109.0,130217,0,E*7A
$GPGGA,154119,3421.5713,N,11930.8403,W,1,04,0.9,1095.756,M,0.0,M,,*5C
$GPRMC,154129,A,3421.4740,N,11930.5057,W,105.0,109.0,130217,0,E*74
$GPGGA,154129,3421.4740,N,11930.5057,W,1,04,0.9,1087.8312,M,0.0,M,,*6F
$GPRMC,154135,A,3421.4227,N,11930.3000,W,106.0,106.0,130217,0,E*75
$GPGGA,154135,3421.4227,N,11930.3000,W,1,04,0.9,1085.6976,M,0.0,M,,*66
$GPRMC,154138,A,3421.3969,N,11930.1956,W,106.0,106.0,130217,0,E*76
$GPGGA,154138,3421.3969,N,11930.1956,W,1,04,0.9,1101.852,M,0.0,M,,*59
$GPRMC,154144,A,3421.3501,N,11929.9896,W,106.0,105.0,130217,0,E*71
$GPGGA,154144,3421.3501,N,11929.9896,W,1,04,0.9,1090.8792,M,0.0,M,,*6F
$GPRMC,154149,A,3421.3100,N,11929.8172,W,106.0,105.0,130217,0,E*7B
$GPGGA,154149,3421.3100,N,11929.8172,W,1,04,0.9,1079.9064,M,0.0,M,,*6D
$GPRMC,154159,A,3421.2231,N,11929.4881,W,105.0,108.0,130217,0,E*7D
$GPGGA,154159,3421.2231,N,11929.4881,W,1,04,0.9,1073.8104,M,0.0,M,,*69
$GPRMC,154203,A,3421.1807,N,11929.3541,W,106.0,111.0,130217,0,E*70
$GPGGA,154203,3421.1807,N,11929.3541,W,1,04,0.9,1068.9336,M,0.0,M,,*67
$GPRMC,154216,A,3421.0374,N,11928.9178,W,107.0,110.0,130217,0,E*7F
$GPGGA,154216,3421.0374,N,11928.9178,W,1,04,0.9,1057.9608,M,0.0,M,,*6C
$GPRMC,154237,A,3420.8335,N,11928.2165,W,105.0,111.0,130217,0,E*74
$GPGGA,154237,3420.8335,N,11928.2165,W,1,04,0.9,1048.8168,M,0.0,M,,*6A
$GPRMC,154242,A,3420.7759,N,11928.0492,W,107.0,112.0,130217,0,E*79
$GPGGA,154242,3420.7759,N,11928.0492,W,1,04,0.9,1046.988,M,0.0,M,,*56
$GPRMC,154247,A,3420.7202,N,11927.8832,W,107.0,111.0,130217,0,E*75
$GPGGA,154247,3420.7202,N,11927.8832,W,1,04,0.9,1037.844,M,0.0,M,,*5E
$GPRMC,154254,A,3420.6425,N,11927.6487,W,106.0,111.0,130217,0,E*78
$GPGGA,154254,3420.6425,N,11927.6487,W,1,04,0.9,1035.7104,M,0.0,M,,*6A
$GPRMC,154302,A,3420.5493,N,11927.3892,W,106.0,114.0,130217,0,E*7C
$GPGGA,154302,3420.5493,N,11927.3892,W,1,04,0.9,1028.7,M,0.0,M,,*52
$GPRMC,154308,A,3420.4695,N,11927.1978,W,106.0,117.0,130217,0,E*77
$GPGGA,154308,3420.4695,N,11927.1978,W,1,04,0.9,1021.9944,M,0.0,M,,*64
$GPRMC,154314,A,3420.3800,N,11927.0047,W,108.0,120.0,130217,0,E*71
$GPGGA,154314,3420.3800,N,11927.0047,W,1,04,0.9,1017.7272,M,0.0,M,,*6D
$GPRMC,154320,A,3420.2859,N,11926.8179,W,109.0,121.0,130217,0,E*7E
$GPGGA,154320,3420.2859,N,11926.8179,W,1,04,0.9,1017.7272,M,0.0,M,,*62
$GPRMC,154335,A,3420.0443,N,11926.3537,W,108.0,122.0,130217,0,E*78
$GPGGA,154335,3420.0443,N,11926.3537,W,1,04,0.9,1017.7272,M,0.0,M,,*66
$GPRMC,154345,A,3419.8846,N,11926.0484,W,107.0,122.0,130217,0,E*71
$GPGGA,154345,3419.8846,N,11926.0484,W,1,04,0.9,1014.984,M,0.0,M,,*56
$GPRMC,154349,A,3419.8199,N,11925.9303,W,108.0,122.0,130217,0,E*7B
$GPGGA,154349,3419.8199,N,11925.9303,W,1,04,0.9,1006.7544,M,0.0,M,,*67
$GPRMC,154355,A,3419.7395,N,11925.7825,W,108.0,122.0,130217,0,E*76
$GPGGA,154355,3419.7395,N,11925.7825,W,1,04,0.9,994.867200000001,M,0.0,M,,*51
$GPRMC,154400,A,3419.6388,N,11925.6049,W,108.0,125.0,130217,0,E*78
$GPGGA,154400,3419.6388,N,11925.6049,W,1,04,0.9,983.894400000001,M,0.0,M,,*54
$GPRMC,154408,A,3419.5006,N,11925.3691,W,107.0,124.0,130217,0,E*7E
$GPGGA,154408,3419.5006,N,11925.3691,W,1,04,0.9,1029.9192,M,0.0,M,,*67
$GPRMC,154415,A,3419.3911,N,11925.1618,W,104.0,122.0,130217,0,E*7D
$GPGGA,154415,3419.3911,N,11925.1618,W,1,04,0.9,1040.892,M,0.0,M,,*5E
$GPRMC,154418,A,3419.3471,N,11925.0729,W,104.0,121.0,130217,0,E*7A
$GPGGA,154418,3419.3471,N,11925.0729,W,1,04,0.9,1028.7,M,0.0,M,,*50
$GPRMC,154421,A,3419.3041,N,11924.9810,W,103.0,119.0,130217,0,E*76
$GPGGA,154421,3419.3041,N,11924.9810,W,1,04,0.9,1016.8128,M,0.0,M,,*69
$GPRMC,154424,A,3419.2617,N,11924.8888,W,103.0,119.0,130217,0,E*77
$GPGGA,154424,3419.2617,N,11924.8888,W,1,04,0.9,1005.84,M,0.0,M,,*65
$GPRMC,154429,A,3419.1927,N,11924.7356,W,103.0,118.0,130217,0,E*73
$GPGGA,154429,3419.1927,N,11924.7356,W,1,04,0.9,994.867200000001,M,0.0,M,,*56
$GPRMC,154432,A,3419.1511,N,11924.6445,W,103.0,118.0,130217,0,E*74
$GPGGA,154432,3419.1511,N,11924.6445,W,1,04,0.9,1008.888,M,0.0,M,,*5E
$GPRMC,154438,A,3419.0642,N,11924.4562,W,106.0,119.0,130217,0,E*78
$GPGGA,154438,3419.0642,N,11924.4562,W,1,04,0.9,997.915200000001,M,0.0,M,,*5E
$GPRMC,154445,A,3418.9573,N,11924.2396,W,105.0,121.0,130217,0,E*78
$GPGGA,154445,3418.9573,N,11924.2396,W,1,04,0.9,985.723200000001,M,0.0,M,,*5E
$GPRMC,154455,A,3418.8106,N,11923.9412,W,103.0,120.0,130217,0,E*7E
$GPGGA,154455,3418.8106,N,11923.9412,W,1,04,0.9,973.836000000001,M,0.0,M,,*5F
$GPRMC,154506,A,3418.6440,N,11923.6173,W,104.0,123.0,130217,0,E*79
$GPGGA,154506,3418.6440,N,11923.6173,W,1,04,0.9,965.911200000001,M,0.0,M,,*5D
$GPRMC,154526,A,3418.3280,N,11923.0341,W,104.0,123.0,130217,0,E*71
$GPGGA,154526,3418.3280,N,11923.0341,W,1,04,0.9,966.825600000001,M,0.0,M,,*54
$GPRMC,154527,A,3418.3121,N,11923.0025,W,104.0,122.0,130217,0,E*78
$GPGGA,154527,3418.3121,N,11923.0025,W,1,04,0.9,966.825600000001,M,0.0,M,,*5C
$GPRMC,154532,A,3418.2373,N,11922.8556,W,104.0,121.0,130217,0,E*73
$GPGGA,154532,3418.2373,N,11922.8556,W,1,04,0.9,966.825600000001,M,0.0,M,,*54
$GPRMC,154547,A,3418.0223,N,11922.4063,W,103.0,119.0,130217,0,E*74
$GPGGA,154547,3418.0223,N,11922.4063,W,1,04,0.9,966.825600000001,M,0.0,M,,*5F
$GPRMC,154552,A,3417.9510,N,11922.2569,W,105.0,119.0,130217,0,E*7E
$GPGGA,154552,3417.9510,N,11922.2569,W,1,04,0.9,963.777600000001,M,0.0,M,,*5E
$GPRMC,154557,A,3417.8779,N,11922.1092,W,104.0,120.0,130217,0,E*7E
$GPGGA,154557,3417.8779,N,11922.1092,W,1,04,0.9,955.852800000001,M,0.0,M,,*56
$GPRMC,154606,A,3417.7493,N,11921.8397,W,103.0,119.0,130217,0,E*70
$GPGGA,154606,3417.7493,N,11921.8397,W,1,04,0.9,952.804800000001,M,0.0,M,,*51
$GPRMC,154612,A,3417.6682,N,11921.6569,W,104.0,117.0,130217,0,E*76
$GPGGA,154612,3417.6682,N,11921.6569,W,1,04,0.9,951.890400000001,M,0.0,M,,*5C
$GPRMC,154633,A,3417.4056,N,11921.0160,W,101.0,116.0,130217,0,E*77
$GPGGA,154633,3417.4056,N,11921.0160,W,1,04,0.9,946.708800000001,M,0.0,M,,*5D
$GPRMC,154653,A,3417.1624,N,11920.4136,W,100.0,116.0,130217,0,E*70
$GPGGA,154653,3417.1624,N,11920.4136,W,1,04,0.9,948.842400000001,M,0.0,M,,*58
$GPRMC,154654,A,3417.1499,N,11920.3828,W,101.0,116.0,130217,0,E*73
$GPGGA,154654,3417.1499,N,11920.3828,W,1,04,0.9,948.842400000001,M,0.0,M,,*5A
$GPRMC,154710,A,3416.9486,N,11919.9089,W,099.0,117.0,130217,0,E*77
$GPGGA,154710,3416.9486,N,11919.9089,W,1,04,0.9,945.794400000001,M,0.0,M,,*56
$GPRMC,154714,A,3416.8966,N,11919.7906,W,100.0,117.0,130217,0,E*70
$GPGGA,154714,3416.8966,N,11919.7906,W,1,04,0.9,943.965600000001,M,0.0,M,,*54
$GPRMC,154718,A,3416.8422,N,11919.6779,W,098.0,120.0,130217,0,E*72
$GPGGA,154718,3416.8422,N,11919.6779,W,1,04,0.9,943.965600000001,M,0.0,M,,*52
$GPRMC,154732,A,3416.6467,N,11919.2867,W,098.0,120.0,130217,0,E*71
$GPGGA,154732,3416.6467,N,11919.2867,W,1,04,0.9,941.832000000001,M,0.0,M,,*56
$GPRMC,154738,A,3416.5620,N,11919.1138,W,100.0,120.0,130217,0,E*79
$GPGGA,154738,3416.5620,N,11919.1138,W,1,04,0.9,932.992800000001,M,0.0,M,,*59
$GPRMC,154744,A,3416.4763,N,11918.9439,W,099.0,121.0,130217,0,E*78
$GPGGA,154744,3416.4763,N,11918.9439,W,1,04,0.9,929.944800000001,M,0.0,M,,*59
$GPRMC,154748,A,3416.4213,N,11918.8350,W,095.0,121.0,130217,0,E*73
$GPGGA,154748,3416.4213,N,11918.8350,W,1,04,0.9,934.821600000001,M,0.0,M,,*5E
$GPRMC,154808,A,3416.1505,N,11918.2770,W,098.0,120.0,130217,0,E*7D
$GPGGA,154808,3416.1505,N,11918.2770,W,1,04,0.9,942.746400000001,M,0.0,M,,*51
$GPRMC,154814,A,3416.0659,N,11918.1068,W,097.0,121.0,130217,0,E*78
$GPGGA,154814,3416.0659,N,11918.1068,W,1,04,0.9,943.965600000001,M,0.0,M,,*56
$GPRMC,154820,A,3415.9809,N,11917.9385,W,096.0,122.0,130217,0,E*7B
$GPGGA,154820,3415.9809,N,11917.9385,W,1,04,0.9,953.719200000001,M,0.0,M,,*57
$GPRMC,154837,A,3415.7318,N,11917.4865,W,094.0,123.0,130217,0,E*73
$GPGGA,154837,3415.7318,N,11917.4865,W,1,04,0.9,965.911200000001,M,0.0,M,,*5F
$GPRMC,154847,A,3415.5808,N,11917.2284,W,094.0,126.0,130217,0,E*7A
$GPGGA,154847,3415.5808,N,11917.2284,W,1,04,0.9,971.702400000001,M,0.0,M,,*5C
$GPRMC,154908,A,3415.2562,N,11916.6910,W,094.0,126.0,130217,0,E*75
$GPGGA,154908,3415.2562,N,11916.6910,W,1,04,0.9,980.846400000001,M,0.0,M,,*52
$GPRMC,154919,A,3415.0891,N,11916.3984,W,094.0,124.0,130217,0,E*7C
$GPGGA,154919,3415.0891,N,11916.3984,W,1,04,0.9,991.819200000001,M,0.0,M,,*55
$GPRMC,154928,A,3414.9569,N,11916.1655,W,092.0,124.0,130217,0,E*7B
$GPGGA,154928,3414.9569,N,11916.1655,W,1,04,0.9,1002.792,M,0.0,M,,*59
$GPRMC,154948,A,3414.6515,N,11915.6602,W,095.0,126.0,130217,0,E*7A
$GPGGA,154948,3414.6515,N,11915.6602,W,1,04,0.9,1009.8024,M,0.0,M,,*64
$GPRMC,154953,A,3414.5760,N,11915.5247,W,095.0,122.0,130217,0,E*71
$GPGGA,154953,3414.5760,N,11915.5247,W,1,04,0.9,1011.936,M,0.0,M,,*50
$GPRMC,154956,A,3414.5374,N,11915.4436,W,095.0,119.0,130217,0,E*7C
$GPGGA,154956,3414.5374,N,11915.4436,W,1,04,0.9,1014.984,M,0.0,M,,*59
$GPRMC,155001,A,3414.4716,N,11915.3049,W,095.0,119.0,130217,0,E*7C
$GPGGA,155001,3414.4716,N,11915.3049,W,1,04,0.9,1017.7272,M,0.0,M,,*6F
$GPRMC,155016,A,3414.2738,N,11914.8842,W,096.0,120.0,130217,0,E*70
$GPGGA,155016,3414.2738,N,11914.8842,W,1,04,0.9,1023.8232,M,0.0,M,,*66
$GPRMC,155021,A,3414.1991,N,11914.7443,W,099.0,123.0,130217,0,E*74
$GPGGA,155021,3414.1991,N,11914.7443,W,1,04,0.9,1027.7856,M,0.0,M,,*6D
$GPRMC,155025,A,3414.1353,N,11914.6423,W,097.0,126.0,130217,0,E*78
$GPGGA,155025,3414.1353,N,11914.6423,W,1,04,0.9,1029.9192,M,0.0,M,,*6B
$GPRMC,155045,A,3413.8237,N,11914.1522,W,096.0,127.0,130217,0,E*74
$GPGGA,155045,3413.8237,N,11914.1522,W,1,04,0.9,1029.9192,M,0.0,M,,*67
$GPRMC,155046,A,3413.8071,N,11914.1260,W,097.0,128.0,130217,0,E*78
$GPGGA,155046,3413.8071,N,11914.1260,W,1,04,0.9,1030.8336,M,0.0,M,,*60
$GPRMC,155050,A,3413.7422,N,11914.0212,W,096.0,125.0,130217,0,E*7A
$GPGGA,155050,3413.7422,N,11914.0212,W,1,04,0.9,1031.748,M,0.0,M,,*5A
$GPRMC,155058,A,3413.6173,N,11913.8066,W,097.0,124.0,130217,0,E*7C
$GPGGA,155058,3413.6173,N,11913.8066,W,1,04,0.9,1034.796,M,0.0,M,,*5A
$GPRMC,155104,A,3413.5186,N,11913.6515,W,097.0,128.0,130217,0,E*7E
$GPGGA,155104,3413.5186,N,11913.6515,W,1,04,0.9,1037.844,M,0.0,M,,*57
$GPRMC,155116,A,3413.3113,N,11913.3503,W,099.0,129.0,130217,0,E*7A
$GPGGA,155116,3413.3113,N,11913.3503,W,1,04,0.9,1035.7104,M,0.0,M,,*64
$GPRMC,155121,A,3413.2221,N,11913.2256,W,098.0,131.0,130217,0,E*73
$GPGGA,155121,3413.2221,N,11913.2256,W,1,04,0.9,1034.796,M,0.0,M,,*5E
$GPRMC,155138,A,3412.9151,N,11912.8037,W,099.0,130.0,130217,0,E*7B
$GPGGA,155138,3412.9151,N,11912.8037,W,1,04,0.9,1031.748,M,0.0,M,,*50
$GPRMC,155139,A,3412.8979,N,11912.7737,W,098.0,128.0,130217,0,E*79
$GPGGA,155139,3412.8979,N,11912.7737,W,1,04,0.9,1031.748,M,0.0,M,,*5A
$GPRMC,155141,A,3412.8674,N,11912.7153,W,098.0,124.0,130217,0,E*7C
$GPGGA,155141,3412.8674,N,11912.7153,W,1,04,0.9,1035.7104,M,0.0,M,,*6E
$GPRMC,155143,A,3412.8373,N,11912.6572,W,098.0,121.0,130217,0,E*7F
$GPGGA,155143,3412.8373,N,11912.6572,W,1,04,0.9,1038.7584,M,0.0,M,,*69
$GPRMC,155145,A,3412.8059,N,11912.6038,W,099.0,124.0,130217,0,E*7D
$GPGGA,155145,3412.8059,N,11912.6038,W,1,04,0.9,1036.9296,M,0.0,M,,*6B
$GPRMC,155152,A,3412.7026,N,11912.4081,W,099.0,121.0,130217,0,E*79
$GPGGA,155152,3412.7026,N,11912.4081,W,1,04,0.9,1038.7584,M,0.0,M,,*6E
$GPRMC,155211,A,3412.4294,N,11911.8833,W,098.0,122.0,130217,0,E*79
$GPGGA,155211,3412.4294,N,11911.8833,W,1,04,0.9,1041.8064,M,0.0,M,,*66
$GPRMC,155212,A,3412.4144,N,11911.8552,W,098.0,123.0,130217,0,E*7F
$GPGGA,155212,3412.4144,N,11911.8552,W,1,04,0.9,1041.8064,M,0.0,M,,*61
$GPRMC,155230,A,3412.1334,N,11911.3596,W,100.0,124.0,130217,0,E*7B
$GPGGA,155230,3412.1334,N,11911.3596,W,1,04,0.9,1044.8544,M,0.0,M,,*60
$GPRMC,155233,A,3412.0854,N,11911.2765,W,101.0,124.0,130217,0,E*7A
$GPGGA,155233,3412.0854,N,11911.2765,W,1,04,0.9,1043.94,M,0.0,M,,*67
$GPRMC,155239,A,3411.9944,N,11911.1042,W,101.0,121.0,130217,0,E*7E
$GPGGA,155239,3411.9944,N,11911.1042,W,1,04,0.9,1043.94,M,0.0,M,,*66
$GPRMC,155259,A,3411.6907,N,11910.5288,W,101.0,122.0,130217,0,E*72
$GPGGA,155259,3411.6907,N,11910.5288,W,1,04,0.9,1043.94,M,0.0,M,,*69
$GPRMC,155300,A,3411.6767,N,11910.5011,W,101.0,122.0,130217,0,E*75
$GPGGA,155300,3411.6767,N,11910.5011,W,1,04,0.9,1044.8544,M,0.0,M,,*69
$GPRMC,155307,A,3411.5790,N,11910.3004,W,101.0,119.0,130217,0,E*73
$GPGGA,155307,3411.5790,N,11910.3004,W,1,04,0.9,1041.8064,M,0.0,M,,*65
$GPRMC,155312,A,3411.5103,N,11910.1468,W,101.0,118.0,130217,0,E*76
$GPGGA,155312,3411.5103,N,11910.1468,W,1,04,0.9,1043.94,M,0.0,M,,*64
$GPRMC,155322,A,3411.3831,N,11909.8571,W,099.0,117.0,130217,0,E*7C
$GPGGA,155322,3411.3831,N,11909.8571,W,1,04,0.9,1052.7792,M,0.0,M,,*67
$GPRMC,155329,A,3411.2887,N,11909.6567,W,099.0,120.0,130217,0,E*76
$GPGGA,155329,3411.2887,N,11909.6567,W,1,04,0.9,1055.8272,M,0.0,M,,*6A
$GPRMC,155344,A,3411.0763,N,11909.2181,W,101.0,121.0,130217,0,E*73
$GPGGA,155344,3411.0763,N,11909.2181,W,1,04,0.9,1057.9608,M,0.0,M,,*64
$GPRMC,155348,A,3411.0143,N,11909.1027,W,102.0,123.0,130217,0,E*74
$GPGGA,155348,3411.0143,N,11909.1027,W,1,04,0.9,1058.8752,M,0.0,M,,*62
$GPRMC,155404,A,3410.7601,N,11908.6439,W,103.0,122.0,130217,0,E*71
$GPGGA,155404,3410.7601,N,11908.6439,W,1,04,0.9,1061.9232,M,0.0,M,,*6F
$GPRMC,155408,A,3410.6990,N,11908.5290,W,102.0,122.0,130217,0,E*7C
$GPGGA,155408,3410.6990,N,11908.5290,W,1,04,0.9,1062.8376,M,0.0,M,,*60
$GPRMC,155422,A,3410.4916,N,11908.1271,W,101.0,121.0,130217,0,E*73
$GPGGA,155422,3410.4916,N,11908.1271,W,1,04,0.9,1065.8856,M,0.0,M,,*61
$GPRMC,155428,A,3410.4062,N,11907.9507,W,101.0,120.0,130217,0,E*73
$GPGGA,155428,3410.4062,N,11907.9507,W,1,04,0.9,1067.7144,M,0.0,M,,*67
$GPRMC,155447,A,3410.1353,N,11907.3896,W,102.0,120.0,130217,0,E*72
$GPGGA,155447,3410.1353,N,11907.3896,W,1,04,0.9,1070.7624,M,0.0,M,,*62
$GPRMC,155448,A,3410.1214,N,11907.3609,W,102.0,120.0,130217,0,E*77
$GPGGA,155448,3410.1214,N,11907.3609,W,1,04,0.9,1070.7624,M,0.0,M,,*67
$GPRMC,155500,A,3409.9547,N,11907.0078,W,100.0,119.0,130217,0,E*70
$GPGGA,155500,3409.9547,N,11907.0078,W,1,04,0.9,1072.896,M,0.0,M,,*5A
$GPRMC,155505,A,3409.8891,N,11906.8622,W,100.0,117.0,130217,0,E*7C
$GPGGA,155505,3409.8891,N,11906.8622,W,1,04,0.9,1070.7624,M,0.0,M,,*6A
$GPRMC,155524,A,3409.6416,N,11906.2982,W,100.0,118.0,130217,0,E*72
$GPGGA,155524,3409.6416,N,11906.2982,W,1,04,0.9,1070.7624,M,0.0,M,,*6B
$GPRMC,155525,A,3409.6281,N,11906.2678,W,100.0,118.0,130217,0,E*71
$GPGGA,155525,3409.6281,N,11906.2678,W,1,04,0.9,1070.7624,M,0.0,M,,*68
$GPRMC,155538,A,3409.4579,N,11905.8806,W,102.0,118.0,130217,0,E*73
$GPGGA,155538,3409.4579,N,11905.8806,W,1,04,0.9,1070.7624,M,0.0,M,,*68
$GPRMC,155544,A,3409.3694,N,11905.7043,W,103.0,121.0,130217,0,E*72
$GPGGA,155544,3409.3694,N,11905.7043,W,1,04,0.9,1067.7144,M,0.0,M,,*65
$GPRMC,155547,A,3409.3211,N,11905.6197,W,103.0,124.0,130217,0,E*74
$GPGGA,155547,3409.3211,N,11905.6197,W,1,04,0.9,1067.7144,M,0.0,M,,*66
$GPRMC,155552,A,3409.2399,N,11905.4840,W,101.0,125.0,130217,0,E*72
$GPGGA,155552,3409.2399,N,11905.4840,W,1,04,0.9,1066.8,M,0.0,M,,*5C
$GPRMC,155556,A,3409.1721,N,11905.3760,W,102.0,127.0,130217,0,E*79
$GPGGA,155556,3409.1721,N,11905.3760,W,1,04,0.9,1064.9712,M,0.0,M,,*61
$GPRMC,155607,A,3408.9762,N,11905.0842,W,104.0,128.0,130217,0,E*75
$GPGGA,155607,3408.9762,N,11905.0842,W,1,04,0.9,1061.9232,M,0.0,M,,*66
$GPRMC,155613,A,3408.8656,N,11904.9243,W,105.0,130.0,130217,0,E*7C
$GPGGA,155613,3408.8656,N,11904.9243,W,1,04,0.9,1058.8752,M,0.0,M,,*6F
$GPRMC,155620,A,3408.7302,N,11904.7410,W,104.0,131.0,130217,0,E*79
$GPGGA,155620,3408.7302,N,11904.7410,W,1,04,0.9,1056.7416,M,0.0,M,,*68
$GPRMC,155624,A,3408.6520,N,11904.6425,W,104.0,133.0,130217,0,E*7F
$GPGGA,155624,3408.6520,N,11904.6425,W,1,04,0.9,1052.7792,M,0.0,M,,*67
$GPRMC,155629,A,3408.5506,N,11904.5194,W,105.0,134.0,130217,0,E*7F
$GPGGA,155629,3408.5506,N,11904.5194,W,1,04,0.9,1049.7312,M,0.0,M,,*67
$GPRMC,155635,A,3408.4253,N,11904.3748,W,106.0,136.0,130217,0,E*74
$GPGGA,155635,3408.4253,N,11904.3748,W,1,04,0.9,1042.7208,M,0.0,M,,*6C
$GPRMC,155639,A,3408.3367,N,11904.2833,W,104.0,139.0,130217,0,E*76
$GPGGA,155639,3408.3367,N,11904.2833,W,1,04,0.9,1042.7208,M,0.0,M,,*63
$GPRMC,155643,A,3408.2450,N,11904.1958,W,105.0,142.0,130217,0,E*7B
$GPGGA,155643,3408.2450,N,11904.1958,W,1,04,0.9,1041.8064,M,0.0,M,,*67
$GPRMC,155650,A,3408.0747,N,11904.0515,W,108.0,145.0,130217,0,E*70
$GPGGA,155650,3408.0747,N,11904.0515,W,1,04,0.9,1035.7104,M,0.0,M,,*6D
$GPRMC,155657,A,3407.8958,N,11903.9200,W,110.0,148.0,130217,0,E*79
$GPGGA,155657,3407.8958,N,11903.9200,W,1,04,0.9,1023.8232,M,0.0,M,,*6E
$GPRMC,155704,A,3407.7088,N,11903.7926,W,112.0,150.0,130217,0,E*7F
$GPGGA,155704,3407.7088,N,11903.7926,W,1,04,0.9,1012.8504,M,0.0,M,,*63
$GPRMC,155709,A,3407.5802,N,11903.6947,W,109.0,147.0,130217,0,E*70
$GPGGA,155709,3407.5802,N,11903.6947,W,1,04,0.9,1007.9736,M,0.0,M,,*66
$GPRMC,155712,A,3407.5094,N,11903.6333,W,108.0,144.0,130217,0,E*76
$GPGGA,155712,3407.5094,N,11903.6333,W,1,04,0.9,1003.7064,M,0.0,M,,*68
$GPRMC,155716,A,3407.4174,N,11903.5470,W,105.0,141.0,130217,0,E*77
$GPGGA,155716,3407.4174,N,11903.5470,W,1,04,0.9,1003.7064,M,0.0,M,,*61
$GPRMC,155719,A,3407.3527,N,11903.4797,W,103.0,138.0,130217,0,E*7E
$GPGGA,155719,3407.3527,N,11903.4797,W,1,04,0.9,1002.792,M,0.0,M,,*58
$GPRMC,155731,A,3407.1080,N,11903.2043,W,102.0,137.0,130217,0,E*78
$GPGGA,155731,3407.1080,N,11903.2043,W,1,04,0.9,991.819200000001,M,0.0,M,,*5D
$GPRMC,155740,A,3406.9192,N,11902.9986,W,101.0,136.0,130217,0,E*7D
$GPGGA,155740,3406.9192,N,11902.9986,W,1,04,0.9,989.990400000001,M,0.0,M,,*55
$GPRMC,155743,A,3406.8597,N,11902.9248,W,102.0,134.0,130217,0,E*76
$GPGGA,155743,3406.8597,N,11902.9248,W,1,04,0.9,985.723200000001,M,0.0,M,,*53
$GPRMC,155753,A,3406.6726,N,11902.6760,W,100.0,131.0,130217,0,E*76
$GPGGA,155753,3406.6726,N,11902.6760,W,1,04,0.9,982.980000000001,M,0.0,M,,*56
$GPRMC,155804,A,3406.4708,N,11902.4056,W,101.0,132.0,130217,0,E*77
$GPGGA,155804,3406.4708,N,11902.4056,W,1,04,0.9,971.702400000001,M,0.0,M,,*59
$GPRMC,155809,A,3406.3703,N,11902.2872,W,103.0,135.0,130217,0,E*7B
$GPGGA,155809,3406.3703,N,11902.2872,W,1,04,0.9,964.996800000001,M,0.0,M,,*5B
$GPRMC,155813,A,3406.2802,N,11902.1931,W,106.0,138.0,130217,0,E*72
$GPGGA,155813,3406.2802,N,11902.1931,W,1,04,0.9,962.863200000001,M,0.0,M,,*5D
$GPRMC,155815,A,3406.2298,N,11902.1690,W,108.0,143.0,130217,0,E*7B
$GPGGA,155815,3406.2298,N,11902.1690,W,1,04,0.9,961.948800000001,M,0.0,M,,*57
$GPRMC,155816,A,3406.2032,N,11902.1530,W,107.0,149.0,130217,0,E*76
$GPGGA,155816,3406.2032,N,11902.1530,W,1,04,0.9,955.852800000001,M,0.0,M,,*52
$GPRMC,155817,A,3406.1750,N,11902.1385,W,107.0,152.0,130217,0,E*75
$GPGGA,155817,3406.1750,N,11902.1385,W,1,04,0.9,954.938400000001,M,0.0,M,,*5B
$GPRMC,155818,A,3406.1459,N,11902.1260,W,109.0,155.0,130217,0,E*73
$GPGGA,155818,3406.1459,N,11902.1260,W,1,04,0.9,953.719200000001,M,0.0,M,,*58
$GPRMC,155819,A,3406.1161,N,11902.1154,W,110.0,158.0,130217,0,E*7D
$GPGGA,155819,3406.1161,N,11902.1154,W,1,04,0.9,955.852800000001,M,0.0,M,,*5F
$GPRMC,155820,A,3406.0865,N,11902.1081,W,111.0,161.0,130217,0,E*79
$GPGGA,155820,3406.0865,N,11902.1081,W,1,04,0.9,952.804800000001,M,0.0,M,,*54
$GPRMC,155821,A,3406.0563,N,11902.1015,W,111.0,164.0,130217,0,E*7B
$GPGGA,155821,3406.0563,N,11902.1015,W,1,04,0.9,949.756800000001,M,0.0,M,,*51
$GPRMC,155822,A,3406.0256,N,11902.0973,W,112.0,167.0,130217,0,E*71
$GPGGA,155822,3406.0256,N,11902.0973,W,1,04,0.9,948.842400000001,M,0.0,M,,*5C
$GPRMC,155823,A,3405.9937,N,11902.0938,W,114.0,170.0,130217,0,E*79
$GPGGA,155823,3405.9937,N,11902.0938,W,1,04,0.9,946.708800000001,M,0.0,M,,*57
$GPRMC,155824,A,3405.9624,N,11902.0925,W,115.0,173.0,130217,0,E*7D
$GPGGA,155824,3405.9624,N,11902.0925,W,1,04,0.9,945.794400000001,M,0.0,M,,*5B
$GPRMC,155826,A,3405.8999,N,11902.0916,W,114.0,177.0,130217,0,E*72
$GPGGA,155826,3405.8999,N,11902.0916,W,1,04,0.9,942.746400000001,M,0.0,M,,*59
$GPRMC,155828,A,3405.8340,N,11902.0965,W,115.0,181.0,130217,0,E*7E
$GPGGA,155828,3405.8340,N,11902.0965,W,1,04,0.9,939.698400000001,M,0.0,M,,*53
$GPRMC,155830,A,3405.7671,N,11902.1080,W,118.0,185.0,130217,0,E*75
$GPGGA,155830,3405.7671,N,11902.1080,W,1,04,0.9,937.869600000001,M,0.0,M,,*5D
$GPRMC,155832,A,3405.7000,N,11902.1210,W,121.0,188.0,130217,0,E*7B
$GPGGA,155832,3405.7000,N,11902.1210,W,1,04,0.9,933.907200000001,M,0.0,M,,*5D
$GPRMC,155835,A,3405.5984,N,11902.1293,W,119.0,184.0,130217,0,E*77
$GPGGA,155835,3405.5984,N,11902.1293,W,1,04,0.9,929.944800000001,M,0.0,M,,*50
$GPRMC,155836,A,3405.5658,N,11902.1272,W,121.0,181.0,130217,0,E*7B
$GPGGA,155836,3405.5658,N,11902.1272,W,1,04,0.9,927.811200000001,M,0.0,M,,*57
$GPRMC,155838,A,3405.5061,N,11902.1186,W,120.0,178.0,130217,0,E*76
$GPGGA,155838,3405.5061,N,11902.1186,W,1,04,0.9,926.896800000001,M,0.0,M,,*59
$GPRMC,155839,A,3405.4918,N,11902.1104,W,116.0,175.0,130217,0,E*73
$GPGGA,155839,3405.4918,N,11902.1104,W,1,04,0.9,924.763200000001,M,0.0,M,,*59
$GPRMC,155840,A,3405.4676,N,11902.1003,W,104.0,171.0,130217,0,E*7B
$GPGGA,155840,3405.4676,N,11902.1003,W,1,04,0.9,925.982400000001,M,0.0,M,,*50
$GPRMC,155841,A,3405.4454,N,11902.0875,W,101.0,168.0,130217,0,E*7D
$GPGGA,155841,3405.4454,N,11902.0875,W,1,04,0.9,925.982400000001,M,0.0,M,,*5B
$GPRMC,155842,A,3405.4218,N,11902.0718,W,095.0,163.0,130217,0,E*73
$GPGGA,155842,3405.4218,N,11902.0718,W,1,04,0.9,925.982400000001,M,0.0,M,,*52
$GPRMC,155843,A,3405.3975,N,11902.0512,W,095.0,160.0,130217,0,E*7E
$GPGGA,155843,3405.3975,N,11902.0512,W,1,04,0.9,924.763200000001,M,0.0,M,,*5A
$GPRMC,155844,A,3405.3809,N,11902.0367,W,097.0,156.0,130217,0,E*70
$GPGGA,155844,3405.3809,N,11902.0367,W,1,04,0.9,924.763200000001,M,0.0,M,,*53
$GPRMC,155845,A,3405.3604,N,11902.0181,W,093.0,153.0,130217,0,E*79
$GPGGA,155845,3405.3604,N,11902.0181,W,1,04,0.9,921.715200000001,M,0.0,M,,*5F
$GPRMC,155846,A,3405.3371,N,11901.9830,W,092.0,150.0,130217,0,E*76
$GPGGA,155846,3405.3371,N,11901.9830,W,1,04,0.9,919.886400000001,M,0.0,M,,*5A
$GPRMC,155847,A,3405.3152,N,11901.9587,W,098.0,142.0,130217,0,E*7C
$GPGGA,155847,3405.3152,N,11901.9587,W,1,04,0.9,920.800800000001,M,0.0,M,,*51
$GPRMC,155849,A,3405.2760,N,11901.9123,W,100.0,138.0,130217,0,E*73
$GPGGA,155849,3405.2760,N,11901.9123,W,1,04,0.9,916.838400000001,M,0.0,M,,*51
$GPRMC,155851,A,3405.2384,N,11901.8653,W,097.0,135.0,130217,0,E*77
$GPGGA,155851,3405.2384,N,11901.8653,W,1,04,0.9,917.752800000001,M,0.0,M,,*59
$GPRMC,155853,A,3405.2022,N,11901.8142,W,097.0,132.0,130217,0,E*7A
$GPGGA,155853,3405.2022,N,11901.8142,W,1,04,0.9,918.972000000001,M,0.0,M,,*58
$GPRMC,155855,A,3405.1690,N,11901.7597,W,096.0,128.0,130217,0,E*79
$GPGGA,155855,3405.1690,N,11901.7597,W,1,04,0.9,919.886400000001,M,0.0,M,,*5E
$GPRMC,155857,A,3405.1387,N,11901.7040,W,096.0,125.0,130217,0,E*7A
$GPGGA,155857,3405.1387,N,11901.7040,W,1,04,0.9,919.886400000001,M,0.0,M,,*50
$GPRMC,155859,A,3405.1107,N,11901.6501,W,097.0,122.0,130217,0,E*79
$GPGGA,155859,3405.1107,N,11901.6501,W,1,04,0.9,917.752800000001,M,0.0,M,,*51
$GPRMC,155906,A,3405.0018,N,11901.4534,W,101.0,125.0,130217,0,E*71
$GPGGA,155906,3405.0018,N,11901.4534,W,1,04,0.9,910.742400000001,M,0.0,M,,*5A
$GPRMC,155913,A,3404.8875,N,11901.2521,W,101.0,124.0,130217,0,E*7C
$GPGGA,155913,3404.8875,N,11901.2521,W,1,04,0.9,909.828000000001,M,0.0,M,,*59
$GPRMC,155916,A,3404.8423,N,11901.1700,W,101.0,122.0,130217,0,E*72
$GPGGA,155916,3404.8423,N,11901.1700,W,1,04,0.9,910.742400000001,M,0.0,M,,*5E
$GPRMC,155920,A,3404.7771,N,11901.0634,W,101.0,126.0,130217,0,E*7F
$GPGGA,155920,3404.7771,N,11901.0634,W,1,04,0.9,909.828000000001,M,0.0,M,,*58
$GPRMC,155926,A,3404.6847,N,11900.8997,W,096.0,122.0,130217,0,E*76
$GPGGA,155926,3404.6847,N,11900.8997,W,1,04,0.9,913.790400000001,M,0.0,M,,*59
$GPRMC,155928,A,3404.6591,N,11900.8431,W,097.0,119.0,130217,0,E*76
$GPGGA,155928,3404.6591,N,11900.8431,W,1,04,0.9,913.790400000001,M,0.0,M,,*50
$GPRMC,155930,A,3404.6382,N,11900.7839,W,095.0,114.0,130217,0,E*7F
$GPGGA,155930,3404.6382,N,11900.7839,W,1,04,0.9,913.790400000001,M,0.0,M,,*56
$GPRMC,155935,A,3404.5779,N,11900.6367,W,098.0,118.0,130217,0,E*79
$GPGGA,155935,3404.5779,N,11900.6367,W,1,04,0.9,912.876000000001,M,0.0,M,,*53
$GPRMC,155941,A,3404.5054,N,11900.4627,W,097.0,115.0,130217,0,E*73
$GPGGA,155941,3404.5054,N,11900.4627,W,1,04,0.9,913.790400000001,M,0.0,M,,*59
$GPRMC,155950,A,3404.4016,N,11900.2044,W,095.0,116.0,130217,0,E*70
$GPGGA,155950,3404.4016,N,11900.2044,W,1,04,0.9,911.961600000001,M,0.0,M,,*5B
$GPRMC,155952,A,3404.3747,N,11900.1497,W,094.0,119.0,130217,0,E*71
$GPGGA,155952,3404.3747,N,11900.1497,W,1,04,0.9,911.961600000001,M,0.0,M,,*54
$GPRMC,155954,A,3404.3429,N,11900.0974,W,096.0,124.0,130217,0,E*71
$GPGGA,155954,3404.3429,N,11900.0974,W,1,04,0.9,909.828000000001,M,0.0,M,,*5B
$GPRMC,155955,A,3404.3256,N,11900.0721,W,097.0,127.0,130217,0,E*72
$GPGGA,155955,3404.3256,N,11900.0721,W,1,04,0.9,909.828000000001,M,0.0,M,,*5A
$GPRMC,155957,A,3404.2890,N,11900.0249,W,098.0,131.0,130217,0,E*72
$GPGGA,155957,3404.2890,N,11900.0249,W,1,04,0.9,908.913600000001,M,0.0,M,,*5C
$GPRMC,160004,A,3404.1608,N,11859.8603,W,096.0,132.0,130217,0,E*75
$GPGGA,160004,3404.1608,N,11859.8603,W,1,04,0.9,909.828000000001,M,0.0,M,,*58
$GPRMC,160009,A,3404.0723,N,11859.7433,W,093.0,131.0,130217,0,E*79
$GPGGA,160009,3404.0723,N,11859.7433,W,1,04,0.9,912.876000000001,M,0.0,M,,*53
$GPRMC,160023,A,3403.8435,N,11859.4126,W,092.0,128.0,130217,0,E*71
$GPGGA,160023,3403.8435,N,11859.4126,W,1,04,0.9,921.715200000001,M,0.0,M,,*5A
$GPRMC,160032,A,3403.6974,N,11859.2052,W,091.0,131.0,130217,0,E*78
$GPGGA,160032,3403.6974,N,11859.2052,W,1,04,0.9,930.859200000001,M,0.0,M,,*5F
$GPRMC,160035,A,3403.6429,N,11859.1439,W,091.0,135.0,130217,0,E*74
$GPGGA,160035,3403.6429,N,11859.1439,W,1,04,0.9,933.907200000001,M,0.0,M,,*5E
$GPRMC,160037,A,3403.6035,N,11859.1059,W,091.0,139.0,130217,0,E*71
$GPGGA,160037,3403.6035,N,11859.1059,W,1,04,0.9,934.821600000001,M,0.0,M,,*51
$GPRMC,160039,A,3403.5630,N,11859.0702,W,091.0,143.0,130217,0,E*7A
$GPGGA,160039,3403.5630,N,11859.0702,W,1,04,0.9,935.736000000001,M,0.0,M,,*59
$GPRMC,160045,A,3403.4448,N,11858.9526,W,089.0,140.0,130217,0,E*7B
$GPGGA,160045,3403.4448,N,11858.9526,W,1,04,0.9,938.784000000001,M,0.0,M,,*56
$GPRMC,160049,A,3403.3720,N,11858.8737,W,087.0,138.0,130217,0,E*7F
$GPGGA,160049,3403.3720,N,11858.8737,W,1,04,0.9,949.756800000001,M,0.0,M,,*52
$GPRMC,160052,A,3403.3194,N,11858.8120,W,087.0,135.0,130217,0,E*71
$GPGGA,160052,3403.3194,N,11858.8120,W,1,04,0.9,957.986400000001,M,0.0,M,,*51
$GPRMC,160101,A,3403.1704,N,11858.6241,W,085.0,132.0,130217,0,E*74
$GPGGA,160101,3403.1704,N,11858.6241,W,1,04,0.9,968.959200000001,M,0.0,M,,*59
$GPRMC,160108,A,3403.0620,N,11858.4758,W,082.0,129.0,130217,0,E*79
$GPGGA,160108,3403.0620,N,11858.4758,W,1,04,0.9,980.846400000001,M,0.0,M,,*56
$GPRMC,160114,A,3402.9733,N,11858.3390,W,085.0,128.0,130217,0,E*7E
$GPGGA,160114,3402.9733,N,11858.3390,W,1,04,0.9,991.819200000001,M,0.0,M,,*5B
$GPRMC,160118,A,3402.9140,N,11858.2481,W,084.0,128.0,130217,0,E*77
$GPGGA,160118,3402.9140,N,11858.2481,W,1,04,0.9,1002.792,M,0.0,M,,*5E
$GPRMC,160126,A,3402.8029,N,11858.0777,W,081.0,125.0,130217,0,E*75
$GPGGA,160126,3402.8029,N,11858.0777,W,1,04,0.9,1014.984,M,0.0,M,,*5A
$GPRMC,160129,A,3402.7673,N,11858.0117,W,080.0,122.0,130217,0,E*7A
$GPGGA,160129,3402.7673,N,11858.0117,W,1,04,0.9,1021.9944,M,0.0,M,,*60
$GPRMC,160135,A,3402.7008,N,11857.8730,W,080.0,120.0,130217,0,E*7B
$GPGGA,160135,3402.7008,N,11857.8730,W,1,04,0.9,1032.9672,M,0.0,M,,*6B
$GPRMC,160140,A,3402.6470,N,11857.7462,W,086.0,117.0,130217,0,E*7A
$GPGGA,160140,3402.6470,N,11857.7462,W,1,04,0.9,1036.9296,M,0.0,M,,*62
$GPRMC,160148,A,3402.5533,N,11857.5369,W,091.0,120.0,130217,0,E*7B
$GPGGA,160148,3402.5533,N,11857.5369,W,1,04,0.9,1039.9776,M,0.0,M,,*65
$GPRMC,160155,A,3402.4634,N,11857.3488,W,093.0,119.0,130217,0,E*74
$GPGGA,160155,3402.4634,N,11857.3488,W,1,04,0.9,1051.8648,M,0.0,M,,*61
$GPRMC,160158,A,3402.4279,N,11857.2733,W,088.0,119.0,130217,0,E*7C
$GPGGA,160158,3402.4279,N,11857.2733,W,1,04,0.9,1058.8752,M,0.0,M,,*60
$GPRMC,160203,A,3402.3734,N,11857.1451,W,084.0,116.0,130217,0,E*7D
$GPGGA,160203,3402.3734,N,11857.1451,W,1,04,0.9,1068.9336,M,0.0,M,,*66
$GPRMC,160208,A,3402.3223,N,11857.0154,W,086.0,115.0,130217,0,E*75
$GPGGA,160208,3402.3223,N,11857.0154,W,1,04,0.9,1071.9816,M,0.0,M,,*6E
$GPRMC,160212,A,3402.2833,N,11856.9088,W,087.0,113.0,130217,0,E*7B
$GPGGA,160212,3402.2833,N,11856.9088,W,1,04,0.9,1072.896,M,0.0,M,,*55
$GPRMC,160219,A,3402.2180,N,11856.7197,W,087.0,112.0,130217,0,E*71
$GPGGA,160219,3402.2180,N,11856.7197,W,1,04,0.9,1075.944,M,0.0,M,,*57
$GPRMC,160230,A,3402.1170,N,11856.4254,W,084.0,112.0,130217,0,E*7A
$GPGGA,160230,3402.1170,N,11856.4254,W,1,04,0.9,1083.8688,M,0.0,M,,*61
$GPRMC,160236,A,3402.0679,N,11856.2632,W,087.0,109.0,130217,0,E*78
$GPGGA,160236,3402.0679,N,11856.2632,W,1,04,0.9,1086.9168,M,0.0,M,,*67
$GPRMC,160240,A,3402.0314,N,11856.1553,W,088.0,112.0,130217,0,E*75
$GPGGA,160240,3402.0314,N,11856.1553,W,1,04,0.9,1089.9648,M,0.0,M,,*65
$GPRMC,160249,A,3401.9411,N,11855.9164,W,087.0,114.0,130217,0,E*76
$GPGGA,160249,3401.9411,N,11855.9164,W,1,04,0.9,1100.9376,M,0.0,M,,*67
$GPRMC,160257,A,3401.8592,N,11855.6992,W,089.0,114.0,130217,0,E*72
$GPGGA,160257,3401.8592,N,11855.6992,W,1,04,0.9,1102.7664,M,0.0,M,,*67
$GPRMC,160303,A,3401.7991,N,11855.5368,W,088.0,114.0,130217,0,E*7F
$GPGGA,160303,3401.7991,N,11855.5368,W,1,04,0.9,1111.9104,M,0.0,M,,*66
$GPRMC,160310,A,3401.7330,N,11855.3461,W,088.0,111.0,130217,0,E*71
$GPGGA,160310,3401.7330,N,11855.3461,W,1,04,0.9,1113.7392,M,0.0,M,,*6C
$GPRMC,160315,A,3401.6878,N,11855.2050,W,090.0,111.0,130217,0,E*7C
$GPGGA,160315,3401.6878,N,11855.2050,W,1,04,0.9,1110.996,M,0.0,M,,*52
$GPRMC,160320,A,3401.6466,N,11855.0627,W,089.0,108.0,130217,0,E*7D
$GPGGA,160320,3401.6466,N,11855.0627,W,1,04,0.9,1106.7288,M,0.0,M,,*67
$GPRMC,160322,A,3401.6335,N,11855.0051,W,089.0,105.0,130217,0,E*74
$GPGGA,160322,3401.6335,N,11855.0051,W,1,04,0.9,1105.8144,M,0.0,M,,*6C
$GPRMC,160325,A,3401.6159,N,11854.9093,W,094.0,103.0,130217,0,E*77
$GPGGA,160325,3401.6159,N,11854.9093,W,1,04,0.9,1102.7664,M,0.0,M,,*68
$GPRMC,160336,A,3401.5513,N,11854.5644,W,094.0,102.0,130217,0,E*7D
$GPGGA,160336,3401.5513,N,11854.5644,W,1,04,0.9,1101.852,M,0.0,M,,*5C
$GPRMC,160340,A,3401.5306,N,11854.4428,W,094.0,100.0,130217,0,E*75
$GPGGA,160340,3401.5306,N,11854.4428,W,1,04,0.9,1093.9272,M,0.0,M,,*6D
$GPRMC,160347,A,3401.4993,N,11854.2276,W,092.0,099.0,130217,0,E*79
$GPGGA,160347,3401.4993,N,11854.2276,W,1,04,0.9,1092.708,M,0.0,M,,*56
$GPRMC,160350,A,3401.4893,N,11854.1360,W,092.0,097.0,130217,0,E*75
$GPGGA,160350,3401.4893,N,11854.1360,W,1,04,0.9,1090.8792,M,0.0,M,,*6D
$GPRMC,160356,A,3401.4743,N,11853.9498,W,093.0,094.0,130217,0,E*7C
$GPGGA,160356,3401.4743,N,11853.9498,W,1,04,0.9,1084.7832,M,0.0,M,,*69
$GPRMC,160404,A,3401.4582,N,11853.7050,W,091.0,094.0,130217,0,E*7F
$GPGGA,160404,3401.4582,N,11853.7050,W,1,04,0.9,1083.8688,M,0.0,M,,*6F
$GPRMC,160408,A,3401.4553,N,11853.5856,W,089.0,091.0,130217,0,E*7F
$GPGGA,160408,3401.4553,N,11853.5856,W,1,04,0.9,1083.8688,M,0.0,M,,*63
$GPRMC,160414,A,3401.4575,N,11853.4093,W,088.0,088.0,130217,0,E*7F
$GPGGA,160414,3401.4575,N,11853.4093,W,1,04,0.9,1078.992,M,0.0,M,,*52
$GPRMC,160423,A,3401.4714,N,11853.1409,W,090.0,086.0,130217,0,E*7B
$GPGGA,160423,3401.4714,N,11853.1409,W,1,04,0.9,1067.7144,M,0.0,M,,*6B
$GPRMC,160430,A,3401.4881,N,11852.9300,W,090.0,083.0,130217,0,E*78
$GPGGA,160430,3401.4881,N,11852.9300,W,1,04,0.9,1060.704,M,0.0,M,,*5F
$GPRMC,160441,A,3401.5210,N,11852.6036,W,091.0,083.0,130217,0,E*75
$GPGGA,160441,3401.5210,N,11852.6036,W,1,04,0.9,1049.7312,M,0.0,M,,*6C
$GPRMC,160450,A,3401.5496,N,11852.3297,W,092.0,082.0,130217,0,E*73
$GPGGA,160450,3401.5496,N,11852.3297,W,1,04,0.9,1038.7584,M,0.0,M,,*67
$GPRMC,160452,A,3401.5488,N,11852.2682,W,092.0,088.0,130217,0,E*75
$GPGGA,160452,3401.5488,N,11852.2682,W,1,04,0.9,1036.9296,M,0.0,M,,*6F
$GPRMC,160453,A,3401.5472,N,11852.2387,W,093.0,091.0,130217,0,E*78
$GPGGA,160453,3401.5472,N,11852.2387,W,1,04,0.9,1036.9296,M,0.0,M,,*6B
$GPRMC,160455,A,3401.5355,N,11852.1766,W,094.0,100.0,130217,0,E*7A
$GPGGA,160455,3401.5355,N,11852.1766,W,1,04,0.9,1034.796,M,0.0,M,,*59
$GPRMC,160457,A,3401.5184,N,11852.1156,W,095.0,105.0,130217,0,E*77
$GPGGA,160457,3401.5184,N,11852.1156,W,1,04,0.9,1033.8816,M,0.0,M,,*68
$GPRMC,160459,A,3401.4908,N,11852.0569,W,097.0,110.0,130217,0,E*7B
$GPGGA,160459,3401.4908,N,11852.0569,W,1,04,0.9,1034.796,M,0.0,M,,*5A
$GPRMC,160500,A,3401.4754,N,11852.0303,W,100.0,116.0,130217,0,E*72
$GPGGA,160500,3401.4754,N,11852.0303,W,1,04,0.9,1034.796,M,0.0,M,,*5A
$GPRMC,160501,A,3401.4609,N,11852.0028,W,100.0,119.0,130217,0,E*7F
$GPGGA,160501,3401.4609,N,11852.0028,W,1,04,0.9,1033.8816,M,0.0,M,,*60
$GPRMC,160509,A,3401.3491,N,11851.7883,W,095.0,121.0,130217,0,E*78
$GPGGA,160509,3401.3491,N,11851.7883,W,1,04,0.9,1033.8816,M,0.0,M,,*61
$GPRMC,160515,A,3401.2716,N,11851.6225,W,095.0,118.0,130217,0,E*75
$GPGGA,160515,3401.2716,N,11851.6225,W,1,04,0.9,1031.748,M,0.0,M,,*58
$GPRMC,160521,A,3401.1979,N,11851.4518,W,095.0,117.0,130217,0,E*72
$GPGGA,160521,3401.1979,N,11851.4518,W,1,04,0.9,1029.9192,M,0.0,M,,*61
$GPRMC,160525,A,3401.1511,N,11851.3386,W,095.0,115.0,130217,0,E*70
$GPGGA,160525,3401.1511,N,11851.3386,W,1,04,0.9,1030.8336,M,0.0,M,,*64
$GPRMC,160533,A,3401.0620,N,11851.1147,W,093.0,114.0,130217,0,E*7D
$GPGGA,160533,3401.0620,N,11851.1147,W,1,04,0.9,1031.748,M,0.0,M,,*5A
$GPRMC,160537,A,3401.0232,N,11851.0024,W,091.0,112.0,130217,0,E*7F
$GPGGA,160537,3401.0232,N,11851.0024,W,1,04,0.9,1032.9672,M,0.0,M,,*6E
$GPRMC,160540,A,3400.9983,N,11850.9165,W,090.0,109.0,130217,0,E*71
$GPGGA,160540,3400.9983,N,11850.9165,W,1,04,0.9,1034.796,M,0.0,M,,*5F
$GPRMC,160545,A,3400.9530,N,11850.7756,W,091.0,112.0,130217,0,E*73
$GPGGA,160545,3400.9530,N,11850.7756,W,1,04,0.9,1034.796,M,0.0,M,,*56
$GPRMC,160549,A,3400.9082,N,11850.6630,W,093.0,116.0,130217,0,E*75
$GPGGA,160549,3400.9082,N,11850.6630,W,1,04,0.9,1036.9296,M,0.0,M,,*68
$GPRMC,160551,A,3400.8820,N,11850.6147,W,092.0,119.0,130217,0,E*74
$GPGGA,160551,3400.8820,N,11850.6147,W,1,04,0.9,1038.7584,M,0.0,M,,*63
$GPRMC,160553,A,3400.8537,N,11850.5636,W,092.0,123.0,130217,0,E*76
$GPGGA,160553,3400.8537,N,11850.5636,W,1,04,0.9,1041.8064,M,0.0,M,,*62
$GPRMC,160559,A,3400.7638,N,11850.4214,W,089.0,127.0,130217,0,E*74
$GPGGA,160559,3400.7638,N,11850.4214,W,1,04,0.9,1046.988,M,0.0,M,,*5A
$GPRMC,160610,A,3400.5994,N,11850.1676,W,088.0,128.0,130217,0,E*7A
$GPGGA,160610,3400.5994,N,11850.1676,W,1,04,0.9,1049.7312,M,0.0,M,,*6B
$GPRMC,160616,A,3400.5040,N,11850.0328,W,088.0,132.0,130217,0,E*78
$GPGGA,160616,3400.5040,N,11850.0328,W,1,04,0.9,1057.9608,M,0.0,M,,*6D
$GPRMC,160619,A,3400.4497,N,11849.9704,W,090.0,136.0,130217,0,E*7E
$GPGGA,160619,3400.4497,N,11849.9704,W,1,04,0.9,1063.752,M,0.0,M,,*56
$GPRMC,160622,A,3400.3933,N,11849.9132,W,088.0,140.0,130217,0,E*79
